poi_info_id,point_type,public_access,latitude,longitude,web_poi,web_street_addr,web_muni_addr,parking_connection_id,parking_info_id,maintenance_div,maintenance_div_nickname,name,alt_name,alt2_name,accessible,bike_parking,bike_rental,birding,boat_ramp,boat_rental,camping,canoe,comfortstation,cross_country,cycling,disc_golf,dog_friendly,dog_leash,drinkingwater,driving_range,drone,ecological,equestrian,fitness_stairs,fishing,ice_fishing,gas_powered,golf,hiking,indoor_rental,large_capacity,m_airplane,m_boat,nature_center,nature_preserve,natureplay,no_alcohol,no_dogs,no_fishing,no_parking,overlook,pavilion,public_building,picnic_grove,shelter,skating_ice,skating_inline,sledding,snowmobile,swimming,toboggan,volunteer,zip_line,bathroom_building_winter,bathroom_building_summer,bathroom_building_ada,bathroom_portable_summer,bathroom_portable_winter,bathroom_portable_ada,shower,dining_hall,sanitation_station,camp_store,accessible_shelter,accessible_canoe,accessible_boat,accessible_fishing,accessible_campsite,web_map_geom,geom
2,nature preserve,,41.6784402784034,-87.8936629947387,yes,,"Cook County, IL 60464",61,0,Palos,,Cap Sauers Holding Nature Preserve,Palos,,0,0,0,0,0,0,0,0,0,1,1,0,0,0,0,0,0,1,0,0,0,0,0,0,1,0,0,0,0,0,1,0,0,0,0,1,0,0,0,0,0,0,0,0,0,0,0,1,0,0,0,0,0,0,0,0,0,0,0,0,0,0,0,0,,0101000020E6100000150346C631F955C064058C21D7D64440
3,nature preserve,,41.7093005567491,-87.8628168865171,yes,,"Cook County, IL 60480",67,0,Palos,,Cranberry Slough Nature Preserve,Palos,,0,0,0,0,0,0,0,0,0,1,1,0,0,0,0,0,0,1,0,0,0,0,0,0,1,0,0,0,0,0,1,0,0,0,1,1,0,0,0,0,0,0,0,0,0,0,0,1,0,0,0,0,0,0,0,0,0,0,0,0,0,0,0,0,,0101000020E6100000C181516438F755C01F24535CCADA4440
12,golf course,,41.6001490639521,-87.7638582069222,yes,16310 S Central Ave,"Oak Forest, IL 60452",,280,Tinley Creek,,George W. Dunne National Golf Course,,,0,0,0,0,0,0,0,0,0,0,0,0,0,0,0,1,0,0,0,0,0,0,0,1,0,0,0,0,0,0,0,0,0,0,0,0,0,0,0,0,0,0,0,0,0,0,0,0,0,0,0,0,0,0,0,0,0,0,0,0,0,0,0,0,,0101000020E6100000C460880DE3F055C062343DAFD1CC4440
13,activity area,,41.7324336383051,-87.6807221456909,yes,"S Western Ave, south of W 87th St","Chicago, IL 60620",,135,Calumet,,Dan Ryan Woods-South,,,0,0,0,0,0,0,0,0,0,0,0,0,0,0,0,0,0,1,0,0,0,0,0,0,0,0,0,0,0,0,0,0,1,0,0,0,0,0,0,1,1,0,0,0,0,0,0,1,0,0,0,0,1,1,0,0,0,0,0,0,0,0,0,0,,0101000020E6100000F2599EF390EB55C0B082AD62C0DD4440
15,aquatic center,yes,41.6026404371242,-87.5534210748,yes,1100 River Oaks Drive,"Calumet City, IL 60409",,90,Thorn Creek ,,Green Lake Family Aquatic Center,Green Lake Pool,,0,0,0,0,0,0,0,0,0,0,0,0,0,0,0,0,0,0,0,0,0,0,0,0,0,0,0,0,0,0,0,0,0,1,0,0,0,0,0,0,0,0,0,0,0,1,0,0,0,1,1,1,0,0,0,0,0,0,0,0,0,0,0,0,,0101000020E6100000B74B3A406BE355C0555A645223CD4440
16,nature preserve,,41.6280980643747,-87.546222161368,yes,"","Calumet City, IL 60409",,0,Thorn Creek ,,Calumet City Prairie & Marsh Nature Preserve,,,0,0,0,0,0,0,0,0,0,0,0,0,0,0,0,0,0,1,0,0,0,0,0,0,0,0,0,0,0,0,1,0,0,1,0,1,0,0,0,0,0,0,0,0,0,0,0,0,0,0,0,0,0,0,0,0,0,0,0,0,0,0,0,0,,0101000020E610000040DBCB4DF5E255C01597728465D04440
19,activity area,,41.6180913233709,-87.5458031363017,yes,,"Calumet City, IL 60409",,0,Thorn Creek ,,Wentworth Prairie,,,0,0,0,0,0,0,0,0,0,0,0,0,0,0,0,0,0,1,0,0,0,0,0,0,0,0,0,0,0,0,0,0,0,0,0,1,0,0,0,0,0,0,0,0,0,0,0,0,0,0,0,0,0,0,0,0,0,0,0,0,0,0,0,0,,0101000020E6100000121E4770EEE255C02DEAD19D1DCF4440
20,activity area,,41.634736801691,-87.6592241700085,yes,"Wood St, south of Thornton Rd","Dixmoor, IL 60426",,323,Calumet,,Dixmoor Playfield,,,0,0,0,0,0,0,0,0,0,0,0,0,0,0,0,0,0,0,0,0,0,0,0,0,0,0,0,0,0,0,0,0,0,0,0,0,0,0,0,0,1,0,0,0,0,0,0,0,0,0,0,0,1,1,0,0,0,0,0,0,0,0,0,0,,0101000020E6100000D5BA92BA30EA55C09E6B360E3FD14440
21,activity area,,41.500380708745,-87.6494012999376,yes,,"Chicago Heights, IL 60411",,0,Thorn Creek ,,Indian Hill Woods,,,0,0,0,0,0,0,0,0,0,0,0,0,0,0,0,0,0,1,0,0,0,0,0,0,0,0,0,0,0,0,0,0,0,0,0,1,0,0,0,0,0,0,0,0,0,0,0,0,0,0,0,0,0,0,0,0,0,0,0,0,0,0,0,0,,0101000020E61000008E4D78CA8FE955C03ACF9D790CC04440
22,activity area,,41.5715772006866,-87.5919974703954,yes,"Thornton-Lansing Rd, west of IL-394","Cook County, IL 60476",,113,Thorn Creek ,Wampum,Wampum Lake,,,0,0,0,0,0,0,0,0,0,0,0,0,0,0,0,0,0,0,0,0,1,1,0,0,0,0,0,0,0,0,0,0,0,0,0,0,0,0,0,1,1,0,0,0,0,0,0,1,0,0,0,0,1,1,0,0,0,0,0,0,0,0,0,0,,0101000020E61000006AAA5B49E3E555C08F0C147129C94440
23,activity area,,42.0599441421809,-87.7123799219771,yes,Ewing Ave &amp; Grant St,"Evanston, IL 60201",,0,North Branch,,Perkins Woods,,,0,0,0,1,0,0,0,0,0,0,0,0,0,0,0,0,0,1,0,0,0,0,0,0,0,0,0,0,0,0,0,0,0,0,0,1,0,0,0,0,0,0,0,0,0,0,0,1,0,0,0,0,0,0,0,0,0,0,0,0,0,0,0,0,,0101000020E6100000FFCDF4A197ED55C0EE21E93FAC074540
27,activity area,,41.4947054229015,-87.5428955969306,yes,"Burnham Ave, south of E Sauk Trail","Cook County, IL 60411",,330,Thorn Creek ,,Michael J. O'Malley Preserve,O'Malley Ponds,,0,0,0,0,0,0,0,0,0,0,0,0,0,0,0,0,0,0,0,0,1,0,0,0,0,0,0,0,0,0,0,0,0,0,0,1,0,0,0,0,0,0,0,0,0,0,0,0,0,0,0,0,0,0,0,0,0,0,0,0,0,0,0,0,,0101000020E6100000667D2CCDBEE255C04D43DE8152BF4440
28,activity area,,41.484630847409,-87.5337460697742,yes,"Burnham Ave, north of 223rd St","Cook County, IL 60411",,103,Thorn Creek ,Plum Creek,Plum Creek Meadow,,,1,0,0,0,0,0,0,0,0,1,1,0,0,1,0,0,1,1,0,0,0,0,0,0,1,0,1,0,0,0,0,0,0,0,0,0,0,0,0,0,1,0,0,0,0,0,0,0,0,0,1,1,0,0,0,0,0,0,0,1,0,0,0,0,,0101000020E6100000198346E528E255C0CE21346208BE4440
29,activity area,,42.0477924214506,-88.0226419129759,yes,"Golf Rd, east of I-290/Hwy 53","Cook County, IL 60007",,143,Northwest,,Ned Brown Meadow,Busse Woods,,0,0,0,0,0,0,0,0,0,1,1,0,0,1,0,0,1,0,0,0,0,0,0,0,1,0,0,1,0,0,0,0,0,0,1,0,0,0,0,0,1,0,1,0,1,0,0,1,0,1,1,0,0,0,0,0,0,0,0,0,0,0,0,0,,0101000020E610000005F010F7720156C0BB91E30F1E064540
30,nature preserve,,42.0451442772333,-88.0049375571207,yes,,"Cook County, IL 60007",316,0,Northwest,,Busse Forest Nature Preserve,Busse Woods,Ned Brown,0,0,0,1,0,0,0,0,0,0,0,0,0,0,0,0,0,0,0,0,0,0,0,0,0,0,0,0,0,0,1,0,1,1,1,1,0,0,0,0,0,0,0,0,0,0,0,1,0,0,0,0,0,0,0,0,0,0,0,0,0,0,0,0,,0101000020E6100000C1969DE5500056C0362AA549C7054540
31,activity area,,42.0248840654301,-87.9928974822813,yes,"E Higgins Rd/Rte 72, west of N Arlington Heights Rd","Cook County, IL 60007",,312,Northwest,,Busse Forest-South,Busse Woods,Ned Brown,1,0,0,0,0,0,0,0,0,1,1,0,0,1,0,0,0,1,0,0,1,1,0,0,1,0,1,0,0,0,0,0,0,0,0,0,0,0,0,1,1,0,1,0,0,0,0,1,0,0,1,1,0,1,0,0,0,0,0,1,0,0,0,0,,0101000020E610000072ABE1A18BFF55C0D09CAB662F034540
34,activity area,,42.0093927955306,-87.8573902373624,yes,"E Touhy Ave, east of Talcott Rd","Park Ridge, IL 60068",,21,Indian Boundary,,John E. Traeger Family Picnic Area,,,0,0,0,0,0,0,0,0,0,0,0,0,0,0,0,0,0,0,0,0,0,0,0,0,0,0,0,0,0,0,0,0,0,0,0,0,0,0,0,0,0,0,0,0,0,0,0,0,0,0,0,0,0,0,0,0,0,0,0,0,0,0,0,0,,0101000020E610000061584D7BDFF655C00DD17AC833014540
35,activity area,,42.0398829309904,-88.1507147384845,yes,"E Bode Rd, west of S Barrington Rd","Hoffman Estates, IL 60107",,333,Northwest,,Bode East,Arthur L. Janura Preserve,,0,0,0,0,0,0,0,0,0,1,1,0,0,1,0,0,0,0,0,0,0,0,0,0,1,0,0,0,0,0,0,0,0,0,0,0,0,0,0,0,0,0,1,0,0,0,0,0,0,0,0,0,1,0,0,0,0,0,0,0,0,0,0,0,,0101000020E61000003B346E4FA50956C0532446E21A054540
39,activity area,,41.8834489126874,-87.8276994451372,yes,,"River Forest, IL 60305",,0,Indian Boundary,,G.A.R. Woods,Grand Army of the Republic Woods,,0,0,0,0,0,0,0,0,0,0,0,0,0,0,0,0,0,1,0,0,0,0,0,0,0,0,0,0,0,0,0,0,0,0,0,1,0,0,0,0,0,0,0,0,0,0,0,0,0,0,0,0,0,0,0,0,0,0,0,0,0,0,0,0,,0101000020E610000002F21707F9F455C050D89DDA14F14440
40,activity area,,41.8805970783322,-87.8266900165327,yes,,"River Forest, IL 60305",,0,Indian Boundary,,Thomas Jefferson Woods,,,0,0,0,0,0,0,0,0,0,0,0,0,0,0,0,0,0,1,0,0,0,0,0,0,0,0,0,0,0,0,0,0,0,0,0,1,0,0,0,0,0,0,0,0,0,0,0,0,0,0,0,0,0,0,0,0,0,0,0,0,0,0,0,0,,0101000020E6100000FE3B3E7DE8F455C05333B267B7F04440
41,special activity,,41.8328520584018,-87.8359964800037,yes,3300 Golf Rd,"Brookfield, IL 60513",,337,Salt Creek,,Brookfield Zoo,,,0,0,0,1,0,0,0,0,0,0,0,0,0,0,0,0,0,0,0,0,0,0,0,0,1,0,0,0,0,0,0,0,0,0,1,0,0,0,0,0,0,0,0,0,0,0,0,0,0,1,1,1,0,0,0,0,0,0,0,0,0,0,0,0,,0101000020E6100000F94B61F780F555C059A070E59AEA4440
42,activity area,,41.8474524561742,-87.8690492912182,yes,"W Cermak Rd, east of S Manheim Rd/S La Grange Rd","Cook County, IL 60526",,11,Salt Creek,Westchester,Westchester Woods,,,0,0,0,0,0,0,0,0,0,0,0,0,0,0,0,0,0,0,0,0,0,0,0,0,0,0,0,0,0,0,0,0,0,0,0,0,0,0,0,1,0,0,0,1,0,0,0,0,0,0,0,0,1,1,0,0,0,0,0,0,0,0,0,0,,0101000020E61000003719EB809EF755C0D018745279EC4440
43,nature preserve,,41.8385172657,-87.9046266903584,yes,"31st St, west of Wolf Rd","Cook County, IL 60154",,251,Salt Creek,,Wolf Road Prairie Nature Preserve,,,0,0,0,1,0,0,0,0,0,0,0,0,0,0,0,0,0,1,0,0,0,0,0,0,0,0,0,0,0,0,1,0,0,1,0,0,0,0,0,0,0,0,0,0,0,0,0,1,0,0,0,0,0,0,0,0,0,0,0,0,0,0,0,0,,0101000020E6100000658B5867E5F955C06EA9A48854EB4440
44,aquatic center,yes,41.8189766941103,-87.8117771381533,yes,7600 W Ogden Ave,"Lyons, IL 60534",,336,Salt Creek,The Pool,Cermak Family Aquatic Center,Cermak Pool,,0,0,0,0,0,0,0,0,0,0,0,0,0,0,0,0,0,0,0,0,0,0,0,0,0,0,0,0,0,0,0,0,0,1,0,0,0,0,0,0,0,0,0,0,0,1,0,0,0,1,1,1,0,0,0,0,0,0,0,0,0,0,0,0,0101000020E610000069AF878E22F455C082D3AF5BFCE84440,0101000020E61000008E001928F4F355C048B3723AD4E84440
46,activity area,,42.1335743692229,-87.8051695640778,yes,,"Northbrook, IL 60062",,0,North Branch,,Chipilly Woods,,,0,0,0,0,0,0,0,0,0,0,0,0,0,0,0,0,0,0,0,0,0,0,0,0,0,0,0,0,0,0,0,0,0,0,0,1,0,0,0,0,0,0,0,0,0,0,0,0,0,0,0,0,0,0,0,0,0,0,0,0,0,0,0,0,,0101000020E6100000B85CECE587F355C037B405F718114540
47,activity area,,42.1423442131049,-87.8299956210892,yes,,"Cook County, IL 60062",163,0,North Branch,,Somme Prairie Grove Nature Preserve,Somme Woods,,0,0,0,0,0,0,0,0,0,0,0,0,0,0,0,0,0,1,0,0,0,0,0,0,0,0,0,0,0,0,1,0,0,0,0,1,0,0,0,0,0,0,0,0,0,0,0,1,0,0,0,0,0,0,0,0,0,0,0,0,0,0,0,0,,0101000020E6100000B019F4A51EF555C03D09CE5538124540
49,activity area,,42.1504784215512,-87.7786838758566,yes,,"Glencoe, IL 60022",,0,North Branch,,Mary Mix McDonald Woods,William N. Erickson Preserves,Skokie Lagoons,0,0,0,0,0,0,0,0,0,0,0,0,0,0,0,0,0,1,0,0,0,0,0,0,0,0,0,0,0,0,0,0,0,0,0,1,0,0,0,0,0,0,0,0,0,0,0,0,0,0,0,0,0,0,0,0,0,0,0,0,0,0,0,0,,0101000020E61000007C2EE5F4D5F155C0FCA97DE042134540
51,golf course,,41.99296015882,-87.7705130130415,yes,6100 N Central Ave,"Chicago, IL 60646",,242,North Branch,,Edgebrook Golf Course,,,0,0,0,0,0,0,0,0,0,0,0,0,0,0,0,0,0,0,0,0,0,0,0,1,0,0,0,0,0,0,0,0,0,0,0,0,0,0,0,0,0,0,0,0,0,0,0,0,0,0,0,0,0,0,0,0,0,0,0,0,0,0,0,0,0101000020E6100000108C3D3909F155C0A3A2D0AAC7FE4440,0101000020E6100000F809D01550F155C0E52F885119FF4440
52,activity area,,41.9890384355562,-87.7642791595144,yes,"N Central Ave, north of N Elston Ave","Chicago, IL 60646",,121,North Branch,,"Thaddeus S. ""Ted"" Lechowicz Woods",Indian Road Woods,,0,0,0,0,0,0,0,0,0,1,1,0,0,1,0,0,0,1,0,0,0,0,0,0,1,0,0,0,0,0,0,0,0,0,0,0,0,0,0,0,1,0,0,1,0,0,0,1,0,0,0,0,1,1,0,0,0,0,0,0,0,0,0,0,,0101000020E61000003EC822F3E9F055C02D9BBBCF98FE4440
55,activity area,,41.7210067295146,-87.8485448767528,yes,"S Kean Ave, north of W 95th St","Cook County, IL 60480",,320,Palos,,Hidden Pond Woods-East,Palos,,0,0,0,0,0,0,0,0,0,1,1,0,0,1,0,0,0,1,1,0,0,0,0,0,1,0,0,0,0,0,0,0,0,0,1,0,0,0,0,1,0,1,0,0,0,0,0,1,0,0,0,0,1,0,0,0,0,0,0,0,0,0,0,0,,0101000020E6100000DDB52B8F4EF655C056BCD1F249DC4440
56,activity area,,41.9766177219045,-87.745092424784,yes,"N Cicero Ave, north of W Foster Ave","Chicago, IL 60630",,124,North Branch,,LaBagh Woods,Sauganash Prairie,,1,0,0,1,0,0,0,0,0,1,1,0,0,1,0,0,0,1,0,0,0,0,0,0,1,0,0,0,0,0,0,0,1,0,0,0,0,0,0,0,1,0,0,0,0,0,0,1,0,0,1,1,0,1,1,0,0,0,0,1,0,0,0,0,,0101000020E6100000723C2398AFEF55C080243CCF01FD4440
58,activity area,yes,41.7094065907726,-87.8729945846752,yes,"Willow Springs Rd, south of 95th St","Cook County, IL 60480",,192,Palos,,Camp Kiwanis Equestrian Staging Area,Palos,,0,0,0,0,0,0,0,0,0,1,1,0,0,1,0,0,0,0,1,0,0,0,0,0,1,0,0,0,0,0,0,0,0,0,0,0,0,0,0,0,0,0,0,0,0,0,0,0,0,0,0,0,0,0,0,0,0,0,0,0,0,0,0,0,,0101000020E6100000F3B0AD24DFF755C00C79CDD5CDDA4440
60,activity area,,41.7023968536751,-87.8773735176754,yes,"S Willow Springs Rd/Flavin Rd, north of 107th St","Cook County, IL 60480",,311,Palos,,Joe's Pond,,,0,0,0,0,0,0,0,0,0,0,0,0,0,0,0,0,0,0,0,0,1,0,0,0,0,0,0,0,0,0,0,0,0,0,0,0,0,0,0,0,0,0,0,0,0,0,0,0,0,0,0,0,0,0,0,0,0,0,0,0,0,0,0,0,,0101000020E6100000B73241E326F855C0D8ADDD23E8D94440
61,activity area,,41.7043176456379,-87.8734602656413,yes,"S Willow Springs Rd/Flavin Rd, north of 107th St","Cook County, IL 60480",,419,Palos,,Tuma Lake,,,0,0,0,0,0,0,0,0,0,0,0,0,0,0,0,0,0,0,0,0,1,0,0,0,0,0,0,0,0,0,0,0,0,0,0,0,0,0,0,0,0,0,0,0,0,0,0,0,0,0,0,0,0,0,0,0,0,0,0,0,0,0,0,0,,0101000020E61000003DD2E2C5E6F755C0AD02A31427DA4440
64,activity area,,42.0560644867655,-87.877466131064,yes,,"Cook County, IL 60016",,0,Indian Boundary,,Kloempken Prairie,,,0,0,0,0,0,0,0,0,0,0,0,0,0,0,0,0,0,1,0,0,0,0,0,0,0,0,0,0,0,0,0,0,0,0,0,1,0,0,0,0,0,0,0,0,0,0,0,1,0,0,0,0,0,0,0,0,0,0,0,0,0,0,0,0,,0101000020E61000001D11B46728F855C06D91001F2D074540
65,nature preserve,,42.1457695340062,-88.2155225046444,yes,,"Barrington Hills, IL 60010",347,0,Northwest,,Spring Lake Nature Preserve,,,0,0,0,0,0,0,0,0,0,1,1,0,0,0,0,0,0,1,0,0,0,0,0,0,1,0,0,0,0,0,1,0,0,0,0,1,0,0,0,0,0,0,0,0,0,0,0,1,0,0,0,0,0,0,0,0,0,0,0,0,0,0,0,0,,0101000020E6100000FA3FE71ECB0D56C02DA97A93A8124540
68,activity area,,41.5671200238494,-87.7519826724246,yes,,"Cook County, IL 60477",,0,Tinley Creek,,Tryner's Pond,,,0,0,0,0,0,0,0,0,0,0,0,0,0,0,0,0,0,0,0,0,1,0,0,0,0,0,0,0,0,0,0,0,0,0,0,1,0,0,0,0,0,0,0,0,0,0,0,0,0,0,0,0,0,0,0,0,0,0,0,0,0,0,0,0,,0101000020E61000003D4EEE7B20F055C0CDAC916397C84440
70,nature preserve,,41.6462654258348,-87.5332752786501,yes,,"Chicago, IL 60633",149,0,Calumet,,Powderhorn Prairie and Marsh Nature Preserve,,,0,0,0,1,0,0,0,0,0,0,0,0,0,0,0,0,0,1,0,0,0,0,0,0,0,0,0,0,0,0,1,0,0,1,1,1,0,0,0,0,0,0,0,0,0,0,0,1,0,0,0,0,0,0,0,0,0,0,0,0,0,0,0,0,,0101000020E61000004C64A22E21E255C0CC4052D3B8D24440
74,activity area,,41.6591317588222,-87.9246980392589,yes,,"Cook County, IL 60439",297,0,Palos,,McGinty Slough,,,0,0,0,0,0,0,0,0,0,0,0,0,0,0,0,0,0,0,0,0,1,0,0,0,0,0,0,0,0,0,0,0,0,0,0,1,0,0,0,0,0,0,0,0,0,0,0,0,0,0,0,0,0,0,0,0,0,0,0,0,0,0,0,0,,0101000020E6100000B552AF402EFB55C001F4F16D5ED44440
76,nature preserve,,41.5370289657047,-87.7618932578595,yes,"Flossmoor Rd, west of Central Ave","Cook County, IL 60477",,310,Tinley Creek,,Bartel Grassland Land and Water Reserve,South Green Belt Preserves,,0,0,0,1,0,0,0,0,0,0,0,0,0,0,0,0,0,1,0,0,0,0,0,0,0,0,0,0,0,0,1,0,0,1,0,0,0,0,0,0,0,0,0,0,0,0,0,1,0,0,0,0,1,0,0,0,0,0,0,0,0,0,0,0,,0101000020E61000002763F0DBC2F055C0B65B7A5DBDC44440
81,activity area,,42.036030482894,-88.2307713965283,yes,11N260 Rohrssen Rd,"Elgin, IL 60120",,188,Northwest,,Rolling Knolls,,,0,0,0,0,0,0,0,0,0,1,0,1,0,1,0,0,1,0,0,0,1,0,0,0,1,1,0,0,0,0,0,0,0,0,0,0,0,0,1,0,0,0,0,1,0,0,0,0,0,1,1,1,1,0,0,0,0,0,0,0,0,0,0,0,,0101000020E61000003F3C64F5C40E56C0A5D998A59C044540
82,activity area,,41.6340028311352,-87.5708694432507,yes,,"Calumet City, IL 60409",,0,Calumet,,Dolton Avenue Prairie,,,0,0,0,1,0,0,0,0,0,0,0,0,0,0,0,0,0,1,0,0,0,0,0,0,0,0,0,0,0,0,0,0,0,0,0,1,0,0,0,0,0,0,0,0,0,0,0,1,0,0,0,0,0,0,0,0,0,0,0,0,0,0,0,0,,0101000020E61000000A43FD1F89E455C05DA7380127D14440
84,nature preserve,,41.6136057653046,-87.5556691249524,yes,,"Calumet City, IL 60409",,0,Thorn Creek ,,Sand Ridge Nature Preserve,,,0,0,0,0,0,0,0,0,0,0,0,0,0,0,0,0,0,1,0,0,0,0,0,0,0,0,0,0,0,0,1,0,0,1,0,1,0,0,0,0,0,0,0,0,0,0,0,0,0,0,0,0,0,0,0,0,0,0,0,0,0,0,0,0,,0101000020E610000051C43B1590E355C0B0503BA28ACE4440
85,nature preserve,,41.5614590719372,-87.591180708297,yes,,"Cook County, IL 60476",,0,Thorn Creek ,,Thornton-Lansing Road Nature Preserve,Zanders Woods,,0,0,0,0,0,0,0,0,0,0,0,0,0,0,0,0,0,1,0,0,0,0,0,0,0,0,0,0,0,0,1,0,0,1,0,1,0,0,0,0,0,0,0,0,0,0,0,0,0,0,0,0,0,0,0,0,0,0,0,0,0,0,0,0,,0101000020E61000005B0A9CE7D5E555C0E50210E4DDC74440
86,nature preserve,,42.0600302309336,-88.1996920619862,yes,,"Cook County, IL 60192",156,0,Northwest,,Shoe Factory Road Prairie Nature Preserve,Arthur L. Janura Preserve,,0,0,0,1,0,0,0,0,0,0,0,0,0,0,0,0,0,1,0,0,0,0,0,0,0,0,0,0,0,0,1,0,0,1,0,1,0,0,0,0,0,0,0,0,0,0,0,0,0,0,0,0,0,0,0,0,0,0,0,0,0,0,0,0,,0101000020E610000016E036C1C70C56C03A521312AF074540
88,nature preserve,,41.7239625899084,-87.8869249334928,yes,,"Cook County, IL 60480",,0,Palos,,Paw Paw Woods Nature Preserve,Palos,,0,0,0,0,0,0,0,0,0,0,0,0,0,0,0,0,0,1,0,0,0,0,0,0,0,0,0,0,0,0,1,0,0,1,0,1,0,0,0,0,0,0,0,0,0,0,0,1,0,0,0,0,0,0,0,0,0,0,0,0,0,0,0,0,,0101000020E6100000F2D6CB60C3F855C0DD985FCEAADC4440
89,nature preserve,,41.6983424081041,-87.8414085910535,yes,,"Palos Hills, IL 60465",,0,Palos,,Palos Fen Nature Preserve,Palos,,0,0,0,0,0,0,0,0,0,0,0,0,0,0,0,0,0,1,0,0,0,0,0,0,0,0,0,0,0,0,1,0,0,1,0,1,0,0,0,0,0,0,0,0,0,0,0,0,0,0,0,0,0,0,0,0,0,0,0,0,0,0,0,0,,0101000020E61000007A496BA3D9F555C01C1DB64863D94440
91,nature preserve,,41.6386733260067,-87.5494566247011,yes,,"Burnham, IL 60633",300,0,Thorn Creek,,Burnham Prairie Nature Preserve,,,0,0,0,1,0,0,0,0,0,0,0,0,0,0,0,0,0,1,0,0,0,0,0,0,0,0,0,0,0,0,1,0,0,1,1,1,0,0,0,0,0,0,0,0,0,0,0,0,0,0,0,0,0,0,0,0,0,0,0,0,0,0,0,0,,0101000020E6100000596A1E4C2AE355C0AF042C0CC0D14440
92,nature preserve,,41.8318805351405,-87.8893346687094,yes,,"La Grange Park, IL 60526",151,0,Salt Creek,,Salt Creek Woods Nature Preserve,,,0,0,0,1,0,0,0,0,0,1,1,0,0,0,0,0,0,1,0,0,0,0,0,0,1,0,0,0,0,0,1,0,0,0,0,1,0,0,0,0,0,0,0,0,0,0,0,1,0,0,0,0,0,0,0,0,0,0,0,0,0,0,0,0,,0101000020E61000009153F5DBEAF855C01C4FB60F7BEA4440
93,nature preserve,,42.1418192736822,-87.8378815193573,yes,,"Cook County, IL 60062",163,0,North Branch,,Somme Prairie Nature Preserve,Somme Woods,,0,0,0,0,0,0,0,0,0,0,0,0,0,0,0,0,0,1,0,0,0,0,0,0,0,0,0,0,0,0,1,0,0,1,0,1,0,0,0,0,0,0,0,0,0,0,0,1,0,0,0,0,0,0,0,0,0,0,0,0,0,0,0,0,,0101000020E6100000FEE3CED99FF555C0A2354B2227124540
96,nature preserve,,41.6837383377182,-88.0250334973323,yes,,"Cook County, IL 60439",154,0,Palos,,Black Partridge Woods Nature Preserve,Goose Lake,,0,0,0,0,0,0,0,0,0,0,0,0,0,0,0,0,0,0,0,0,0,0,0,0,0,0,0,0,0,0,1,0,1,1,1,1,0,0,0,0,0,0,0,0,0,0,0,1,0,0,0,0,0,0,0,0,0,0,0,0,0,0,0,0,,0101000020E6100000311619269A0156C003C4E3BC84D74440
97,nature preserve,,41.6917372715712,-87.9224335796247,yes,,"Cook County, IL 60439",267,0,Palos,,Sagawau Canyon Nature Preserve,Palos,Sagawau Environmental Learning Center,0,0,0,1,0,0,0,0,0,0,0,0,0,0,0,0,0,0,0,0,0,0,0,0,0,0,0,0,0,0,1,0,0,1,1,1,0,0,0,0,0,0,0,0,0,0,0,1,0,0,0,0,0,0,0,0,0,0,0,0,0,0,0,0,,0101000020E61000001A4EDA2609FB55C0986ACFD88AD84440
99,activity area,,41.6782487667657,-87.5295258210979,yes,,"Chicago, IL 60617",,0,Calumet,,Wolf Lake Overlook,,,0,0,0,1,0,0,0,0,0,0,0,0,0,0,0,0,0,1,0,0,0,0,0,0,0,0,0,0,0,0,0,0,0,0,1,1,1,0,0,0,0,0,0,0,0,0,0,0,0,0,0,0,0,0,0,0,0,0,0,0,0,0,0,0,,0101000020E61000002D0045C0E3E155C01DE907DBD0D64440
100,camp,,41.7091219193714,-87.9031915070664,yes,9600 Wolf Rd,"Willow Springs, IL 60480",,334,Palos,,Camp Bullfrog Lake,Palos,,1,0,0,0,0,1,1,0,0,1,1,0,0,1,0,0,0,0,0,0,1,1,0,0,1,0,0,0,0,0,0,0,0,0,0,0,0,0,0,0,1,0,0,0,0,0,0,0,0,1,1,1,0,0,0,1,1,1,1,0,1,0,1,1,,0101000020E61000000138C0E3CDF955C0304BCE81C4DA4440
101,nature preserve,,41.5553016910371,-87.5874930103786,yes,,"Cook County, IL 60476",162,0,Thorn Creek ,,Jurgensen Woods North Nature Preserve,,,0,0,0,1,0,0,0,0,0,1,1,0,0,0,0,0,0,0,0,0,0,0,0,0,1,0,0,0,0,0,1,0,0,0,0,1,0,0,0,0,0,0,0,0,0,0,0,0,0,0,0,0,0,0,0,0,0,0,0,0,0,0,0,0,,0101000020E61000001A8D487C99E555C0C536352014C74440
102,nature preserve,,41.6907763361242,-87.8648260077968,yes,,"Cook County, IL 60480",255,0,Palos,,McMahon Woods and Fen Nature Preserve,Palos,,0,0,0,1,0,0,0,0,0,0,0,0,0,0,0,0,0,1,0,0,0,0,0,0,0,0,0,0,0,0,1,0,0,1,0,1,0,0,0,0,0,0,0,0,0,0,0,1,0,0,0,0,0,0,0,0,0,0,0,0,0,0,0,0,,0101000020E6100000E80D2F4F59F755C0D641E65B6BD84440
103,activity area,,42.0177071722708,-87.8713454711081,yes,,"Cook County, IL 60018",,0,Indian Boundary,Campground Woods,Algonquin Woods,,,0,0,0,0,0,0,0,0,0,0,0,0,0,0,0,0,0,0,0,0,0,0,0,0,0,0,0,0,0,0,0,0,0,0,0,1,0,0,0,0,0,0,0,0,0,0,0,0,0,0,0,0,0,0,0,0,0,0,0,0,0,0,0,0,,0101000020E6100000517BCB1FC4F755C0D7E8863A44024540
108,nature preserve,,42.1407745871044,-88.1170300567157,yes,,"Cook County, IL 60010",201,0,Northwest,,Baker's Lake Nature Preserve,,,0,0,0,1,0,0,0,0,0,0,0,0,0,0,0,0,0,1,0,0,0,0,0,0,1,0,0,0,0,0,1,0,0,1,1,1,0,0,0,0,0,0,0,0,0,0,0,1,0,0,0,0,0,0,0,0,0,0,0,0,0,0,0,0,,0101000020E61000008A8FA26B7D0756C0D9DDD3E604124540
109,nature preserve,,42.0143295204857,-88.2543180820433,yes,,"Elgin, IL 60120",,0,Northwest,,Bluff Spring Fen Nature Preserve,,,0,0,0,1,0,0,0,0,0,0,0,0,0,0,0,0,0,1,0,0,0,0,0,0,1,0,0,0,0,0,1,0,0,1,1,0,0,0,0,0,0,0,0,0,0,0,0,1,0,0,0,0,0,0,0,0,0,0,0,0,0,0,0,0,,0101000020E6100000104A59BF461056C0ADEEBA8CD5014540
111,activity area,,41.67470623347,-87.8719903566231,yes,"S Willow Springs Rd, north of McCarthy Rd","Cook County, IL 60464",,53,Palos,,Cherry Hill Woods,Edward M. Sneed Forest,Palos,1,0,0,0,0,0,0,0,0,0,0,0,0,0,0,0,0,1,0,0,0,0,0,0,0,0,0,0,0,0,0,0,0,0,0,0,0,0,0,0,1,0,0,0,0,0,0,0,0,0,0,0,1,1,0,0,0,0,0,1,0,0,0,0,,0101000020E6100000E607A4B0CEF755C0F2951BC65CD64440
112,activity area,,41.6845137493427,-87.8730180938894,yes,"S Willow Springs Rd, south of Calumet Sag Rd/Rte 83","Cook County, IL 60464",,61,Palos,,Teason's Woods,Edward M. Sneed Forest,Cap Sauers Holding Nature Preserve,0,0,0,0,0,0,0,0,0,1,1,0,0,1,0,0,0,1,0,0,0,0,0,0,1,0,0,0,0,0,0,0,0,0,0,0,0,0,0,0,1,0,0,0,0,0,0,0,0,0,0,0,1,0,0,0,0,0,0,0,0,0,0,0,,0101000020E610000090844887DFF755C0C58C83259ED74440
113,camp,,41.605377793893,-87.5630372101531,yes,15810 S Torrence Ave,"South Holland, IL 60473",,92,Thorn Creek ,Shabbona,Camp Shabbona Woods,,,1,0,0,0,0,0,1,0,0,0,0,0,0,0,0,0,0,0,0,0,0,0,0,0,0,0,0,0,0,0,0,1,0,0,0,0,0,0,0,0,1,0,0,0,0,0,0,0,0,1,1,1,0,0,0,1,0,0,0,0,0,0,0,1,,0101000020E6100000740239CD08E455C0AD4001057DCD4440
114,activity area,,42.1291200069135,-87.7905468027302,yes,,"Northbrook, IL 60062",,0,North Branch,,Sunset Ridge Woods,,,0,0,0,0,0,0,0,0,0,0,0,0,0,0,0,0,0,0,0,0,0,0,0,0,0,0,0,0,0,0,0,0,0,0,0,1,0,0,0,0,0,0,0,0,0,0,0,0,0,0,0,0,0,0,0,0,0,0,0,0,0,0,0,0,,0101000020E6100000BBEB9D5198F255C0707B1F0187104540
115,activity area,,41.6709962007357,-87.8707244550488,yes,"104th Ave, north of McCarthy Rd","Cook County, IL 60464",,269,Palos,,Horsetail Lake,Edward M. Sneed Forest,Palos,0,0,0,0,0,0,0,0,0,1,1,0,0,1,0,0,0,0,1,0,1,1,0,0,1,0,0,0,0,0,0,0,0,0,0,0,0,0,0,0,0,0,0,0,0,0,0,0,0,0,0,0,1,0,0,0,0,0,0,0,0,0,0,0,,0101000020E6100000C19010F3B9F755C080F41834E3D54440
116,activity area,,41.6658101653624,-87.8622604736193,yes,"McCarthy Rd, west of S La Grange Rd","Cook County, IL 60464",,234,Palos,,Papoose Lake,Palos,,0,0,0,0,0,0,0,0,0,0,0,0,0,0,0,0,0,0,0,0,1,1,0,0,0,0,0,0,0,0,0,0,0,0,0,0,0,0,0,0,0,0,0,0,0,0,0,0,0,0,0,0,1,0,0,0,0,0,0,0,0,0,0,0,,0101000020E610000002B58D462FF755C009CB7A4439D54440
117,activity area,,41.6758161324724,-87.8594651324698,yes,"S La Grange Rd, south of 119th St","Cook County, IL 60464",,55,Palos,,Swallow Cliff Woods-South,Edward M. Sneed Forest,Palos,0,0,0,1,0,0,0,0,0,1,1,0,0,1,0,0,0,1,0,0,0,0,0,0,1,0,0,0,0,0,0,0,0,0,0,0,0,0,0,0,1,0,0,0,0,0,0,1,0,0,0,0,1,0,0,0,0,0,0,0,0,0,0,0,,0101000020E6100000A6000B7A01F755C04B8B9D2481D64440
118,activity area,,41.6738999668214,-87.8509470028646,yes,"119th St, east of S La Grange Rd","Cook County, IL 60464",,54,Palos,,Forty Acre Woods,Palos,,0,0,0,0,0,0,0,0,0,1,1,0,0,1,0,0,0,0,1,0,0,0,0,0,1,0,0,0,0,0,0,0,0,0,0,0,0,0,0,1,0,0,0,0,0,0,0,0,0,0,0,0,1,1,0,0,0,0,0,0,0,0,0,0,,0101000020E6100000B0FB6AEA75F655C05324A75A42D64440
119,activity area,,41.6762326725168,-87.8447902310204,yes,"Kean Ave, north of 119th St","Cook County, IL 60464",,56,Palos,,McClaughrey Springs Woods,Palos,,0,0,0,1,0,0,0,0,0,1,1,0,0,1,0,0,0,1,0,0,0,0,0,0,1,0,0,0,0,0,0,0,0,0,0,0,0,0,0,1,0,0,0,0,0,0,0,1,0,0,0,0,1,0,0,0,0,0,0,0,0,0,0,0,,0101000020E61000009D8D0B0B11F655C0707ACECA8ED64440
120,activity area,,41.6754815523209,-87.8386415878421,yes,"119th St, west of S 86th Ave","Cook County, IL 60464",,58,Palos,Palos #2,Palos Park Woods-South,Palos,,0,0,0,0,0,0,0,0,0,1,1,0,0,1,0,0,0,1,0,0,0,0,0,0,1,0,0,0,0,0,0,0,0,0,0,0,0,0,0,0,1,0,0,0,0,0,0,0,0,0,0,0,1,0,0,0,0,0,0,0,0,0,0,0,,0101000020E61000003836C44DACF555C0D823F42D76D64440
121,activity area,,41.677996609199,-87.8315716970369,yes,"S 86th St, south of Calumet Sag Rd/Rte 83","Cook County, IL 60464",,57,Palos,,Paddock Woods,Palos,,0,0,0,0,0,0,0,0,0,1,1,0,0,1,0,0,0,1,0,0,0,0,0,0,1,0,0,0,0,0,0,0,0,0,0,0,0,0,0,1,0,0,0,0,0,0,0,1,0,0,0,0,1,0,0,0,0,0,0,0,0,0,0,0,,0101000020E610000061C37E7838F555C0D5A8C797C8D64440
122,activity area,,41.6807292844582,-87.8421150726464,yes,"Kean Ave, south of Calumet Sag Rd/Rte 83","Cook County, IL 60464",,59,Palos,Palos #1,Palos Park Woods-North,Palos,,1,0,0,0,0,0,0,0,0,1,1,0,0,1,0,0,0,1,1,0,0,0,0,0,1,0,0,0,0,0,0,0,0,0,0,0,0,0,0,0,1,0,0,0,0,0,0,0,0,0,0,0,1,1,1,0,0,0,0,1,0,0,0,0,,0101000020E61000000A1F9E36E5F555C00B181F2322D74440
123,activity area,,41.6807903011482,-87.860885665096,yes,"Calumet Sag Rd/Rte 83, west of La Grange Rd/96th Ave","Cook County, IL 60464",,60,Palos,Swallow Stairs,Swallow Cliff Woods-North,Edward M. Sneed Forest,Palos,0,0,0,0,0,0,0,0,0,1,1,0,0,1,0,0,0,1,1,1,0,0,0,0,1,1,0,0,0,0,0,0,0,0,0,0,0,0,1,0,0,0,0,1,0,0,0,1,0,1,1,1,0,0,0,0,0,0,0,0,0,0,0,0,,0101000020E6100000AF4B30C018F755C01670F72224D74440
124,activity area,,41.65025837728,-87.9094333632082,yes,"S Will Cook Rd, south of W 131st St","Cook County, IL 60467",,153,Palos,,Tampier Lake-West,John J. Duffy Preserve,,1,0,0,0,0,0,0,0,0,0,0,0,0,0,0,0,0,0,0,0,1,1,0,0,0,0,0,0,0,0,0,0,0,0,0,0,0,0,0,0,1,0,0,0,0,0,0,0,0,0,0,0,1,1,0,0,0,0,0,1,0,0,0,0,,0101000020E6100000B537FE2734FA55C06130A0AA3BD34440
125,activity area,,41.6519603013629,-87.9032242461484,yes,W 131st St west of S Wolf Rd,"Cook County, IL 60464",,271,Palos,,Tampier Lake-North,John J. Duffy Preserve,Tampier Slough,0,0,0,1,0,0,0,0,0,0,0,0,0,0,0,0,0,0,0,0,0,0,0,0,0,0,0,0,0,0,0,0,0,0,1,0,0,0,0,0,0,0,0,0,0,0,0,0,0,0,0,0,0,0,0,0,0,0,0,0,0,0,0,0,,0101000020E6100000568A116DCEF955C0B753666F73D34440
126,activity area,,41.6493150737309,-87.9006506263722,yes,W 131st St west of S Wolf Rd,"Cook County, IL 60467",,272,Palos,,Tampier Lake Boating Center,John J. Duffy Preserve,Tampier Slough,0,0,0,0,1,1,0,0,0,0,0,0,0,0,0,0,0,0,0,0,1,1,0,0,0,0,0,0,0,0,0,0,0,0,0,0,0,0,0,0,0,0,0,0,0,0,0,0,0,0,1,1,0,1,0,0,0,0,0,0,0,0,0,0,,0101000020E6100000FE588642A4F955C0FA3D9FC11CD34440
127,activity area,,41.6307531943034,-87.8655984789908,yes,"143rd St, west of Southwest Hwy","Orland Park, IL 60462",,274,Tinley Creek,,Orland Grove,,,0,0,0,0,0,0,0,0,0,0,0,0,0,0,0,0,0,0,0,0,0,0,0,0,0,0,0,0,0,0,0,0,0,0,0,0,0,0,0,0,0,0,0,0,0,0,0,0,0,0,0,0,0,0,0,0,0,0,0,0,0,0,0,0,,0101000020E6100000E7AE29F765F755C002B24A85BCD04440
128,activity area,,41.6490934875738,-87.7929001741509,yes,"W 135th St, east of Harlem Ave","Cook County, IL 60463",,48,Tinley Creek,,Arrowhead Lake,,,1,0,0,0,0,0,0,0,0,1,1,0,0,1,0,0,0,0,0,0,1,1,0,0,1,0,0,0,0,0,0,0,0,0,0,0,0,0,0,0,1,0,1,0,0,0,0,0,0,0,0,0,1,1,1,0,0,0,0,1,0,0,0,0,,0101000020E61000001F3E5FE0BEF255C0DC97D27E15D34440
129,activity area,,41.6456317853569,-87.7709356179928,yes,"W 135th St, east of S Ridgeland Ave","Cook County, IL 60463",,87,Tinley Creek,,Cooper's Hawk Family Picnic Area,,,0,0,0,0,0,0,0,0,0,1,1,0,0,1,0,0,0,0,0,0,0,0,0,0,1,0,0,0,0,0,0,0,0,0,0,0,0,0,0,0,0,0,0,0,0,0,0,0,0,0,0,0,0,0,0,0,0,0,0,0,0,0,0,0,,0101000020E61000006CA6580257F155C030B0F50FA4D24440
130,activity area,,41.6507179743807,-87.7613509580493,yes,"Central Ave, north of W 135th St","Cook County, IL 60463",,50,Tinley Creek,,Elizabeth A. Conkey Forest-North,,,1,0,0,1,0,0,0,0,0,0,0,0,0,0,0,0,0,0,0,0,0,0,0,0,0,0,1,0,0,0,0,0,0,0,0,0,0,0,0,1,1,0,0,0,0,0,0,0,0,0,0,0,1,0,1,0,0,0,0,1,0,0,0,0,,0101000020E610000065665EF9B9F055C0867201BA4AD34440
131,activity area,,41.6479812835089,-87.7631613291401,yes,"W 135th St, west of Central Ave","Cook County, IL 60463",,51,Tinley Creek,,Elizabeth A. Conkey Forest-South,,,1,0,0,1,0,0,0,0,0,0,0,0,0,0,0,0,0,0,0,0,0,0,0,0,0,0,1,0,0,0,0,0,0,0,0,0,0,0,0,1,1,0,0,0,0,0,0,0,0,0,0,0,1,0,1,0,0,0,0,1,0,0,0,0,,0101000020E6100000A48E9DA2D7F055C0F68CFA0CF1D24440
132,activity area,,41.6347141373996,-87.7657482919245,yes,"W Midlothian Turnpike/W 143rd St, west of S Ridgeland Ave","Cook County, IL 60445",,84,Tinley Creek,,Rubio Woods,,,1,0,0,0,0,0,0,0,0,1,1,0,0,1,0,0,0,0,0,0,0,0,0,0,1,0,0,0,0,0,0,0,0,0,0,0,0,0,0,1,1,0,1,0,0,0,0,0,0,0,0,0,1,1,1,0,0,0,0,1,0,0,0,0,,0101000020E610000022B21F0502F155C0A93917503ED14440
133,activity area,,41.6289977760962,-87.7772896823127,yes,"Ridgeland Ave, south of E 143rd St","Cook County, IL 60452",,182,Tinley Creek,,Goeselville Grove Family Picnic Area,,,0,0,0,0,0,0,0,0,0,1,1,0,0,1,0,0,0,0,0,0,0,0,0,0,1,0,0,0,0,0,0,0,0,0,0,0,0,0,0,0,0,0,1,0,0,0,0,0,0,0,0,0,0,0,0,0,0,0,0,0,0,0,0,0,,0101000020E61000004A43391DBFF155C0C8CCC6FF82D04440
134,activity area,,41.6293639465236,-87.7840838379399,yes,"Oak Park Ave, south of E 143rd St","Cook County, IL 60452",,86,Tinley Creek,,Carlson Springs Woods,,,0,0,0,0,0,0,0,0,0,0,0,0,0,0,0,0,0,0,0,0,0,0,0,0,0,0,0,0,0,0,0,0,0,0,0,0,0,0,0,0,1,0,0,0,0,0,0,0,0,0,0,0,1,0,0,0,0,0,0,0,0,0,0,0,,0101000020E61000008B51FA6D2EF255C026CE6FFF8ED04440
135,activity area,,41.6331265815848,-87.7857958334741,yes,"W 143rd St, west of Oak Park Ave","Cook County, IL 60463",,183,Tinley Creek,,Bachelor's Grove Woods,,,0,0,0,0,0,0,0,0,0,0,0,0,0,0,0,0,0,1,0,0,0,0,0,0,0,0,0,0,0,0,0,0,0,0,0,0,0,0,0,0,0,0,0,0,0,0,0,0,0,0,0,0,0,0,0,0,0,0,0,0,0,0,0,0,,0101000020E6100000AB869B7A4AF255C09112B54A0AD14440
136,camp,,41.6254711238817,-87.7875399040598,yes,14630 Oak Park Ave,"Oak Forest, IL 60452",,181,Tinley Creek,,Camp Sullivan,Camp Falcon,,1,0,0,0,0,0,1,0,0,0,0,0,0,0,0,0,0,0,0,0,0,0,0,0,0,0,0,0,0,0,0,0,0,0,0,0,0,0,0,0,1,0,0,0,0,0,0,0,0,1,1,1,0,0,0,1,1,0,1,0,0,0,0,1,,0101000020E6100000D50EC50D67F255C055D612700FD04440
137,activity area,,41.6175898948664,-87.8020838028554,yes,"151st St, west of Harlem Ave","Cook County, IL 60462",,279,Tinley Creek,,Catalina Grove Family Picnic Area,,,0,0,0,0,0,0,0,0,0,1,1,0,0,1,0,0,0,0,0,0,0,0,0,0,1,0,0,0,0,0,0,0,0,0,0,0,0,0,0,0,0,0,1,0,0,0,0,0,0,0,0,0,0,0,0,0,0,0,0,0,0,0,0,0,,0101000020E6100000957A4D5755F355C09A66882F0DCF4440
138,activity area,,41.6002202294361,-87.7844127859421,yes,"Oak Park Ave, south of 159th St","Cook County, IL 60477",,164,Tinley Creek,,Bremen Grove,,,1,0,0,0,0,0,0,0,0,1,1,0,1,1,0,0,0,0,0,0,0,0,0,0,1,0,0,0,0,0,0,0,0,0,0,0,0,0,0,0,1,0,1,0,0,0,0,0,0,1,1,1,0,0,0,0,0,0,0,1,0,0,0,0,,0101000020E6100000E28BAFD133F255C0FAEA3704D4CC4440
140,activity area,,41.5921483824811,-87.7571073004077,yes,"Central Ave, north of 167th St","Cook County, IL 60477",,165,Tinley Creek,,Yankee Woods,,,0,0,0,0,0,0,0,0,0,1,1,0,0,1,0,0,0,1,0,0,0,0,0,0,1,0,0,0,0,0,0,0,0,0,0,0,0,0,0,1,1,0,1,0,0,0,0,1,0,0,0,0,1,1,0,0,0,0,0,0,0,0,0,0,,0101000020E610000018B42D7274F055C0A492A884CBCB4440
141,activity area,,41.6550125575091,-87.6398358425017,yes,"Forest View Ave, east of S Halsted St","Riverdale, IL 60827",,89,Calumet,,Whistler Woods,,,0,0,0,0,0,0,0,0,0,1,1,0,0,1,0,0,0,1,0,0,0,0,0,0,1,0,0,0,0,0,0,0,0,0,0,0,0,0,0,1,0,0,1,0,0,0,0,1,0,0,0,0,1,0,0,0,0,0,0,0,0,0,0,0,,0101000020E61000009C960812F3E855C0917D9473D7D34440
142,golf course,,41.6537129128625,-87.6440941140805,yes,13100 S Halsted St,"Riverdale, IL 60827",,266,Calumet,,"Joe Louis ""The Champ"" Golf Course",,,0,0,0,0,0,0,0,0,0,0,0,0,0,0,0,0,0,0,0,0,0,0,0,1,0,0,0,0,0,0,0,0,0,0,0,0,0,0,0,0,0,0,0,0,0,0,0,0,0,0,0,0,0,0,0,0,0,0,0,0,0,0,0,0,,0101000020E610000066E184D638E955C01DDD5EDDACD34440
143,activity area,,41.650997616366,-87.6584663321191,yes,"Jackson St, east of S Ashland Ave","Cook County, IL 60827",,290,Calumet,,Little Calumet Boat Launch,,,0,0,0,0,1,0,0,0,0,0,0,0,0,0,0,0,0,0,0,0,0,0,1,0,0,0,0,0,0,0,0,0,0,0,0,0,0,0,0,0,0,0,0,0,0,0,0,0,0,0,0,0,1,0,0,0,0,0,0,0,0,0,0,0,,0101000020E6100000007EF84F24EA55C0B909D0E353D34440
144,activity area,,41.6454849544547,-87.6646258904096,yes,Ashland Ave &amp; Charles Dr,"Riverdale, IL 60827",,82,Calumet,,Calumet Woods,,,0,0,0,0,0,0,0,0,0,0,0,0,0,0,0,0,0,0,0,0,0,0,0,0,0,0,0,0,0,0,0,0,0,0,0,0,0,0,0,0,1,0,0,0,0,0,0,0,0,0,0,0,1,0,0,0,0,0,0,0,0,0,0,0,,0101000020E610000091D8073B89EA55C000BA40409FD24440
145,activity area,,41.6312513498305,-87.6443048463573,yes,"Halsted St, south of W 144th St","Riverdale, IL 60827",,289,Calumet,,Kickapoo Woods,,,0,0,0,0,0,0,0,1,0,1,1,0,0,1,0,0,0,1,0,0,0,0,0,0,1,0,0,1,0,0,0,0,0,0,0,0,0,0,0,0,0,0,1,0,0,0,0,1,0,0,0,0,1,1,1,0,0,0,0,0,0,0,0,0,,0101000020E61000008EF0644A3CE955C0488B1FD8CCD04440
146,activity area,,41.6539155287214,-87.5914699374948,yes,"E 132nd St, east of S Greenwood Ave","Chicago, IL 60827",,301,Calumet,,Beaubien Woods Boat Launch,Flatfoot Lake,,0,0,0,0,1,0,0,0,0,0,0,0,0,0,0,0,0,0,0,0,0,0,0,0,0,0,0,0,0,0,0,0,0,0,0,0,0,0,0,0,0,0,0,0,0,0,0,1,0,0,0,0,1,1,1,0,0,0,0,0,0,0,0,0,,0101000020E6100000E186B9A4DAE555C08E1B0981B3D34440
147,activity area,,41.6505190858175,-87.5823529207047,yes,"W Doty Ave S, southeast of E 130th St &amp; S Ellis Ave","Chicago, IL 60827",,321,Calumet,Flatfoot,Beaubien Woods,Flatfoot Lake,,1,0,0,0,0,0,0,0,0,0,0,0,0,0,0,0,0,1,0,0,1,1,0,0,0,0,0,0,0,0,0,0,0,0,0,0,0,0,0,0,1,0,0,0,0,0,0,1,0,0,0,0,1,1,1,0,0,0,0,1,0,0,1,0,,0101000020E6100000074A2F4545E555C09D829B3544D34440
148,golf course,,41.6356994124558,-87.5349333248425,yes,14201 S Burnham Ave,"Burnham, IL 60633",,299,Calumet,,Burnham Woods Golf Course,,,0,0,0,0,0,0,0,0,0,0,0,0,0,0,0,0,0,0,0,0,0,0,0,1,0,0,0,0,0,0,0,0,0,0,0,0,0,0,0,0,0,0,0,0,0,0,0,0,0,0,0,0,0,0,0,0,0,0,0,0,0,0,0,0,,0101000020E61000004CEFFB583CE255C01B4C2D995ED14440
149,activity area,,41.6427377599386,-87.5346152812891,yes,"S Brainard Ave, east of S Burnham Ave/S Ave O","Burnham, IL 60633",,298,Calumet,,Powderhorn Lake,,,0,0,0,1,1,0,0,0,0,0,0,0,0,0,0,0,0,1,0,0,1,1,0,0,0,0,0,0,0,0,0,0,0,0,0,0,0,0,0,0,0,0,0,0,0,0,0,1,0,0,0,0,1,0,0,0,0,0,0,0,0,0,0,0,,0101000020E61000000145032337E255C0E96C1D3B45D24440
150,nature center,yes,41.6059330105459,-87.5657494562067,yes,15891 Paxton Ave,"South Holland, IL 60473",,303,Thorn Creek ,Nature Center,Sand Ridge Nature Center,,,0,0,0,1,0,0,0,0,0,0,0,0,0,0,0,0,0,1,0,0,0,0,0,0,1,0,0,0,0,1,0,1,0,1,1,0,0,0,0,0,0,0,0,0,0,0,0,0,0,1,1,1,0,0,0,0,0,0,0,0,0,0,0,0,,0101000020E6100000CA08353D35E455C093EF7F368FCD4440
152,activity area,,41.6036367462182,-87.5576080899235,yes,"Torrence Ave, north of 159th St/River Oaks Dr","Calumet City, IL 60409",,91,Thorn Creek ,Clayhole,Clayhole Woods,Green Lake Woods,,0,0,0,0,0,0,0,0,0,1,1,0,0,1,0,0,0,0,0,0,0,0,0,0,1,0,1,0,0,0,0,0,0,0,0,0,0,0,0,0,1,0,0,0,0,0,0,0,0,0,0,0,1,0,0,0,0,0,0,0,0,0,0,0,,0101000020E6100000378DD7D9AFE355C038D709F843CD4440
153,activity area,,41.6042830636646,-87.5563066701709,yes,"Torrence Ave, north of 159th St/River Oaks Dr","Calumet City, IL 60409",,93,Thorn Creek ,Green Lake,Green Lake Woods,,,0,0,0,0,0,0,0,0,0,1,1,0,0,1,0,0,0,0,0,0,1,1,0,0,1,0,1,0,0,0,0,0,0,0,0,0,0,0,0,1,0,0,1,0,0,0,0,0,0,0,1,0,0,1,0,0,0,0,0,0,0,0,0,0,,0101000020E610000090BB4A879AE355C0FEFCBD2559CD4440
154,activity area,,41.6074573111872,-87.5345571792198,yes,Freeland Ave &amp; Warren St,"Calumet City, IL 60409",,302,Thorn Creek ,Playfield,Calumet City Playfield,,,0,0,0,0,0,0,0,0,0,0,0,0,0,0,0,0,0,0,0,0,0,0,0,0,0,0,0,0,0,0,0,0,0,0,0,0,0,0,0,0,0,0,0,0,0,0,0,0,0,0,0,0,0,0,0,0,0,0,0,0,0,0,0,0,,0101000020E6100000CFA5502F36E255C041A34229C1CD4440
156,golf course,,41.5991916877367,-87.5757276386904,yes,1 Park Avenue,"Calumet City, IL 60409",,304,Thorn Creek ,,River Oaks Golf Course,,,0,0,0,0,0,0,0,0,0,0,0,0,0,0,0,0,0,0,0,0,0,0,0,1,0,0,0,0,0,0,0,0,0,0,0,0,0,0,0,0,0,0,0,0,0,0,0,0,0,0,0,0,0,0,0,0,0,0,0,0,0,0,0,0,,0101000020E610000008E5BCB8D8E455C0E66F2F50B2CC4440
158,activity area,,41.562039218838,-87.6096847806159,yes,"S Hunter St, south of E Margret St","Thornton, IL 60476",,110,Thorn Creek ,Brownell,Brownell Woods,,,0,0,0,0,0,0,0,0,0,0,0,0,0,0,0,0,0,0,0,0,0,0,0,0,0,0,0,0,0,0,0,0,1,0,0,0,0,0,0,1,0,0,0,0,0,0,0,0,0,0,0,0,1,0,0,0,0,0,0,0,0,0,0,0,,0101000020E61000004C67501305E755C088FEAFE6F0C74440
159,activity area,,41.5559127305837,-87.5994268520931,yes,"Cottage Grove Ave, north of Glenwood Lansing Rd","Cook County, IL 60476",,112,Thorn Creek ,,Sweet Woods,,,1,0,0,0,0,0,0,0,0,1,1,0,0,1,0,0,0,0,0,0,0,0,0,0,1,0,0,0,0,0,0,0,0,0,0,0,0,0,0,0,1,0,1,0,0,0,0,0,0,0,0,0,1,1,1,0,0,0,0,1,0,0,0,0,,0101000020E6100000618571025DE655C008A6FA2528C74440
160,activity area,,41.5486782054083,-87.622305025752,yes,"Chicago Heights Glenwood Rd, west of S William St","Glenwood, IL 60425",,108,Thorn Creek ,Glenwood North,Glenwood Woods-North,,,0,0,0,0,0,0,0,0,0,1,1,0,0,1,0,0,0,0,0,0,0,0,0,0,1,0,0,0,0,0,0,0,0,0,0,0,0,0,0,0,1,0,0,0,0,0,0,0,0,0,0,0,1,1,1,0,0,0,0,0,0,0,0,0,,0101000020E61000006D6F75D8D3E755C0272262163BC64440
161,activity area,,41.5468326067123,-87.6195062007884,yes,"Chicago Heights Glenwood Rd, west of S William St","Glenwood, IL 60425",,196,Thorn Creek ,Glenwood South,Glenwood Woods-South,,,0,0,0,0,0,0,0,0,0,1,1,0,0,1,0,0,0,0,0,0,0,0,0,0,1,0,0,0,0,0,0,0,0,0,0,0,0,0,0,0,1,0,1,0,0,0,0,0,0,0,0,0,1,0,0,0,0,0,0,0,0,0,0,0,,0101000020E61000008A0356FDA5E755C0DE1C619CFEC54440
162,activity area,,41.5537014141214,-87.593549708892,yes,"183rd St, east of Cottage Grove Ave","Cook County, IL 60476",,111,Thorn Creek ,Jurgensen,Jurgensen Woods,,,0,0,0,0,0,0,0,0,0,1,1,0,0,1,0,0,0,1,0,0,0,0,0,0,1,0,0,0,0,0,0,0,0,0,0,0,0,0,0,0,1,0,0,0,0,0,0,0,0,0,0,0,1,0,0,0,0,0,0,0,0,0,0,0,,0101000020E6100000700FEBB7FCE555C083B41CB0DFC64440
163,activity area,,41.5530212348502,-87.5749150615737,yes,"Stoney Island Ave, south of 186th St","Cook County, IL 60411",,264,Thorn Creek ,Flying Field,Thorn Creek Model Airplane Flying Field,,,0,0,0,0,0,0,0,0,0,0,0,0,0,0,0,0,1,0,0,0,0,0,0,0,0,0,0,1,0,0,0,0,0,0,0,0,0,0,0,0,0,0,0,0,0,0,0,0,0,0,0,0,1,1,0,0,0,0,0,0,0,0,0,0,,0101000020E6100000F4DB8A68CBE455C0BBD75A66C9C64440
164,activity area,,41.543726979593,-87.560187841624,yes,"Glenwood Lansing Rd, west of Torrence Ave","Cook County, IL 60411",,102,Thorn Creek ,North Creek,North Creek Meadow,,,0,0,0,0,0,0,0,0,0,1,1,0,0,1,0,0,0,0,0,0,0,0,0,0,1,0,1,0,0,0,0,0,0,0,0,0,0,0,0,0,1,0,1,0,1,0,0,0,0,0,1,1,1,0,0,0,0,0,0,0,0,0,0,0,,0101000020E610000014D91A1EDAE355C045A87DD898C54440
165,activity area,,41.5562677951184,-87.5508426857174,yes,"186th St, east of Torrence Ave","Cook County, IL 60438",,322,Thorn Creek ,Lansing,Lansing Woods,,,0,0,0,0,0,0,0,0,0,1,1,0,0,1,0,0,0,0,0,0,0,0,0,0,1,0,0,0,0,0,0,0,0,0,0,0,0,0,0,1,0,0,1,0,0,0,0,0,0,0,0,0,1,0,0,0,0,0,0,0,0,0,0,0,,0101000020E61000006619AE0141E355C049EE79C833C74440
166,activity area,,41.5190176635926,-87.6299692448016,yes,"E Joe Orr Rd, east of S Halsted St","Chicago Heights, IL 60411",,101,Thorn Creek ,Joe Orr,Joe Orr Woods,,,0,0,0,0,0,0,0,0,0,1,1,0,0,1,0,0,0,0,0,0,0,0,0,0,1,0,0,0,0,0,0,0,0,0,0,0,0,0,0,0,1,0,1,0,0,0,0,0,0,0,0,0,1,1,0,0,0,0,0,0,0,0,0,0,,0101000020E610000025FA856A51E855C0E597B92B6FC24440
167,activity area,,41.4870646520479,-87.6463941603431,yes,"Forest Preserve Dr, south of W 26th St","South Chicago Heights, IL 60411",,105,Thorn Creek ,Sauk 1 & 2,Sauk Trail Woods-East,Sauk Lake Woods,,0,0,0,0,0,0,0,0,0,1,1,0,0,1,0,0,0,0,0,0,0,0,0,0,1,0,0,0,0,0,0,0,1,0,0,0,0,0,0,1,1,0,0,0,0,0,0,0,0,0,0,0,1,0,0,0,0,0,0,0,0,0,0,0,,0101000020E6100000EEBF9C855EE955C0EDCB6F2258BE4440
168,activity area,,41.4872207944093,-87.653045458077,yes,"Forest Preserve Dr, south of W 26th St","South Chicago Heights, IL 60411",,107,Thorn Creek ,Sauk 5,Sauk Trail Woods-Central,Sauk Lake Woods,,0,0,0,0,0,0,0,0,0,1,1,0,0,1,0,0,0,0,0,0,1,0,0,0,1,0,0,0,0,0,0,0,1,0,0,0,0,0,0,0,1,0,1,0,0,0,0,0,0,0,0,0,1,1,0,0,0,0,0,0,0,0,0,0,,0101000020E61000007D4F2D7FCBE955C0E2F640405DBE4440
169,activity area,,41.4896107902365,-87.6509888283019,yes,"W 26th St, west of Euclid Ave","South Chicago Heights, IL 60411",,106,Thorn Creek ,Sauk 3 & 4,Sauk Trail Woods-North,Sauk Lake Woods,,0,0,0,0,0,0,0,0,0,1,1,0,0,1,0,0,0,0,0,0,1,0,0,0,1,0,0,0,0,0,0,0,1,0,0,0,0,0,0,1,1,0,1,0,0,0,0,0,0,0,0,0,1,0,0,0,0,0,0,0,0,0,0,0,,0101000020E61000008EE70BCDA9E955C00FECFD90ABBE4440
170,activity area,,41.4850464504352,-87.6541072052978,yes,"Forest Preserve Dr, north of W Sauk Trail","South Chicago Heights, IL 60411",,104,Thorn Creek ,Sauk 6,Sauk Trail Woods-South,Sauk Lake Woods,,0,0,0,0,0,0,0,0,0,1,1,0,0,1,0,0,0,0,0,0,1,0,0,0,1,0,0,0,0,0,0,0,1,0,0,0,0,0,0,1,0,0,1,0,0,0,0,0,0,0,0,0,1,0,0,0,0,0,0,0,0,0,0,0,,0101000020E61000003EB577E4DCE955C0C3D5880016BE4440
171,activity area,,41.4819627837178,-87.6591791127107,yes,"Sauk Trail, west of Ashland Ave","Cook County, IL 60475",,17,Thorn Creek ,Schuberts,Schubert's Woods,Sauk Trail Woods,,0,0,0,0,0,0,0,0,0,1,1,0,0,1,0,0,0,0,0,0,0,0,0,0,1,0,0,0,0,0,0,0,1,0,0,0,0,0,0,0,1,0,1,0,0,0,0,0,0,0,0,0,1,0,0,0,0,0,0,0,0,0,0,0,,0101000020E610000020D396FD2FEA55C0C6FBDCF4B0BD4440
172,activity area,,41.4746083515162,-87.65734094751,yes,"Ashland Ave, south of Sauk Trail","Cook County, IL 60475",,16,Thorn Creek ,Kings,King's Grove,Steger Woods,,0,0,0,0,0,0,0,0,0,0,0,0,0,0,0,0,0,0,0,0,0,0,0,0,0,0,0,0,0,0,0,0,0,0,0,0,0,0,0,0,1,0,0,0,0,0,0,0,0,0,0,0,1,0,0,0,0,0,0,0,0,0,0,0,,0101000020E61000001FF8C3DF11EA55C014176AF7BFBC4440
173,activity area,,42.1100049270955,-88.1605143053909,yes,W Palatine Rd &amp; Stover Rd,"Cook County, IL 60010",,200,Northwest,,Old Stover Trailhead,Crabtree Preserve,,0,0,0,1,0,0,0,0,0,1,1,0,0,0,0,0,0,0,0,0,0,0,0,0,1,0,0,0,0,0,0,0,0,0,0,0,1,0,0,0,0,0,0,0,0,0,0,0,0,0,0,0,0,0,0,0,0,0,0,0,0,0,0,0,,0101000020E61000006D0CCBDD450A56C0932436A4140E4540
174,activity area,,41.717368706338,-87.8319407589554,yes,"W 95th St, east of S 88th Ave","Cook County, IL 60465",,62,Palos,,Hickory Hills Woods,Walnut Grove,,0,0,0,0,0,0,0,0,0,0,0,0,0,0,0,0,0,0,0,0,0,0,0,0,0,0,0,0,0,0,0,0,0,0,0,0,0,0,0,1,0,0,0,0,0,0,0,0,0,0,0,0,0,0,0,0,0,0,0,0,0,0,0,0,,0101000020E61000000DFB73843EF555C0F973DEBCD2DB4440
175,activity area,,41.6435414162526,-87.8008654818298,yes,"Harlem Ave, south of W 135th St","Cook County, IL 60462",,47,Tinley Creek,,Turtlehead Lake,,,0,0,0,0,0,0,0,0,0,1,1,0,0,1,0,0,0,0,0,0,1,1,0,0,1,0,0,0,0,0,0,0,0,0,0,0,0,0,0,0,1,0,1,0,1,0,0,0,0,0,0,0,1,1,0,0,0,0,0,0,0,0,0,0,,0101000020E61000000F3D4B6141F355C0EC37AC905FD24440
176,activity area,,41.634113112403,-87.7931189573635,yes,"Harlem Ave, north of W 143rd St","Cook County, IL 60483",,52,Tinley Creek,,Tinley Creek Woods,,,0,0,0,0,0,0,0,0,0,0,0,0,0,0,0,0,0,1,0,0,0,0,0,0,0,0,0,0,0,0,0,0,1,0,0,0,0,0,0,0,1,0,0,0,0,0,0,0,0,0,0,0,1,0,0,0,0,0,0,0,0,0,0,0,,0101000020E6100000B0ED0376C2F255C079DF539E2AD14440
177,activity area,,41.6423594279017,-87.7935023869443,yes,"Harlem Ave, south of W 135th St","Cook County, IL 60463",,49,Tinley Creek,,Bur Oak Woods,,,0,0,0,0,0,0,0,0,0,0,0,0,0,0,0,0,0,1,0,0,0,0,0,0,0,0,0,0,0,0,0,0,0,0,0,0,0,0,0,1,1,0,0,0,0,0,0,0,0,0,0,0,1,0,0,0,0,0,0,0,0,0,0,0,,0101000020E6100000524E3CBEC8F255C00A906FD538D24440
178,activity area,,42.1374055223405,-88.077615691903,yes,"Dundee Rd, west of N Quentin Rd","Cook County, IL 60010",,204,Northwest,,Camp Alphonse,,,0,0,0,0,0,0,0,0,0,1,1,0,0,0,0,0,0,0,0,0,0,0,0,0,1,0,0,0,0,0,0,0,0,0,0,0,0,0,0,0,0,0,0,0,0,0,0,0,0,0,0,0,1,0,0,0,0,0,0,0,0,0,0,0,,0101000020E61000004F98CEA7F70456C07860108196114540
179,camp,,42.1425331418669,-88.0615282760851,yes,1801 N Quentin Rd,"Palatine, IL 60074",,186,Northwest,,Camp Reinberg,,,1,0,0,0,0,0,1,0,0,1,1,0,0,1,0,0,0,1,0,0,0,0,0,0,1,0,0,0,0,0,0,1,0,0,0,0,0,0,0,0,1,0,1,0,0,0,0,0,0,1,1,1,0,0,0,1,1,0,1,0,0,0,0,1,,0101000020E610000023644B14F00356C08676A7863E124540
180,activity area,,42.1458084260176,-88.0675454846772,yes,"N Quentin Rd, north of W Dundee Rd","Cook County, IL 60074",,157,Northwest,Deer Grove Main,Deer Grove,Jens Jensen Grasslands & Woods Land & Water Reserve,,1,0,0,1,0,0,0,0,0,1,1,0,0,1,0,0,0,1,1,0,1,0,0,0,1,0,0,0,0,0,0,0,0,0,0,0,0,0,0,1,1,1,1,1,0,0,0,1,0,0,0,0,1,1,1,0,0,0,0,1,0,0,0,0,,0101000020E610000095EB4BAA520456C0819EBAD9A9124540
181,activity area,,42.1453926852336,-88.0455975774742,yes,"W Dundee Rd, west of N Hicks Rd","Cook County, IL 60074",,117,Northwest,,Deer Grove-East,Jens Jensen Grasslands & Woods Land & Water Reserve,,0,0,0,0,0,0,0,0,0,1,1,0,0,1,0,0,1,1,0,0,0,0,0,0,1,0,0,1,0,0,0,0,0,0,0,0,0,0,0,0,1,0,1,0,0,0,0,1,0,1,1,0,1,0,1,0,0,0,0,0,0,0,0,0,,0101000020E6100000D3011A12EB0256C06F153E3A9C124540
182,golf course,,42.074728525977,-88.0829431596197,yes,2775 Ela Rd,"Hoffman Estates, IL 60192",,208,Northwest,,Highland Woods Golf Course,,,0,0,0,0,0,0,0,0,0,0,0,0,0,0,0,1,0,0,0,0,0,0,0,1,0,0,0,0,0,0,0,0,0,0,0,0,0,0,0,0,0,0,0,0,0,0,0,0,0,0,0,0,0,0,0,0,0,0,0,0,0,0,0,0,,0101000020E6100000947FD3F04E0556C09E944FB490094540
183,activity area,,42.0688220869794,-88.1127113082095,yes,"W Central Ave, east of Huntington Blvd/Freeman Rd","Hoffman Estates, IL 60195",,146,Northwest,,Grassy Ridge Meadow,Paul Douglas,,0,0,0,1,0,0,0,0,0,1,1,0,0,0,0,0,0,0,0,0,0,0,0,0,1,0,0,0,0,0,0,0,0,0,1,0,0,0,0,0,0,0,0,0,0,0,0,0,0,0,0,0,1,0,0,0,0,0,0,0,0,0,0,0,,0101000020E61000008DA97DA9360756C0506A8229CF084540
184,activity area,,42.0318774933133,-87.9988438073437,yes,"E Higgins Rd/Rte 72, west of N Arlington Heights Rd","Cook County, IL 60007",,316,Northwest,,Busse Forest-North,Busse Forest Nature Preserve,Ned Brown,0,0,0,0,0,0,0,0,0,0,0,0,0,0,0,0,0,1,0,0,0,0,0,0,0,0,0,0,0,0,0,0,0,0,0,0,0,0,0,1,1,0,0,0,0,0,0,1,0,0,1,1,0,0,0,0,0,0,0,0,0,0,0,0,,0101000020E61000009B96930EEDFF55C098A2CB8F14044540
185,activity area,,42.0300801794296,-87.9884122721545,yes,"N Arlington Heights Rd, north of E Higgins Rd","Cook County, IL 60007",,166,Northwest,,Busse Forest Elk Pasture,Busse Woods,Ned Brown,0,0,0,0,0,0,0,0,0,1,1,0,0,1,0,0,0,0,0,0,0,0,0,0,1,0,0,0,0,0,0,0,0,0,0,0,1,0,0,0,0,0,1,0,0,0,0,1,0,1,1,0,0,0,0,0,0,0,0,0,0,0,0,0,,0101000020E610000098F78B2542FF55C0B075D5AAD9034540
186,activity area,,42.0177965855163,-87.9994657006447,yes,"S Arlington Heights Rd, south of Landmeier Rd","Elk Grove Village, IL 60007",,145,Northwest,Main Dam,Busse Forest Main Dam,Busse Woods,Ned Brown,1,0,0,0,0,0,0,0,0,1,1,0,0,1,0,0,0,0,0,0,1,1,0,0,1,0,0,0,0,0,0,0,0,0,0,0,0,0,0,0,1,0,1,0,0,0,0,1,0,1,1,1,0,0,0,0,0,0,0,0,0,0,1,0,,0101000020E61000008B6FFC3EF7FF55C06764942847024540
187,activity area,,42.0092281366654,-88.0188273950553,yes,"Beisner Rd, north of Biesterfield Rd","Cook County, IL 60007",,144,Northwest,Cosman,Busse Lake Beisner Road Access,Busse Woods,Ned Brown,1,0,0,0,0,0,0,0,0,1,1,0,0,1,0,0,0,0,0,0,1,1,0,0,1,0,0,0,0,0,0,0,0,0,0,0,0,0,0,0,1,0,1,0,0,0,0,1,0,0,1,1,0,0,0,0,0,0,0,1,0,0,1,0,,0101000020E61000000282D177340156C0A09838632E014540
188,activity area,,42.0075658021447,-88.0308113776329,yes,"Rohlwing Rd, north of Biesterfield Rd","Elk Grove Village, IL 60007",,309,Northwest,Soccer Field,Woodland Meadow,,,0,0,0,0,0,0,0,0,0,1,1,0,0,1,0,0,0,0,0,0,0,0,0,0,1,0,0,0,0,0,0,0,0,0,0,0,0,0,0,0,0,0,1,0,0,0,0,0,0,0,0,0,1,0,0,0,0,0,0,0,0,0,0,0,,0101000020E6100000CBD148D0F80156C033658CEAF7004540
189,activity area,,42.0284943718204,-88.0223865681845,yes,"E Higgins Rd/Rte 72, east of I-290/Hwy 53","Cook County, IL 60007",,313,Northwest,Busse Res / Reservoir,Busse Lake Boating Center,Busse Woods,Ned Brown,1,0,0,0,1,1,0,0,0,1,1,0,0,1,0,0,0,0,0,0,1,1,0,0,1,0,0,0,0,0,0,0,0,0,0,0,0,0,0,1,1,1,0,0,0,0,0,1,0,1,1,1,1,1,1,0,0,0,0,1,1,0,0,0,,0101000020E6100000368E12C86E0156C0D08C1DB4A5034540
190,activity area,,42.0335152900432,-88.0152910948815,yes,"E Higgins Rd/Rte 72, east of I-290/Hwy 53","Cook County, IL 60007",,314,Northwest,Busse 31,Busse Forest-West,Busse Woods,Ned Brown,1,0,0,0,0,0,0,0,0,1,1,0,0,1,0,0,0,0,0,0,1,0,0,0,1,0,0,0,0,0,0,0,0,0,0,0,0,0,0,0,1,0,1,0,0,0,0,1,0,0,1,1,0,1,0,0,0,0,0,0,0,0,1,0,,0101000020E6100000E61B8087FA0056C0DD54A13A4A044540
191,activity area,,42.0322870992945,-88.0081935813047,yes,"E Higgins Rd/Rte 72, west of N Arlington Heights Rd","Cook County, IL 60007",,315,Northwest,Busse 4,Busse Forest-Central,Busse Woods,Ned Brown,0,0,0,0,0,0,0,0,0,1,1,0,0,1,0,0,0,1,0,0,0,0,0,0,1,0,0,0,0,0,0,0,1,0,0,0,0,0,0,0,1,0,1,0,0,0,0,1,0,0,1,0,0,0,0,0,0,0,0,0,0,0,0,0,,0101000020E610000068EF5E3E860056C02DC8D1FB21044540
192,camp,,42.1502767028373,-87.8977787641521,yes,200 Portwine Rd,"Northbrook, IL 60062",,171,Indian Boundary,,Camp Dan Beard,,,1,0,0,0,0,0,1,0,0,0,0,0,0,0,0,0,0,0,0,0,0,0,0,0,0,0,0,0,0,0,0,0,0,0,0,0,0,0,0,0,0,0,0,0,0,0,0,0,0,1,1,1,0,0,0,1,0,0,0,0,0,0,0,1,,0101000020E6100000E4C40F3575F955C037065A443C134540
193,activity area,,41.7409734968597,-87.6800029915432,yes,"S Western Ave, south of W 83rd St","Chicago, IL 60620",,131,Calumet,Circle,Dan Ryan Woods-Central,,,1,0,0,0,0,0,0,0,0,1,1,0,0,1,0,0,0,0,0,0,0,0,0,0,1,0,0,0,0,0,0,0,0,0,0,0,0,0,0,0,1,0,1,0,0,0,0,1,0,1,1,1,0,1,0,0,0,0,0,1,0,0,0,0,,0101000020E61000000D77442B85EB55C0E01C3438D8DE4440
194,activity area,,42.0513364233059,-88.1952007789561,yes,"Sutton Rd/Rte 59, south of Shoe Factory Rd","Cook County, IL 60192",,156,Northwest,Hansen Woods,Carl R. Hansen Woods,Poplar Creek Prairie,Arthur L. Janura Preserve,0,0,0,0,0,0,0,0,0,1,1,0,0,1,0,0,0,1,0,0,0,0,0,0,1,0,0,0,0,0,0,0,0,0,0,0,0,0,0,0,1,0,0,0,0,0,0,1,0,0,0,0,1,0,0,0,0,0,0,0,0,0,0,0,,0101000020E61000004971682B7E0C56C0139A213192064540
195,activity area,yes,42.031413036835,-88.2141887750807,yes,"Schaumburg Rd, east of W Irving Park Rd","Cook County, IL 60120",,214,Northwest,Horse Lot,Poplar Creek Equestrian Parking,Arthur L. Janura Preserve,Schaumburg Road Grasslands,0,0,0,1,0,0,0,0,0,1,1,0,0,1,0,0,0,1,1,0,0,0,0,0,1,0,0,0,0,0,0,0,0,0,0,0,0,0,0,0,0,0,0,0,0,0,0,1,0,0,0,0,1,1,0,0,0,0,0,0,0,0,0,0,,0101000020E61000001409D644B50D56C064F1A65705044540
196,activity area,,42.0426134084551,-88.1695492504472,yes,"E Bode Rd, east of Bartlett Rd","Hoffman Estates, IL 60107",,213,Northwest,,Bode Lake,Arthur L. Janura Preserve,,0,0,0,0,0,0,0,0,0,1,1,0,0,1,0,0,0,0,0,0,1,1,0,0,1,0,0,0,0,0,0,0,0,0,0,0,0,0,0,0,0,0,0,0,0,0,0,0,0,0,0,0,1,0,0,0,0,0,0,0,0,0,0,0,,0101000020E6100000DC6E19E5D90A56C041D92D5B74054540
197,activity area,yes,42.0568936109218,-88.1465392925414,yes,"S Barrington Rd, south of W Higgins Rd","Hoffman Estates, IL 60194",,160,Northwest,,Barrington Road Pond,Arthur L. Janura Preserve,,1,0,0,0,0,0,0,0,0,1,1,0,0,1,0,0,0,1,0,0,1,0,0,0,1,0,0,0,0,0,0,0,1,0,0,0,0,0,0,0,1,1,0,0,0,0,0,0,0,0,1,1,0,1,0,0,0,0,0,1,0,0,0,0,,0101000020E6100000D64257E6600956C0C722334A48074540
198,activity area,,42.0619916007736,-88.150544255709,yes,"Shoe Factory Rd, south of W Higgins Rd","Cook County, IL 60194",,209,Northwest,Shoe Factory Bike Lot,Poplar Creek Bicycle Lot,Arthur L. Janura Preserve,,0,1,0,0,0,0,0,0,0,1,1,0,0,1,0,0,0,0,0,0,0,0,0,0,1,0,0,0,0,0,0,0,0,0,0,0,0,0,0,0,0,0,1,0,0,0,0,0,0,0,0,0,1,0,0,0,0,0,0,0,0,0,0,0,,0101000020E6100000B7B75F84A20956C0FFFA3C57EF074540
199,activity area,,42.060703970069,-88.1600166649565,yes,"Shoe Factory Rd, east of Bartlett Rd","Hoffman Estates, IL 60010",,210,Northwest,,Poplar Creek Model Airplane Flying Field,Arthur L. Janura Preserve,,0,0,0,0,0,0,0,0,0,0,0,0,0,0,0,0,1,0,0,0,0,0,0,0,0,0,0,1,0,0,0,0,0,0,0,0,0,0,0,0,0,0,0,0,0,0,0,0,0,0,0,0,1,1,1,0,0,0,0,0,0,0,0,0,,0101000020E610000067B389B63D0A56C0F618CF25C5074540
200,activity area,,42.0612461697558,-88.1914161022755,yes,"Shoe Factory Rd, east of Rte 59","Hoffman Estates, IL 60010",,211,Northwest,Shoe Factory Roadside,Great Egret Family Picnic Area,Arthur L. Janura Preserve,,0,0,0,1,0,0,0,0,0,1,1,0,0,1,0,0,0,1,0,0,0,0,0,0,1,0,0,0,0,0,0,0,0,0,0,0,0,0,0,0,0,0,0,0,0,0,0,0,0,0,0,0,1,0,0,0,0,0,0,0,0,0,0,0,,0101000020E6100000DECC5229400C56C0170F1CEAD6074540
202,activity area,,42.083002804393,-88.2294442003051,yes,"W Higgins Rd/Rte 72, west of Beverly Rd","Cook County, IL 60010",,206,Northwest,,Beverly Lake,,,0,0,0,0,0,0,0,0,0,1,1,0,0,1,0,0,0,1,0,0,1,0,0,0,1,0,0,0,1,0,0,0,0,0,0,0,0,0,0,0,0,0,0,0,0,0,0,1,0,0,0,0,0,0,0,0,0,0,0,0,0,0,0,0,,0101000020E61000004B24BA36AF0E56C08D2DFDD59F0A4540
203,activity area,,42.0976440338268,-88.2063243387835,yes,"East Penny Rd, west of Old Sutton Rd","Barrington Hills, IL 60010",,329,Northwest,,Penny Road Pond,Spring Lake,,0,0,0,0,0,0,0,0,0,0,0,0,0,0,0,0,0,1,0,0,1,0,0,0,0,0,0,0,0,0,0,0,0,0,0,0,0,0,0,0,0,0,0,0,0,0,0,1,0,0,0,0,1,0,0,0,0,0,0,0,0,0,0,0,,0101000020E61000006BDCFF6A340D56C03CF985997F0C4540
204,activity area,,42.0526526341169,-87.8858638086948,yes,"S River Rd, south of E Golf Rd","Des Plaines, IL 60016",,149,Indian Boundary,,Lions Woods,,,1,0,0,0,0,0,0,0,0,0,0,0,0,0,0,0,0,0,0,0,0,0,0,0,0,0,0,0,0,0,0,0,0,0,0,0,0,0,0,0,1,0,0,0,0,0,0,0,0,0,0,0,1,1,1,0,0,0,0,1,0,0,0,0,,0101000020E610000074C31DFEB1F855C0BCCB4E52BD064540
205,activity area,,42.036501684567,-87.8812411215376,yes,"Joseph Schwab Rd, south of Minor St","Des Plaines, IL 60016",,324,Indian Boundary,,Northwestern Woods,,,0,0,0,0,0,0,0,1,0,0,0,0,0,0,0,0,0,0,0,0,0,0,0,0,0,0,0,0,0,0,0,0,1,0,0,0,0,0,0,0,0,0,0,0,0,0,0,0,0,0,0,0,0,0,0,0,0,0,0,0,0,0,0,0,,0101000020E61000003839294166F855C0D8BC5216AC044540
206,activity area,,42.1409296692582,-87.9011610905799,yes,"E Dundee Rd, east of N Milwaukee Ave","Cook County, IL 60062",,158,Indian Boundary,,Potawatomi Woods,,,1,0,0,0,0,0,0,0,0,1,1,0,0,1,0,0,0,1,0,0,1,0,0,0,1,0,0,0,1,0,0,0,1,0,0,0,0,0,0,0,1,0,0,0,0,0,0,0,0,0,0,0,1,1,1,0,0,0,0,1,0,0,0,0,,0101000020E6100000F71D919FACF955C08441C0FB09124540
207,activity area,,42.0298695309527,-87.8738567885706,yes,E Algonquin Rd &amp; Joseph Schwab Rd,"Des Plaines, IL 60016",,148,Indian Boundary,,Camp Ground Road Woods,,,1,0,0,0,0,0,0,0,0,1,1,0,0,1,0,0,0,0,0,0,0,0,0,0,1,0,0,0,0,0,0,0,0,0,0,0,0,0,0,0,1,0,0,0,0,0,0,0,0,0,0,0,1,0,0,0,0,0,0,1,0,0,0,0,,0101000020E610000014130645EDF755C0CD4CC9C3D2034540
208,activity area,,42.0111744870281,-87.8641605932528,yes,"E Touhy Ave, west of Talcott Rd","Cook County, IL 60018",,292,Indian Boundary,,Iroquois Woods,,,0,0,0,0,0,0,0,0,0,0,0,0,0,0,0,0,0,0,0,0,0,0,0,0,0,0,0,0,0,0,0,0,0,0,0,0,0,0,0,1,0,0,0,0,0,0,0,0,0,0,0,0,1,0,0,0,0,0,0,0,0,0,0,0,,0101000020E6100000CFA03B684EF755C0572C642A6E014540
210,activity area,,42.0058625057575,-87.8655728150425,yes,"S River Rd, south of W Touhy Ave","Cook County, IL 60018",,291,Indian Boundary,,Chippewa Woods,Axehead Lake,,0,0,0,0,0,0,0,0,0,0,0,0,0,0,0,0,0,0,0,0,1,1,0,0,0,0,0,0,0,0,0,0,1,0,0,0,0,0,0,0,1,0,0,0,0,0,0,0,0,0,0,0,1,1,0,0,0,0,0,0,0,0,0,0,,0101000020E6100000843A858B65F755C09841431AC0004540
211,activity area,,41.9988368882166,-87.8619941160048,yes,"S River Road, north of E Devon Ave","Cook County, IL 60018",,169,Indian Boundary,,Blandings Grove Family Picnic Area,,,0,0,0,0,0,0,0,0,0,0,0,0,0,0,0,0,0,0,0,0,0,0,0,0,0,0,0,0,0,0,0,0,0,0,0,0,0,0,0,0,0,0,0,0,0,0,0,0,0,0,0,0,0,0,0,0,0,0,0,0,0,0,0,0,,0101000020E61000006D655EE92AF755C04E781CE3D9FF4440
212,activity area,,41.9989636280111,-87.8583119832991,yes,"S Dee Rd, north of Devon Ave","Park Ridge, IL 60068",,4,Indian Boundary,,Dam No. 4 Woods-East,Dam #4,Dam Number 4,1,0,0,0,0,0,0,0,0,1,1,0,0,1,0,0,0,1,0,0,0,0,0,0,1,0,0,0,0,0,0,0,0,0,0,0,0,0,0,0,1,0,0,0,0,0,0,0,0,0,0,0,1,1,1,0,0,0,0,1,0,0,0,0,,0101000020E610000034826295EEF655C0331B480ADEFF4440
213,activity area,,41.9945458737548,-87.8606197771279,yes,"S River Road, south of E Devon Ave","Cook County, IL 60018",,167,Indian Boundary,,Blue Beech Family Picnic Area,,,0,0,0,0,0,0,0,0,0,0,0,0,0,0,0,0,0,0,0,0,0,0,0,0,0,0,0,0,0,0,0,0,0,0,0,0,0,0,0,0,0,0,0,0,0,0,0,0,0,0,0,0,0,0,0,0,0,0,0,0,0,0,0,0,,0101000020E61000008543F96414F755C06F1479474DFF4440
214,activity area,,41.9804593064387,-87.847738518705,yes,"N East River Rd, north of W Foster Ave","Chicago, IL 60656",,140,Indian Boundary,,Catherine Chevalier Woods,,,0,0,0,0,0,0,0,0,0,1,1,0,0,1,0,0,0,0,0,0,0,0,0,0,1,0,0,0,0,0,0,0,0,0,0,0,0,0,0,0,1,0,0,0,0,0,0,0,0,0,0,0,1,1,0,0,0,0,0,0,0,0,0,0,,0101000020E61000006E590F5941F655C0AF1CC8B07FFD4440
215,activity area,,41.9719675552726,-87.861447788095,yes,"Des Plaines River Rd, north of Lawrence Ave","Schiller Park, IL 60176",,222,Indian Boundary,,River Bend Family Picnic Area,,,0,0,0,0,0,0,0,0,0,0,0,0,0,0,0,0,0,0,0,0,0,0,0,0,0,0,0,0,0,0,0,0,0,0,0,0,0,0,0,0,0,0,0,0,0,0,0,0,0,0,0,0,0,0,0,0,0,0,0,0,0,0,0,0,,0101000020E61000001345E7F521F755C00F57CF6E69FC4440
216,activity area,,41.9648813538556,-87.8540106231083,yes,"Lawrence Ave, west of N East River Rd","Chicago, IL 60656",,141,Indian Boundary,,Robinson Woods-South,,,0,0,0,0,0,0,0,0,0,1,1,0,0,1,0,0,0,1,0,0,0,0,0,0,1,0,0,0,0,0,0,0,0,0,0,0,0,0,0,0,1,0,0,0,0,0,0,1,0,0,0,0,1,1,1,0,0,0,0,0,0,0,0,0,,0101000020E6100000F52B2C1CA8F655C0A5AB713B81FB4440
217,activity area,,41.954007076439,-87.8565739467664,yes,"Des Plaines River Rd, north of Irving Park Rd","Schiller Park, IL 60176",,25,Indian Boundary,Canoe Launch,Irving Park Road Canoe Landing,,,0,0,0,0,0,0,0,1,0,0,0,0,0,0,0,0,0,0,0,0,0,0,0,0,0,0,0,0,0,0,0,0,0,0,0,0,0,0,0,0,0,0,0,0,0,0,0,0,0,0,0,0,0,0,0,0,0,0,0,0,0,0,0,0,,0101000020E6100000EAFD871BD2F655C008BC64E71CFA4440
218,activity area,,41.9555767610468,-87.8518596767565,yes,"W Irving Park Rd, east of Des Plaines River Rd","Schiller Park, IL 60634",,129,Indian Boundary,Schiller 1-8,Schiller Woods-West,,,1,0,0,0,0,0,0,0,0,1,1,0,0,1,0,0,0,1,0,0,0,0,0,0,1,0,0,0,0,0,0,0,0,0,0,0,0,0,0,1,1,0,0,0,0,0,0,1,0,0,0,0,1,1,1,0,0,0,0,1,0,0,0,0,,0101000020E6100000D01C73DE84F655C02AC3DC5650FA4440
219,activity area,,41.9520062574735,-87.8527092454165,yes,"W Irving Park Rd, east of Des Plaines River Rd","Schiller Park, IL 60634",,130,Indian Boundary,Schiller 15,Schiller Woods-South,,,0,0,0,0,0,0,0,0,0,1,1,0,0,1,0,0,0,1,0,0,0,0,0,0,1,0,0,0,0,0,0,0,0,0,0,0,0,0,0,0,0,0,0,0,0,0,0,1,0,0,0,0,0,0,0,0,0,0,0,0,0,0,0,0,,0101000020E6100000E083CCC992F655C040B94E57DBF94440
220,activity area,,41.9576718946953,-87.8343224881557,yes,"W Montrose Ave, east of N Cumberland Ave","Chicago, IL 60706",,125,Indian Boundary,,Schiller Playfield,,,0,0,0,0,0,0,0,0,0,0,0,0,0,0,0,0,0,0,0,0,0,0,0,0,0,0,0,0,0,0,0,0,0,0,0,0,0,0,0,0,0,0,0,0,0,0,0,1,0,0,0,0,0,0,0,0,0,0,0,0,0,0,0,0,,0101000020E61000008E3C268A65F555C04D031EFE94FA4440
221,activity area,,41.9546211978789,-87.8438668394212,yes,"W Irving Park Rd, west of N Cumberland Ave","Chicago, IL 60634",,128,Indian Boundary,Schiller 9-14,Schiller Woods-East,Schiller Pond,,1,0,0,0,0,0,0,0,0,1,1,0,0,1,0,0,0,1,0,0,1,0,0,0,1,0,0,0,0,0,0,0,0,0,0,0,0,0,0,0,1,0,0,1,0,0,0,1,0,0,1,1,1,1,1,0,0,0,0,1,0,0,0,0,,0101000020E6100000895F0FEA01F655C0177C040731FA4440
222,activity area,,41.9511220417671,-87.841470474353,yes,"W Irving Park Rd, west of N Cumberland Ave","Chicago, IL 60634",,223,Indian Boundary,,Schiller Model Airplane Flying Field,,,0,0,0,0,0,0,0,0,0,0,0,0,0,0,0,0,0,0,0,0,0,0,0,0,0,0,0,1,0,0,0,0,0,0,0,0,0,0,0,0,0,0,0,0,0,0,0,1,0,0,0,0,1,1,1,0,0,0,0,0,0,0,0,0,,0101000020E610000053F9F9A6DAF555C0E3F3F75DBEF94440
223,activity area,,41.9511168909135,-87.8462614966239,yes,"W Irving Park Ave, west of N Cumberland Ave","Chicago, IL 60634",,127,Indian Boundary,,Che Che Pin Qua Woods,Schiller Woods,,0,0,0,0,0,0,0,0,0,0,0,0,0,0,0,0,0,0,0,0,0,0,0,0,0,0,0,0,0,0,0,0,0,0,0,0,0,0,0,1,0,0,0,0,0,0,0,1,0,0,0,0,1,0,0,0,0,0,0,0,0,0,0,0,,0101000020E610000045F7FA2529F655C03794C232BEF94440
224,activity area,,41.9460935077436,-87.8548410436144,yes,"Des Plaines River Rd, south of Irving Park Ave","Cook County, IL 60176",,224,Indian Boundary,,Indian Boundary Family Picnic Area,,,0,0,0,0,0,0,0,0,0,0,0,0,0,0,0,0,0,0,0,0,0,0,0,0,0,0,0,0,0,0,0,0,0,0,0,0,0,0,0,0,0,0,0,0,0,0,0,0,0,0,0,0,0,0,0,0,0,0,0,0,0,0,0,0,,0101000020E61000008D6635B7B5F655C0265D919719F94440
225,golf course,,41.9416931694623,-87.8439361524096,yes,8600 W Forest Preserve Dr,"Chicago, IL 60634",,225,Indian Boundary,,Indian Boundary Golf Course,,,0,0,0,0,0,0,0,0,0,0,0,0,0,0,0,0,0,0,0,0,0,0,0,1,0,0,0,0,0,0,0,0,0,0,0,0,0,0,0,0,0,0,0,0,0,0,0,0,0,0,0,0,0,0,0,0,0,0,0,0,0,0,0,0,,0101000020E6100000B7A0C70C03F655C0ECDBDA6689F84440
227,activity area,,41.9221597277621,-87.8372456391827,yes,"W Fullerton Ave, west of N 1st Ave","River Grove, IL 60171",,20,Indian Boundary,,Fullerton Woods,La Framboise Woods,,0,0,0,0,0,0,0,0,0,1,1,0,0,1,0,0,0,0,0,0,0,0,0,0,1,0,0,0,0,0,0,0,0,0,0,0,0,0,0,0,1,0,0,0,0,0,0,0,0,0,0,0,1,0,0,0,0,0,0,0,0,0,0,0,,0101000020E610000085C0BB6E95F555C0FF37785409F64440
228,activity area,,41.9209089495726,-87.8336038538782,yes,"N Thatcher Ave, south of W Fullerton Ave","River Grove, IL 60171",,305,Indian Boundary,,Jerome Huppert Woods,,,0,0,0,0,0,0,0,0,0,1,1,0,0,1,0,0,0,0,0,0,0,0,0,0,1,0,0,0,0,0,0,0,0,0,0,0,0,0,0,0,1,0,0,0,0,0,0,0,0,0,0,0,1,0,1,0,0,0,0,0,0,0,0,0,,0101000020E61000007C8EFAC359F555C070822E58E0F54440
229,activity area,,41.9131317474418,-87.8266771574922,yes,W Bloomingdale Ave & Thatcher Ave,"River Grove, IL 60171",,19,Indian Boundary,,Evans Field,,,0,0,0,0,0,0,0,0,0,1,1,0,0,1,0,0,0,0,0,0,0,0,0,0,1,0,0,0,0,0,0,0,0,0,0,0,0,0,0,0,1,0,0,0,0,0,0,0,0,0,1,0,0,0,0,0,0,0,0,0,0,0,0,0,,0101000020E6100000DEF14E47E8F455C03B1B4880E1F44440
230,activity area,,41.909217855042,-87.8307008681008,yes,"North Ave, east of N 1st Ave","River Grove, IL 60171",,23,Indian Boundary,,Sunset Bridge Meadow,,,1,0,0,0,0,0,0,0,0,1,1,0,0,1,0,0,0,0,0,0,0,0,0,0,1,0,0,0,0,0,0,0,0,0,0,0,0,0,0,0,1,0,0,0,0,0,0,0,0,0,1,1,0,0,0,0,0,0,0,1,0,0,0,0,,0101000020E61000001E50F9332AF555C0842D2C4061F44440
231,activity area,,41.9006040669426,-87.8344277818416,yes,"N 1st Ave, north of Chicago Ave","Melrose Park, IL 60160",,18,Indian Boundary,,Silver Creek Family Picnic Area,,,0,0,0,0,0,0,0,0,0,0,0,0,0,0,0,0,0,1,0,0,0,0,0,0,0,0,0,0,0,0,0,0,0,0,0,0,0,0,0,0,0,0,0,0,0,0,0,0,0,0,0,0,0,0,0,0,0,0,0,0,0,0,0,0,,0101000020E61000008978C84367F555C04B167BFE46F34440
232,activity area,,41.8958578810613,-87.8308902275865,yes,"Chicago Ave, west of Thatcher Ave","River Forest, IL 60305",,27,Indian Boundary,,Thatcher Woods,,,0,0,0,1,0,0,0,0,0,0,0,0,0,1,0,0,1,1,0,0,0,0,0,0,1,1,0,0,0,0,0,0,0,0,0,0,0,1,1,1,1,0,0,0,0,0,0,1,0,1,1,1,1,1,1,0,0,0,0,0,0,0,0,0,,0101000020E61000003483344E2DF555C043849678ABF24440
233,nature center,yes,41.8932453500739,-87.8263054594213,yes,738 Thatcher Ave,"River Forest, IL 60305",,172,Indian Boundary,,Trailside Museum of Natural History,Hal Tyrell Trailside Museum,,0,0,0,1,0,0,0,0,0,0,0,0,0,0,0,0,0,1,0,0,1,0,0,0,1,0,0,0,0,1,0,1,0,1,0,0,0,0,0,0,0,0,0,0,0,0,0,1,0,1,1,1,0,0,0,0,0,0,0,0,0,0,0,0,0101000020E610000056E780F1EFF455C0345A024D68F24440,0101000020E61000001D2E4B30E2F455C0F4F016DD55F24440
234,activity area,,41.8907348183977,-87.8324307583225,yes,Ohio St & Des Plaines Ave,"Maywood, IL 60153",,8,Indian Boundary,,Maywood Grove,,,1,0,0,0,0,0,0,1,0,0,0,0,0,0,0,0,0,0,0,0,0,0,0,0,0,0,0,0,0,0,0,0,0,0,0,0,0,0,0,0,1,0,0,0,0,0,0,0,0,0,0,0,1,0,1,0,0,0,0,1,0,0,0,0,,0101000020E61000007FCBA88B46F555C00238399903F24440
235,activity area,,41.8842302444341,-87.8334088118885,yes,"1st Ave, north of Washington Blvd","Cook County, IL 60153",,228,Indian Boundary,,Quercus Woods Family Picnic Area,,,0,0,0,0,0,0,0,0,0,0,0,0,0,0,0,0,0,0,0,0,0,0,0,0,0,0,0,0,0,0,0,0,0,0,0,0,0,0,0,0,0,0,0,0,0,0,0,0,0,0,0,0,0,0,0,0,0,0,0,0,0,0,0,0,,0101000020E610000095D0E99156F555C0A8FEE6742EF14440
236,activity area,,41.8631474158894,-87.8296127043071,yes,"Roosevelt Rd, east of 1st Ave","Cook County, IL 60130",,5,Salt Creek,,Miller Meadow-North,George A. Miller Meadow,,1,0,0,0,0,0,0,0,0,0,0,0,0,0,0,0,0,1,0,0,0,0,0,0,0,0,1,0,0,0,0,0,0,0,0,0,0,0,0,1,1,0,0,0,0,0,0,0,0,0,0,0,1,1,1,0,0,0,0,1,0,0,0,0,,0101000020E61000001556E25F18F555C0F770519D7BEE4440
237,activity area,,41.8579385993794,-87.8296783779468,yes,"1st Ave, south of Roosevelt Rd","Cook County, IL 60130",,7,Salt Creek,,Miller Meadow-South,George A. Miller Meadow,,1,0,0,1,0,0,0,0,0,1,1,0,1,1,0,0,0,1,0,0,0,0,0,0,1,0,1,0,0,0,0,0,0,0,0,0,0,0,0,1,1,0,1,0,0,0,0,0,0,0,0,0,1,1,1,0,0,0,0,1,0,0,0,0,,0101000020E6100000B7DE567319F555C01D2999EED0ED4440
238,activity area,,41.8510950088303,-87.8235663229637,yes,"W Cermak Rd, west of Des Plaines Ave","Cook County, IL 60546",,44,Salt Creek,,Schuth's Grove,,,1,0,0,0,0,0,0,0,0,0,0,0,0,0,0,0,0,0,0,0,0,0,0,0,0,0,0,0,0,0,0,0,0,0,0,0,0,0,0,1,1,0,0,0,0,0,0,0,0,0,0,0,1,0,0,0,0,0,0,1,0,0,0,0,,0101000020E6100000D0CD854FB5F455C0E25C66AEF0EC4440
239,activity area,,41.8491340439372,-87.8240729452461,yes,"W Cermak Rd, west of Des Plaines Ave","North Riverside, IL 60546",,173,Salt Creek,Callahan,Callahan Grove,,,0,0,0,0,0,0,0,0,0,0,0,0,0,0,0,0,0,0,0,0,0,0,0,0,0,0,0,0,0,0,0,0,0,0,0,0,0,0,0,0,0,0,0,0,0,0,0,0,0,0,0,0,0,0,0,0,0,0,0,0,0,0,0,0,,0101000020E61000006C56739CBDF455C01252A26CB0EC4440
240,activity area,,41.8360866824027,-87.8289621001369,yes,"1st Ave, north of 31st St","North Riverside, IL 60546",,42,Salt Creek,McCormick,McCormick Woods,,,0,0,0,0,0,0,0,0,0,0,0,0,0,0,0,0,0,1,0,0,0,0,0,0,0,0,0,0,0,0,0,0,0,0,0,0,0,0,0,0,1,0,0,0,0,0,0,1,0,0,0,0,1,0,0,0,0,0,0,0,0,0,0,0,,0101000020E6100000866D0DB70DF555C09BC66EE304EB4440
241,activity area,,41.8389220614475,-87.8262254319534,yes,"Groveland Ave, north of 31st St","North Riverside, IL 60546",,318,Salt Creek,,National Grove-South,,,0,0,0,0,0,0,0,0,0,0,0,0,0,0,0,0,0,0,0,0,0,0,0,0,0,0,0,0,0,0,0,0,0,0,0,0,0,0,0,1,1,0,0,0,0,0,0,0,0,0,1,0,1,0,0,0,0,0,0,0,0,0,0,0,,0101000020E61000004157A2E0E0F455C00EE950CC61EB4440
242,activity area,,41.8322140755827,-87.827851841014,yes,"1st Ave, south of 31st Ave","Riverside, IL 60546",,319,Salt Creek,,Zoo Woods,,,0,0,0,0,0,0,0,0,0,0,0,0,0,0,0,0,0,1,0,0,0,0,0,0,0,0,0,0,0,0,0,0,0,0,0,0,0,0,0,0,0,0,0,0,0,0,0,0,0,0,0,0,1,0,0,0,0,0,0,0,0,0,0,0,,0101000020E6100000A6C54986FBF455C061F4A6FD85EA4440
243,activity area,,41.8361021891075,-87.8390820642009,yes,"31st St, west of 1st Ave","Brookfield, IL 60513",,28,Salt Creek,Brookfield,Brookfield Woods,,,1,0,0,0,0,0,0,0,0,1,1,0,0,1,0,0,0,1,0,0,0,0,0,0,1,0,0,0,0,0,0,0,0,0,0,0,0,0,0,0,1,0,1,0,0,0,0,1,0,0,0,0,1,1,1,0,0,0,0,1,0,0,0,0,,0101000020E6100000C9194285B3F555C0BA2B836505EB4440
245,activity area,,41.8424268771931,-87.8529654245689,yes,"26th St, west of Maple Ave","Cook County, IL 60526",,307,Salt Creek,Twenty-six East,Twenty-Sixth Street Woods-East,,,0,0,0,0,0,0,0,0,0,0,0,0,0,0,0,0,0,0,0,0,0,0,0,0,0,0,0,0,0,0,0,0,0,0,0,0,0,0,0,1,0,0,0,0,0,0,0,0,0,0,0,0,1,0,0,0,0,0,0,0,0,0,0,0,,0101000020E61000001BC94AFC96F655C0CA69D7A4D4EB4440
246,activity area,,41.8424214399353,-87.8571287943641,yes,"26th St, east of S 25th Ave","Cook County, IL 60526",,306,Salt Creek,Twenty-six West,Twenty-Sixth Street Woods-West,,,0,0,0,0,0,0,0,1,0,1,1,0,0,1,0,0,0,0,0,0,0,0,0,0,1,0,0,0,0,0,0,0,0,0,0,0,0,0,0,0,1,0,1,0,0,0,0,0,0,0,0,0,1,1,0,0,0,0,0,0,0,0,0,0,,0101000020E61000003C10BB32DBF655C0B9FD3A77D4EB4440
247,activity area,,41.8439995223743,-87.8737399389314,yes,"N La Grange Rd, south of W Cermak Rd","Cook County, IL 60526",,29,Salt Creek,,Brezina Woods,,,1,0,0,0,0,0,0,0,0,1,1,0,0,1,0,0,0,1,0,0,0,0,0,0,1,0,0,0,0,0,0,0,0,0,0,0,0,0,0,1,1,0,1,0,0,0,0,0,0,0,0,0,1,0,1,0,0,0,0,1,0,0,0,0,,0101000020E6100000D3BAEB5AEBF755C05C39252D08EC4440
248,activity area,,41.8358203522537,-87.8789010429209,yes,"W 31st St, west of S La Grange Rd","Cook County, IL 60526",,10,Salt Creek,Possum,Possum Hollow Woods,,,0,0,0,0,0,0,0,0,0,0,0,0,0,0,0,0,0,1,0,0,0,0,0,0,0,0,0,0,0,0,0,0,0,0,0,0,0,0,0,1,1,0,0,0,0,0,0,1,0,0,0,0,1,0,0,0,0,0,0,0,0,0,0,0,,0101000020E610000001F128EA3FF855C0C3224B29FCEA4440
249,activity area,,41.8333334802784,-87.8747941580405,yes,"W 31st St, west of S La Grange Rd","La Grange Park, IL 60526",,30,Salt Creek,LaGrange,LaGrange Park Woods,,,0,0,0,0,0,0,0,0,0,0,0,0,0,0,0,0,0,0,0,0,0,0,0,0,0,0,0,0,0,0,0,0,0,0,0,0,0,0,0,1,0,0,0,0,0,0,0,0,0,0,0,0,1,0,0,0,0,0,0,0,0,0,0,0,,0101000020E610000002E1A2A0FCF755C0EC3BE6ABAAEA4440
250,activity area,,41.8221740811255,-87.909560995167,yes,"Ogden Ave, west of Wolf Rd","Cook County, IL 60558",,46,Salt Creek,,Bemis Woods-South,,,1,0,0,1,0,0,0,0,0,1,1,0,0,1,0,0,0,1,0,0,0,0,0,0,1,0,0,0,0,0,0,0,0,0,0,0,0,0,0,0,1,0,1,0,0,0,0,1,1,1,1,0,1,1,1,0,0,0,0,1,0,0,0,0,,0101000020E610000064FD513F36FA55C0250813003DE94440
252,golf course,,41.8324828476081,-87.9111610319633,yes,11599 31st St,"Hinsdale, IL 60523",,249,Salt Creek,,Meadowlark Golf Course,,,0,0,0,0,0,0,0,0,0,0,0,0,0,0,0,0,0,0,0,0,0,0,0,1,0,0,0,0,0,0,0,0,0,0,0,0,0,0,0,0,0,0,0,0,0,0,0,0,0,0,0,0,0,0,0,0,0,0,0,0,0,0,0,0,,0101000020E6100000036B5C7650FA55C0F87B46CC8EEA4440
253,activity area,,41.8170188897751,-87.8320019005662,yes,"Ogden Ave, east of 1st Ave","Riverside, IL 60534",,34,Salt Creek,Plank,Plank Road Meadow Boat Launch,,,0,0,0,0,1,0,0,1,0,0,0,0,0,0,0,0,0,0,0,0,0,0,1,0,0,0,0,0,0,0,0,0,0,0,0,0,0,0,0,0,0,0,0,0,0,0,0,0,0,0,0,0,1,0,0,0,0,0,0,0,0,0,0,0,,0101000020E61000001049E6843FF555C090E7311394E84440
254,activity area,,41.8198402291496,-87.8112201802962,yes,7600 W Ogden Ave,"Lyons, IL 60534",,336,Salt Creek,Cermak,Cermak Woods,,,1,0,0,0,0,0,0,0,0,1,1,0,0,1,0,0,0,1,0,0,1,0,0,0,1,0,0,0,0,0,0,0,0,0,0,0,0,0,0,0,1,0,0,0,0,0,0,0,0,0,0,0,1,1,1,0,0,0,0,1,0,0,0,0,0101000020E61000000B114D1B1AF455C0C389D13CFEE84440,0101000020E61000008D0E0C08EBF355C0A7134E86F0E84440
255,activity area,,41.8194552655581,-87.807518407044,yes,Haas Ave &amp; Oakwood Ave,"Lyons, IL 60534",,38,Salt Creek,White Eagle 1,White Eagle Woods-North,,,0,0,0,0,0,0,0,0,0,0,0,0,0,0,0,0,0,0,0,0,0,0,0,0,0,0,0,0,0,0,0,0,1,0,0,0,0,0,0,0,1,0,0,0,0,0,0,0,0,0,0,0,1,0,0,0,0,0,0,0,0,0,0,0,,0101000020E6100000044BAF61AEF355C0180FFFE8E3E84440
256,activity area,,41.816782346205,-87.8051573041227,yes,"40th St, west of S Harlem Ave","Lyons, IL 60534",,39,Salt Creek,White Eagle2 or @ grove 3,White Eagle Woods-South,,,0,0,0,0,0,0,0,0,0,0,0,0,0,0,0,0,0,0,0,0,0,0,0,0,0,0,0,0,0,0,0,0,1,0,0,0,0,0,0,0,1,0,0,0,0,0,0,0,0,0,0,0,1,0,0,0,0,0,0,0,0,0,0,0,,0101000020E6100000E95580B287F355C0A874EC528CE84440
257,activity area,,41.815199615385,-87.8049194397712,yes,"Joliet Ave, west of S Harlem Ave","Lyons, IL 60534",,308,Salt Creek,Ottawa 3,Ottawa Trail Woods-North,Laughton Trading Post and Ford,,0,0,0,0,0,0,0,0,0,0,0,0,0,0,0,0,0,0,0,0,0,0,0,0,0,0,0,0,0,0,0,0,1,0,0,0,0,0,0,1,0,0,0,0,0,0,0,0,0,0,0,0,1,0,0,0,0,0,0,0,0,0,0,0,,0101000020E6100000D86ED3CC83F355C08DE6037658E84440
258,activity area,,41.8104318048915,-87.8045734564459,yes,"47th St, west of S Harlem Ave","Lyons, IL 60534",,36,Salt Creek,,Ottawa Trail Woods-South,Laughton Trading Post and Ford,,0,0,0,1,0,0,0,0,0,0,0,0,0,0,0,0,0,1,0,0,0,0,0,0,0,0,0,0,0,0,0,0,1,0,0,0,0,0,0,1,1,0,0,0,0,0,0,0,0,0,0,0,1,0,0,0,0,0,0,0,0,0,0,0,,0101000020E610000089AAAA217EF355C039D4B83ABCE74440
259,activity area,,41.8126940268703,-87.8103620455888,yes,"Joliet Ave/43rd St, west of S Harlem Ave","Lyons, IL 60534",,244,Salt Creek,Stony,Stony Ford Canoe Landing,,,0,0,0,0,0,0,0,1,0,1,1,0,0,1,0,0,0,0,0,0,0,0,0,0,1,0,0,0,0,0,0,0,0,0,0,0,0,0,0,0,0,0,0,0,0,0,0,0,0,0,0,0,0,0,0,0,0,0,0,0,0,0,0,0,,0101000020E61000004FEEC4F8DCF355C059899D5B06E84440
260,activity area,,41.8053117330451,-87.8025320640396,yes,"S Harlem Ave, south of 47th St","Lyons, IL 60402",,245,Salt Creek,Portage,Chicago Portage National Historic Site,,,0,0,0,0,0,0,0,0,0,1,1,0,0,1,0,0,0,1,0,0,0,0,0,0,1,0,0,0,0,0,0,0,0,0,0,0,1,0,0,0,0,0,1,0,0,0,0,1,0,0,0,0,1,1,0,0,0,0,0,0,0,0,0,0,,0101000020E6100000A44272AF5CF355C01D43727414E74440
261,activity area,,42.1398415653921,-87.8239718636403,yes,"Dundee Rd, east of S Waukegan Ave","Northbrook, IL 60062",,163,North Branch,,Somme Woods,Somme Prairie Grove Nature Preserve,Somme Prairie Nature Preserve,0,0,0,0,0,0,0,0,0,0,0,0,0,0,0,0,0,1,0,0,0,0,0,0,0,0,0,0,0,0,0,0,1,0,0,0,0,0,0,0,1,0,0,0,0,0,0,1,0,0,0,0,1,1,0,0,0,0,0,0,0,0,0,0,,0101000020E61000002ECA7BF4BBF455C003FF1254E6114540
262,activity area,,42.1497254851173,-87.7745249659741,yes,"Green Bay Rd, south of Lake Cook Rd","Glencoe, IL 60022",,95,North Branch,,Turnbull Woods,William N. Erickson Preserves,,0,0,0,0,0,0,0,0,0,0,0,0,0,0,0,0,0,0,0,0,0,0,0,0,0,0,0,0,0,0,0,0,0,0,0,0,0,0,0,0,1,0,0,0,0,0,0,1,0,0,0,0,1,0,1,0,0,0,0,0,0,0,0,0,,0101000020E6100000D2B229D191F155C0EDFB66342A134540
263,special activity,,42.1503333831494,-87.7884428645228,yes,1000 Lake Cook Rd,"Glencoe, IL 60022",,229,North Branch,,Chicago Botanic Garden,,,0,0,0,1,0,0,0,0,0,0,1,0,0,0,0,0,0,0,0,0,0,0,0,0,1,0,0,0,0,0,0,0,0,0,1,0,0,0,0,0,0,0,0,0,0,0,0,0,0,1,1,1,0,0,0,0,0,0,0,0,0,0,0,0,,0101000020E6100000F1780FD975F255C05111D21F3E134540
265,activity area,,42.1284467797274,-87.7753242898304,yes,"Forest Way Dr, south of Dundee Rd","Cook County, IL 60022",,94,North Branch,Strawberry Hill,Forest Way Grove,Skokie Lagoons,,0,0,0,0,0,0,0,0,0,1,1,0,0,1,0,0,0,0,0,0,1,0,0,0,1,0,0,0,0,0,0,0,0,0,0,0,0,0,0,0,0,0,1,0,0,0,0,1,0,0,0,0,1,1,0,0,0,0,0,0,0,0,0,0,,0101000020E61000006C27C5E99EF155C0D51BAFF170104540
266,activity area,,42.1152537666697,-87.7735161995319,yes,"Tower Rd, west of Forestway Dr","Cook County, IL 60093",,232,North Branch,,Tower Road,Skokie Lagoons,,0,0,0,1,0,1,0,0,0,1,1,0,0,1,0,0,0,1,0,0,1,0,0,0,1,0,0,0,0,0,0,0,0,0,0,0,0,0,0,0,0,0,1,0,0,0,0,1,0,0,0,0,1,0,0,0,0,0,0,0,0,0,0,0,,0101000020E61000009AFA164A81F155C09D4CABA2C00E4540
267,activity area,yes,42.1147199116429,-87.7756590165728,yes,"Tower Rd, west of Forestway Dr","Cook County, IL 60093",,233,North Branch,,Tower Road Boat Launch,Skokie Lagoons,,1,0,0,1,1,0,0,0,0,1,1,0,0,1,0,0,0,0,1,0,1,0,0,0,1,0,0,0,0,0,0,0,0,0,0,0,0,0,0,0,0,0,1,0,0,0,0,1,0,0,0,0,1,1,0,0,0,0,0,0,0,1,1,0,,0101000020E6100000C241B765A4F155C0DB5B5E24AF0E4540
268,activity area,,42.1026157818614,-87.7650482342287,yes,"Willow Rd, east of I-94/Edens Expy","Cook County, IL 60093",,99,North Branch,,Erickson Woods,,,0,0,0,1,0,0,0,0,0,1,1,0,0,1,0,0,0,1,0,0,1,0,0,0,1,0,0,0,0,0,0,0,0,0,0,0,0,0,0,0,1,0,1,0,0,0,0,1,0,0,0,0,1,0,0,0,0,0,0,0,0,0,0,0,,0101000020E6100000FC77DE8CF6F055C076949183220D4540
269,activity area,,42.0790179616355,-87.7751659641333,yes,"E Lake Ave, east of Wagner Rd","Glenview, IL 60025",,14,North Branch,,Blue Star Memorial Woods,,,1,0,0,0,0,0,0,0,0,1,1,0,0,1,0,0,1,1,0,0,0,0,0,0,1,0,0,0,0,0,0,0,0,0,0,0,0,0,0,0,1,0,1,0,0,0,0,1,0,0,0,0,1,0,1,0,0,0,0,1,0,0,0,0,,0101000020E61000002E3BB4519CF155C02684B4421D0A4540
270,activity area,,42.0675220471221,-87.772879596338,yes,"Harms Rd, south of Glenview Rd","Glenview, IL 60025",,236,North Branch,,Glenview Woods,Harms Woods,,0,0,0,0,0,0,0,0,0,1,1,0,0,1,0,0,0,0,0,0,0,0,0,0,1,0,0,0,0,0,0,0,0,0,0,0,0,0,0,0,0,0,1,0,0,0,0,0,0,0,0,0,1,0,0,0,0,0,0,0,0,0,0,0,,0101000020E61000001E81FBDB76F155C07B14FC8FA4084540
271,activity area,,42.0625555240933,-87.7720086521144,yes,Harms Rd & Old Orchard Rd,"Cook County, IL 60077",,97,North Branch,,Harms Woods-North,George F. Nixon Forest,,1,0,0,1,0,0,0,0,0,1,1,0,0,1,0,0,0,1,0,0,0,0,0,0,1,0,0,0,0,0,0,0,0,0,0,0,0,0,0,1,1,0,1,0,0,0,0,1,0,0,1,1,0,1,1,0,0,0,0,1,0,0,0,0,,0101000020E6100000DD43FA9668F155C09516C5D101084540
272,activity area,,42.0596404099222,-87.7698299662479,yes,"Harms Rd, south of Old Orchard Rd","Cook County, IL 60077",,96,North Branch,,Harms Woods-Central,George F. Nixon Forest,,0,0,0,0,0,0,0,0,0,1,1,0,0,1,0,0,0,1,0,0,0,0,0,0,1,0,0,0,0,0,0,0,0,0,0,0,0,0,0,1,1,0,1,0,0,0,0,1,0,0,0,0,1,0,0,0,0,0,0,0,0,0,0,0,,0101000020E6100000FF20E8E444F155C0DE12054CA2074540
273,activity area,,42.0574509110928,-87.769401809467,yes,"Harms Rd, north of Golf Rd","Cook County, IL 60077",,98,North Branch,,Harms Woods-South,George F. Nixon Forest,,0,0,0,0,0,0,0,0,0,1,1,0,0,1,0,0,0,1,0,0,0,0,0,0,1,0,0,0,0,0,0,0,0,0,0,0,0,0,0,1,1,0,0,0,0,0,0,1,0,0,0,0,1,0,0,0,0,0,0,0,0,0,0,0,,0101000020E6100000344916E13DF155C0DE232C8D5A074540
274,activity area,yes,42.0540985289108,-87.764427220155,yes,9453 Harms Rd,"Morton Grove, IL 60053",,238,North Branch,,Glen Grove Equestrian Center,,,0,0,0,0,0,0,0,0,0,0,0,0,0,0,0,0,0,0,1,0,0,0,0,0,0,0,0,0,0,0,0,0,0,0,0,0,0,0,0,0,0,0,0,0,0,0,0,0,0,0,0,0,0,0,0,0,0,0,0,0,0,0,0,0,,0101000020E610000036AF2560ECF055C0EF385AB3EC064540
275,activity area,,42.0555643937833,-87.7620691444572,yes,"Woods Dr, north of Golf Rd","Skokie, IL 60077",,237,North Branch,,Calvin R. Sutker Grove,George F. Nixon Forest,Harms Flatwoods Nature Preserve,0,0,0,0,0,0,0,0,0,1,1,0,0,1,0,0,0,1,0,0,0,0,0,0,1,0,0,0,0,0,0,0,0,0,0,0,0,0,0,0,0,0,0,0,0,0,0,0,0,0,0,0,0,0,0,0,0,0,0,0,0,0,0,0,,0101000020E6100000002FA9BDC5F055C0F810EBBB1C074540
276,golf course,,42.0540237158687,-87.7790764934414,yes,6145 Golf Rd,"Morton Grove, IL 60053",,239,North Branch,,Chick Evans Golf Course,,,0,0,0,0,0,0,0,0,0,0,0,0,0,0,0,0,0,0,0,0,0,0,0,1,0,0,0,0,0,0,0,0,0,0,0,0,0,0,0,0,0,0,0,0,0,0,0,0,0,0,0,0,0,0,0,0,0,0,0,0,0,0,0,0,,0101000020E6100000711AA763DCF155C01D70C63FEA064540
277,activity area,,42.0431798236324,-87.7854703159286,yes,"W Dempster St, east of Lehigh Ave","Morton Grove, IL 60053",,293,North Branch,,Linne Woods,,,0,0,0,0,0,0,0,1,0,1,1,0,0,1,0,0,0,1,1,0,0,0,0,0,1,0,0,0,0,0,0,0,0,0,0,0,0,0,0,0,1,0,1,0,0,0,0,1,0,0,1,0,0,1,1,0,0,0,0,0,0,0,0,0,,0101000020E610000016B9492545F255C00A2E9DEA86054540
278,activity area,,42.0424283847892,-87.7912467881798,yes,"Lehigh Ave, north of W Dempster Ave","Morton Grove, IL 60053",,2,North Branch,,Wayside Woods,,,0,0,0,0,0,0,0,0,0,0,0,0,0,0,0,0,0,1,0,0,0,0,0,0,0,0,0,0,0,0,0,0,1,0,0,0,0,0,0,0,1,0,0,0,0,0,0,1,0,0,0,0,1,0,0,0,0,0,0,0,0,0,0,0,,0101000020E6100000039391C9A3F255C02B8D164B6E054540
279,activity area,,42.0339879054924,-87.7907158709224,yes,"Lincoln Ave, south of W Dempster St","Morton Grove, IL 60053",,1,North Branch,,St. Paul Woods,Frank Bobrytzke,,1,0,0,0,0,0,0,0,0,0,0,0,0,0,0,0,0,1,0,0,0,0,0,0,0,0,1,0,0,0,0,0,0,0,0,0,0,0,0,0,1,0,0,0,0,0,0,1,0,0,0,0,1,1,1,0,0,0,0,1,0,0,0,0,,0101000020E61000008C82BD169BF255C0C94737B759044540
280,activity area,,42.0279997101757,-87.7933246412127,yes,"N Caldwell Ave, north of Oakton St","Morton Grove, IL 60053",,295,North Branch,,Miami Woods,Frank Bobrytzke,,0,0,0,1,0,0,0,0,0,1,1,0,0,1,0,0,0,1,0,0,0,0,0,0,1,0,0,0,0,0,0,0,0,0,0,0,0,0,0,0,1,0,1,0,0,0,0,1,0,0,0,0,1,0,0,0,0,0,0,0,0,0,0,0,,0101000020E6100000A147B7D4C5F255C0BDC1977E95034540
282,activity area,,42.0055128772443,-87.787642659723,yes,"W Harts Rd, southwest of W Touhy Ave","Niles, IL 60714",,142,North Branch,,Bunker Hill,Clayton F. Smith,Oxbow Prairie,1,0,0,1,0,0,0,0,0,1,1,0,0,1,0,0,0,1,0,0,0,0,0,0,1,0,0,0,0,0,0,0,0,0,0,0,0,0,0,0,1,0,1,0,0,0,0,1,0,0,1,1,1,1,1,0,0,0,0,1,0,0,0,0,,0101000020E6100000751CC2BC68F255C0C1BD5DA5B4004540
283,activity area,yes,41.9985620366013,-87.7852861838492,yes,W Devon Ave & N Nagle Ave,"Chicago, IL 60646",,119,North Branch,,Caldwell Woods,Clayton F. Smith,,0,0,0,0,0,0,0,0,0,1,1,0,0,1,0,0,0,0,0,0,0,0,0,0,1,0,0,0,0,0,0,0,1,0,0,0,0,0,1,1,1,0,1,1,0,0,0,1,0,1,1,1,0,1,1,0,0,0,0,0,0,0,0,0,,0101000020E61000008168FB2042F255C0DA1E7DE1D0FF4440
284,aquatic center,yes,41.9978882667258,-87.7828680645201,yes,6200 W Devon Ave,"Chicago, IL 60646",,241,North Branch,,Whealan Pool Aquatic Center,Clayton F. Smith,,0,0,0,0,0,0,0,0,0,0,0,0,0,0,0,0,0,0,0,0,0,0,0,0,0,0,0,0,0,0,0,0,0,1,0,0,0,0,0,0,0,0,0,0,0,1,0,0,0,1,1,1,0,0,0,0,0,0,0,0,0,0,0,0,,0101000020E6100000938CA7821AF255C096547FCDBAFF4440
286,golf course,,41.9901761840252,-87.7596773224011,yes,6150 Caldwell Ave,"Chicago, IL 60646",,243,North Branch,,Billy Caldwell Golf Course,,,0,0,0,0,0,0,0,0,0,0,0,0,0,0,0,0,0,0,0,0,0,0,0,1,0,0,0,0,0,0,0,0,0,0,0,0,0,0,0,0,0,0,0,0,0,0,0,0,0,0,0,0,0,0,0,0,0,0,0,0,0,0,0,0,,0101000020E610000071CEA18D9EF055C0B7D6DB17BEFE4440
287,activity area,,41.9918752576627,-87.7648014527619,yes,"Central Ave, south of N Lehigh Ave","Chicago, IL 60646",,120,North Branch,,Edgebrook Woods,Willow Road Woods,Sam Stewart Shelter,0,0,0,0,0,0,0,0,0,0,0,0,0,0,0,0,0,1,0,0,0,0,0,0,0,0,0,0,0,0,0,0,0,0,0,0,0,0,0,0,1,0,0,0,0,0,0,0,0,0,0,0,1,0,1,0,0,0,0,0,0,0,0,0,,0101000020E6100000E9E2CA81F2F055C028B1B8C4F5FE4440
288,activity area,,41.9815003035327,-87.7558766594084,yes,"N Forest Glen Ave, north of N Elston Ave","Chicago, IL 60630",,122,North Branch,,Forest Glen Woods,,,1,0,0,0,0,0,0,0,0,1,1,0,0,1,0,0,0,0,0,0,0,0,0,0,1,0,0,0,0,0,0,0,0,0,0,0,0,0,0,0,1,0,0,0,0,0,0,1,0,0,1,0,1,1,1,0,0,0,0,1,0,0,0,0,,0101000020E610000000FE7E4860F055C05D594CCDA1FD4440
289,activity area,,41.7695573676384,-87.8665835577705,yes,"67th St, east of S La Grange Rd","Hodgkins, IL 60525",,80,Salt Creek,,Theodore Stone Forest,Ted Stone Forest,,0,0,0,0,0,0,0,0,0,0,0,0,0,0,0,0,0,1,0,0,0,0,0,0,0,0,0,0,0,0,0,0,1,0,0,0,0,0,0,1,1,0,0,0,0,0,0,1,0,0,0,0,1,0,0,0,0,0,0,0,0,0,0,0,,0101000020E61000000AF8E11A76F755C0E83417DB80E24440
290,activity area,,41.7683244161522,-87.8688827332963,yes,"S LaGrange Rd, north of 67th St","Countryside, IL 60525",,81,Salt Creek,,Sundown Meadow,Ida Lake,,0,0,0,0,0,0,0,0,0,1,1,0,0,1,0,0,0,1,0,0,1,1,0,0,1,0,0,0,1,0,0,0,0,0,0,0,0,0,0,1,1,0,0,0,0,0,0,1,0,0,0,0,1,1,0,0,0,0,0,0,0,0,0,0,,0101000020E610000043E452C69BF755C01C0D587458E24440
291,activity area,,41.7396726342183,-87.8484401598881,yes,"S Kean Ave, north of W 87th St","Cook County, IL 60480",,174,Palos,Buffalo #1,Buffalo Woods Family Picnic Area,Palos,,0,0,0,0,0,0,0,0,0,0,0,0,0,0,0,0,0,0,0,0,0,0,0,0,0,0,0,0,0,0,0,0,0,0,0,0,0,0,0,0,0,0,0,0,0,0,0,0,0,0,0,0,0,0,0,0,0,0,0,0,0,0,0,0,,0101000020E610000046D5F4D74CF655C0B2DCC697ADDE4440
292,activity area,,41.7381124964692,-87.8491747148588,yes,"S Kean Ave, north of W 87th St","Cook County, IL 60480",,63,Palos,Buffalo #2,Buffalo Woods-North,Palos,,0,0,0,0,0,0,0,0,0,1,1,0,0,1,0,0,0,0,0,0,0,0,0,0,1,0,0,0,0,0,0,0,0,0,0,0,0,0,0,0,1,0,0,0,0,0,0,0,0,0,0,0,1,0,0,0,0,0,0,0,0,0,0,0,,0101000020E6100000283AE7E058F655C0A98E64787ADE4440
293,activity area,,41.7362014764295,-87.8496783422963,yes,"S Kean Ave, north of W 87th St","Cook County, IL 60480",,64,Palos,Buffalo #3,Buffalo Woods-Central,Palos,,0,0,0,0,0,0,0,0,0,1,1,0,0,1,0,0,0,0,0,0,0,0,0,0,1,0,0,0,0,0,0,0,1,0,1,0,0,0,0,0,1,1,0,0,0,0,0,0,0,0,0,0,1,0,0,0,0,0,0,0,0,0,0,0,,0101000020E61000000E12452161F655C0694598D93BDE4440
294,activity area,,41.7335443585481,-87.8488160009683,yes,"W 87th St, west of S Kean Ave","Cook County, IL 60480",,65,Palos,Buffalo #4,Buffalo Woods-South,Palos,,0,0,0,0,0,0,0,0,0,1,1,0,0,1,0,0,0,0,0,0,0,0,0,0,1,0,0,0,0,0,0,0,0,0,0,0,0,0,0,0,1,0,0,0,0,0,0,0,0,0,0,0,1,0,0,0,0,0,0,0,0,0,0,0,,0101000020E6100000BD1E590053F655C0E21113C8E4DD4440
295,activity area,,41.726616018507,-87.8529737668643,yes,"96th Ave, south of W 87th St","Cook County, IL 60480",,74,Palos,,Spears Woods,Palos,Hogwash Slough,0,0,0,0,0,0,0,0,0,1,1,0,0,1,0,0,0,1,0,0,0,0,0,0,1,0,0,0,0,0,0,0,0,0,0,0,0,0,0,1,0,0,0,0,0,0,0,1,0,0,0,0,1,0,0,0,0,0,0,0,0,0,0,0,,0101000020E6100000CB41481F97F655C0B31FF2C001DD4440
296,activity area,,41.7279399632104,-87.8730851816077,yes,"Willow Springs Rd, southeast of S Archer Ave","Cook County, IL 60480",,76,Palos,,Willow Springs Woods,Palos,,0,0,0,0,0,0,0,0,0,1,1,0,0,1,0,0,0,1,0,0,0,0,0,0,1,0,0,0,0,0,0,0,0,0,0,0,0,0,0,0,1,0,0,0,0,0,0,1,0,0,0,0,1,0,0,0,0,0,0,0,0,0,0,0,,0101000020E61000002368ABA0E0F755C0A7B9FF222DDD4440
297,activity area,yes,41.7333126271734,-87.8803606216548,yes,"Willow Blvd, north of Archer Ave","Willow Springs, IL 60480",,175,Palos,,John Husar I&M Canal Bicycle Trail Parking Lot,Palos,,0,1,0,0,0,0,0,0,0,1,1,0,0,1,0,0,0,0,0,0,0,0,0,0,1,0,0,0,0,0,0,0,0,0,0,0,0,0,0,0,0,0,1,0,0,0,0,0,0,1,1,0,0,0,0,0,0,0,0,0,0,0,0,0,,0101000020E610000065AC13D457F855C05FBB2B30DDDD4440
298,activity area,,41.7221746623396,-87.850046771483,yes,"96th Ave, north of W 95th St","Cook County, IL 60480",,252,Palos,,Hidden Pond Woods-West,Palos,,0,0,0,0,0,0,0,0,0,1,1,0,0,1,0,0,0,1,1,0,0,0,0,0,1,0,0,0,0,0,0,0,0,0,1,0,0,0,0,0,0,1,0,0,0,0,0,1,0,0,0,0,0,0,0,0,0,0,0,0,0,0,0,0,,0101000020E6100000BDE5922A67F655C02961263870DC4440
299,activity area,,41.7160829681673,-87.8634634737676,yes,"95th St, east of Flavin Rd/Willow Springs Rd","Cook County, IL 60480",,67,Palos,,Country Lane Woods,Palos,Cranberry Slough Nature Preserve,0,0,0,1,0,0,0,0,0,1,1,0,0,1,0,0,0,1,1,0,0,0,0,0,1,0,0,0,0,0,0,0,0,0,0,0,0,0,0,1,1,0,0,0,0,0,0,1,0,0,0,0,1,1,0,0,0,0,0,0,0,0,0,0,,0101000020E6100000D2474DFC42F755C077C1509BA8DB4440
300,activity area,,41.7093908550081,-87.8517825897335,yes,"96th Ave, south of W 95th St","Cook County, IL 60480",,253,Palos,,Belly Deep Slough,Palos,,0,0,0,0,0,0,0,0,0,0,0,0,0,0,0,0,0,0,0,0,1,0,0,0,0,0,0,0,0,0,0,0,0,0,0,0,0,0,0,0,0,0,0,0,0,0,0,0,0,0,0,0,0,0,0,0,0,0,0,0,0,0,0,0,,0101000020E6100000458D1F9B83F655C0072DCD51CDDA4440
301,activity area,,41.7037039276171,-87.8549072084018,yes,"96th Ave, north of 107th St","Cook County, IL 60480",,75,Palos,,White Oak Woods,Palos,,0,0,0,0,0,0,0,0,0,0,0,0,0,0,0,0,0,0,0,0,0,0,0,0,0,0,0,0,0,0,0,0,0,0,0,0,0,0,0,1,0,0,0,0,0,0,0,0,0,0,0,0,0,0,0,0,0,0,0,0,0,0,0,0,,0101000020E6100000D44CB9CCB6F655C0AC9865F812DA4440
302,activity area,,41.70038260807,-87.8508787299965,yes,"S La Grange Rd, north of 107th St","Cook County, IL 60480",,69,Palos,,Crooked Creek Woods,Palos,,0,0,0,0,0,0,0,0,0,0,0,0,0,0,0,0,0,0,0,0,0,0,0,0,0,0,0,0,0,0,0,0,0,0,0,0,0,0,0,1,1,0,0,0,0,0,0,0,0,0,0,0,1,1,0,0,0,0,0,0,0,0,0,0,,0101000020E6100000988C0FCC74F655C0E02D2623A6D94440
303,activity area,,41.6944142736088,-87.8592549226163,yes,"107th St, west of LaGrange Rd","Cook County, IL 60480",,254,Palos,Airplane/Snowmobile Field,Morrill Meadow,Palos,,0,0,0,0,0,0,0,0,0,0,0,0,0,0,0,0,0,0,0,0,0,0,0,0,0,0,0,1,0,0,0,0,0,0,0,0,0,0,0,0,0,0,0,0,1,0,0,0,0,0,0,0,1,1,1,0,0,0,0,0,0,0,0,0,,0101000020E610000019E45B08FEF655C098842191E2D84440
304,activity area,,41.6940961708834,-87.8654216213523,yes,"107th St, west of 96th Ave","Cook County, IL 60480",,255,Palos,,Dan McMahon Woods,Palos,McMahon Woods and Fen Nature Preserve,0,0,0,0,0,0,0,0,0,1,1,0,0,1,0,0,0,1,1,0,0,0,0,0,1,0,0,0,0,0,0,0,0,0,0,0,0,0,0,0,0,0,0,0,0,0,0,1,0,0,0,0,0,0,0,0,0,0,0,0,0,0,0,0,,0101000020E6100000663D5E1163F755C0E31DB124D8D84440
305,activity area,,41.5922955339364,-87.7385941714513,yes,"167th St, west of Cicero Ave","Oak Forest, IL 60452",,282,Tinley Creek,Twin Lakes,Midlothian Reservoir,,,0,0,0,0,0,0,0,0,0,1,1,0,0,1,0,0,0,0,0,0,1,0,0,0,1,0,0,0,1,0,0,0,0,0,0,0,0,0,0,0,0,0,1,0,0,0,0,0,0,0,0,0,1,0,0,0,0,0,0,0,0,0,0,0,,0101000020E61000008DD97C2045EF55C0BEEA0D57D0CB4440
306,activity area,,41.6102983743372,-87.7213583545987,yes,"Crawford Ave, north of W 159th St","Cook County, IL 60428",,83,Tinley Creek,,Midlothian Meadows,,,1,0,0,0,0,0,0,0,0,1,1,0,0,1,0,0,1,0,0,0,0,0,0,0,1,0,1,0,0,0,0,0,0,0,0,0,0,0,0,0,1,0,1,0,0,0,0,0,0,0,0,0,1,1,1,0,0,0,0,1,0,0,0,0,,0101000020E6100000AA6C3BBC2AEE55C08C4BD3411ECE4440
307,activity area,,41.5493483564578,-87.7502665004989,yes,"Central Ave, north of Flossmoor Rd","Cook County, IL 60477",,284,Tinley Creek,,Bobolink Family Picnic Area,South Green Belt Preserves,Bobolink Meadow Land & Water Reserve,0,0,0,0,0,0,0,0,0,0,0,0,0,0,0,0,0,1,0,0,0,0,0,0,0,0,0,0,0,0,0,0,0,0,0,0,0,0,0,0,0,0,0,0,0,0,0,0,0,0,0,0,0,0,0,0,0,0,0,0,0,0,0,0,,0101000020E610000052BBC85D04F055C0C88D040C51C64440
308,activity area,,41.5367887384284,-87.7376719791108,yes,"Cicero Ave, south Flossmoor Rd","Cook County, IL 60478",,286,Tinley Creek,,Tinley Creek Model Airplane Flying Field,South Green Belt Preserves,,0,0,0,0,0,0,0,0,0,0,0,0,0,0,0,0,1,0,0,0,0,0,0,0,0,0,0,1,0,0,0,0,0,0,0,0,0,0,0,0,0,0,0,0,0,0,0,0,0,0,0,0,1,0,1,0,0,0,0,0,0,0,0,0,,0101000020E6100000385D880436EF55C0E7354E7EB5C44440
309,activity area,,41.5285137711588,-87.7191628657529,yes,"Vollmer Rd, west of Crawford Ave","Cook County, IL 60478",,114,Tinley Creek,,Vollmer Road Grove,South Green Belt Preserves,,1,0,0,0,0,0,0,0,0,1,1,0,0,1,0,0,0,0,0,0,0,0,0,0,1,0,0,0,0,0,0,0,0,0,0,0,0,0,0,0,1,0,1,0,0,0,0,0,0,0,0,0,1,1,1,0,0,0,0,1,0,0,0,0,,0101000020E6100000003AAFC306EE55C0B44FD956A6C34440
310,activity area,yes,41.5420255245424,-87.720044273656,yes,"Flossmoor Rd, west of Crawford Ave","Cook County, IL 60478",,287,Tinley Creek,,Flossmoor Road Bicycle Lot,South Green Belt Preserves,,0,1,0,0,0,0,0,0,0,1,1,0,0,1,0,0,0,0,0,0,0,0,0,0,1,0,0,0,0,0,0,0,0,0,0,0,0,0,0,0,0,0,0,0,0,0,0,0,0,0,0,0,1,0,0,0,0,0,0,0,0,0,0,0,,0101000020E610000090C1933415EE55C029C2A61761C54440
311,activity area,,41.7434783850339,-87.6804028881989,yes,"W 83rd St, east of S Western Ave","Chicago, IL 60620",,134,Calumet,Dan Ryan 15 & 16,Dan Ryan Woods-North,,,0,0,0,0,0,0,0,0,0,1,1,0,0,1,0,0,0,0,0,0,0,0,0,0,1,0,0,0,0,0,0,0,0,0,0,0,0,0,0,0,1,0,1,0,0,0,0,1,0,0,1,0,0,0,0,0,0,0,0,0,0,0,0,0,,0101000020E6100000C43A8EB88BEB55C0CE81BA4C2ADF4440
312,activity area,,41.7363865597618,-87.6762222823147,yes,"W 87th St, west of S Damen Ave","Chicago, IL 60620",,132,Calumet,,Dan Ryan Woods-East,,,0,0,0,0,0,0,0,0,0,0,0,0,0,0,0,0,0,0,0,0,0,0,0,0,0,0,0,0,0,0,0,0,0,0,0,0,0,0,0,1,0,0,0,0,0,0,0,1,0,1,1,0,1,1,0,0,0,0,0,0,0,0,0,0,,0101000020E610000090D7D23947EB55C067B32FEA41DE4440
313,activity area,,41.7376618343069,-87.681137067012,yes,S Western Ave & W 87th St,"Chicago, IL 60620",,137,Calumet,Upstairs,Dan Ryan Woods Visitor Center,,,0,0,0,0,0,0,0,0,0,0,0,0,0,0,0,0,0,0,0,1,0,0,0,0,0,1,0,0,0,0,0,1,0,0,0,0,0,1,1,1,0,0,0,1,0,0,0,1,0,1,1,1,0,0,0,0,0,0,0,0,0,0,0,0,,0101000020E610000038BAECBF97EB55C0DBEEF6B36BDE4440
314,activity area,,41.7287839027294,-87.6676634793654,yes,W 91st St &amp; S Hermitage Ave,"Chicago, IL 60620",,138,Calumet,Downstairs,Dan Ryan Woods-91st Street,,,0,0,0,0,0,0,0,0,0,0,0,0,0,0,0,0,0,0,0,0,0,0,0,0,0,0,0,0,0,0,0,0,0,0,0,0,0,0,0,1,0,0,0,0,0,0,0,1,0,0,0,0,1,0,0,0,0,0,0,0,0,0,0,0,,0101000020E6100000E4269AFFBAEA55C0D20A7ACA48DD4440
315,activity area,,41.6896544838695,-87.5277253266566,yes,E 112th St &amp; S Ave E,"Chicago, IL 60617",,139,Calumet,,Eggers Grove,,,0,0,0,1,0,0,0,0,0,1,1,0,0,1,0,0,0,1,0,0,0,0,0,0,1,0,0,0,0,0,0,0,0,0,0,0,0,0,0,1,1,0,1,0,0,0,0,1,0,0,1,1,1,1,1,0,0,0,0,0,0,0,0,0,,0101000020E6100000B0D07240C6E155C07FE21E9946D84440
316,activity area,,41.6981493582912,-87.869489100447,yes,"107th St, east of S Willow Springs Rd/Flavin Rd","Cook County, IL 60480",,72,Palos,,Pioneer Woods,Palos,,0,0,0,0,0,0,0,0,0,1,1,0,0,1,0,0,0,1,0,0,0,0,0,0,1,0,1,0,0,0,0,0,0,0,0,0,0,0,0,1,1,0,0,1,0,0,0,1,0,0,0,0,1,1,0,0,0,0,0,0,0,0,0,0,,0101000020E61000007BA99CB5A5F755C011CC4AF55CD94440
317,activity area,,42.1333326053107,-87.899549404036,yes,"Dundee Rd, east of Milwaukee Ave","Wheeling, IL 60090",,159,Indian Boundary,,Dam No. 1 Woods-East,Dam #1,Dam Number 1,0,0,0,0,0,0,0,0,0,1,1,0,0,1,0,0,0,0,1,0,0,0,0,0,1,0,0,0,0,0,0,0,0,0,0,0,0,0,0,0,1,0,0,0,0,0,0,0,0,0,0,0,1,1,0,0,0,0,0,0,0,0,0,0,,0101000020E610000022DEA93792F955C0E2A7F50A11114540
319,nature center,yes,41.7089674264739,-87.8771527225816,yes,9800 Willow Springs Rd,"Willow Springs, IL 60480",,190,Palos,,Little Red Schoolhouse Nature Center,Palos,Longjohn Slough,0,0,0,1,0,0,0,0,0,0,0,0,0,0,0,0,0,1,0,0,0,0,0,0,1,0,0,0,0,1,0,1,0,1,1,0,0,0,0,0,0,0,0,0,0,0,0,1,0,1,1,1,0,0,0,0,0,0,0,0,0,0,0,0,,0101000020E610000078452C4523F855C08E52D371BFDA4440
320,activity area,,41.7035559728427,-87.8965693928193,yes,"Wolf Rd, south of 95th St","Cook County, IL 60480",,77,Palos,,Wolf Road Woods,Palos,,0,0,0,0,0,0,0,0,0,1,1,0,0,1,0,0,0,0,0,0,0,0,0,0,1,0,0,0,0,0,0,0,0,0,1,0,0,0,0,1,1,0,0,0,0,0,0,0,0,0,0,0,1,0,0,0,0,0,0,0,0,0,0,0,,0101000020E61000003A30976461F955C03E23431F0EDA4440
321,activity area,,41.7082132911898,-87.8992090679155,yes,"Wolf Rd, south of 95th St","Cook County, IL 60480",,73,Palos,Pulaski West,Pulaski Woods,Palos,,0,0,0,0,0,0,0,0,0,0,0,0,0,0,0,0,0,0,0,0,0,0,0,0,0,0,0,0,0,0,0,0,0,0,0,0,0,0,0,0,1,0,0,0,0,0,0,0,0,0,0,0,1,0,0,0,0,0,0,0,0,0,0,0,,0101000020E6100000A8BD30A48CF955C0AF21AEBBA6DA4440
322,activity area,,41.6971248197893,-87.8988175505694,yes,"107th St, west of S Willow Springs Rd/104th Ave","Cook County, IL 60480",,260,Palos,,Saganashkee Slough-Central,Palos,,0,0,0,0,0,0,0,0,0,0,0,0,0,0,0,0,0,0,0,0,1,1,0,0,0,0,0,0,0,0,0,0,0,0,0,0,0,0,0,0,0,0,0,0,0,0,0,0,0,0,0,0,0,0,0,0,0,0,0,0,0,0,0,0,,0101000020E61000000E310C3A86F955C01D1ED7623BD94440
323,activity area,,41.6897510714639,-87.8763267927038,yes,"S Willow Springs Rd/104th Ave, north of Calumet Sag Rd/Rte 83","Cook County, IL 60480",,256,Palos,Sag Dam,Saganashkee Slough-East,Palos,,1,0,0,0,0,0,0,0,0,1,1,0,0,1,0,0,0,0,0,0,1,1,0,0,1,0,0,0,0,0,0,0,0,0,0,0,0,0,0,0,0,0,0,0,0,0,0,0,0,0,0,0,0,0,0,0,0,0,0,0,0,0,1,0,,0101000020E61000005BD1F8BC15F855C0182A5BC349D84440
324,activity area,,41.6965185903912,-87.9057957346235,yes,"107th St, west of S Willow Springs Rd/104th Ave","Cook County, IL 60480",,261,Palos,,Saganashkee Slough Boat Launch,Palos,,1,0,0,0,1,0,0,0,0,0,0,0,0,0,0,0,0,0,0,0,1,1,0,0,0,0,0,0,0,0,0,0,0,0,0,0,0,0,0,0,0,0,0,0,0,0,0,0,0,0,0,0,1,1,0,0,0,0,0,0,0,1,0,0,,0101000020E61000001C44AC8EF8F955C0FD656B8527D94440
325,activity area,,41.7108447407821,-87.8982229756888,yes,"Wolf Rd, south of 95th St","Cook County, IL 60480",,178,Palos,,Bullfrog Lake,,,0,0,0,0,0,0,0,0,0,1,1,0,0,1,0,0,0,0,0,0,1,1,0,0,1,0,0,0,0,0,0,0,0,0,0,0,0,0,0,0,0,0,0,0,0,0,0,0,0,0,0,0,1,0,0,0,0,0,0,0,0,0,0,0,,0101000020E61000005746387C7CF955C0001AE1F5FCDA4440
326,activity area,,41.7092809279629,-87.9117194734348,yes,"S Archer Ave, northeast of 107th St","Cook County, IL 60480",,155,Palos,,Red Gate Woods,Palos,,0,0,0,0,0,0,0,0,0,1,1,0,0,1,0,0,0,1,0,0,0,0,0,0,1,0,0,0,0,0,0,0,0,0,0,0,0,0,0,1,0,0,0,0,0,0,0,0,0,0,0,0,1,1,0,0,0,0,0,0,0,0,0,0,,0101000020E6100000D661A29C59FA55C0D0A4AAB7C9DA4440
327,activity area,,41.7133199401121,-87.9116200872062,yes,"S Archer Ave, northeast of 107th St","Cook County, IL 60480",,259,Palos,,Henry De Tonty Woods,Palos,,0,0,0,0,0,0,0,0,0,1,1,0,0,1,0,0,0,0,0,0,0,0,0,0,1,0,0,0,0,0,0,0,0,0,0,0,0,0,0,0,0,0,1,0,0,0,0,0,0,0,0,0,0,0,0,0,0,0,0,0,0,0,0,0,,0101000020E6100000583BC7FB57FA55C02E305B114EDB4440
328,activity area,,41.7084014700751,-87.8943652309316,yes,"Wolf Rd, south of 95th St","Cook County, IL 60480",,176,Palos,,Pulaski Woods-South,Palos,,0,0,0,0,0,0,0,0,0,1,1,0,0,1,0,0,0,0,0,0,0,0,0,0,1,0,0,0,0,0,0,0,0,0,0,0,0,0,0,0,0,0,0,0,0,0,0,0,0,0,0,0,0,0,0,0,0,0,0,0,0,0,0,0,,0101000020E6100000F461AA473DF955C0ED353DE6ACDA4440
329,activity area,,41.709947873965,-87.8945197461508,yes,"Wolf Rd, south of 95th St","Cook County, IL 60480",,179,Palos,,Pulaski Woods-East,Palos,,0,0,0,0,0,0,0,0,0,0,0,0,0,0,0,0,0,0,0,0,0,0,0,0,0,0,0,0,0,0,0,0,0,0,0,0,0,0,0,0,0,0,0,0,0,0,0,0,0,0,0,0,0,0,0,0,0,0,0,0,0,0,0,0,,0101000020E610000002D6BFCF3FF955C005476A92DFDA4440
330,activity area,,41.715946682716,-87.8922922339976,yes,"95th St, southeast of S Archer Ave","Cook County, IL 60480",,258,Palos,,Maple Lake Overlook,Palos,,0,0,0,0,0,0,0,0,0,0,0,0,0,0,0,0,0,1,0,0,1,1,0,0,0,0,0,0,0,0,0,0,0,0,0,0,1,0,0,0,0,0,0,0,0,0,0,0,0,0,0,0,0,0,0,0,0,0,0,0,0,0,0,0,,0101000020E6100000A5DFE2501BF955C041FA1124A4DB4440
331,activity area,yes,41.7155325651301,-87.8842461677674,yes,"95th St, west of Willow Springs Rd/Flavin Rd","Cook County, IL 60480",,71,Palos,,Maple Lake-East - Mountain Bike Staging Area,Palos,Mountain Bike Staging Area,0,1,0,0,0,0,0,0,0,1,1,0,0,1,0,0,0,0,0,0,1,1,0,0,1,0,0,0,0,0,0,0,0,0,0,0,0,0,0,1,0,0,0,0,0,0,0,0,0,0,0,0,1,1,1,0,0,0,0,0,0,0,0,0,,0101000020E6100000260B3D7D97F855C0D23B339296DB4440
332,activity area,,41.6810084712761,-88.0281641389724,yes,"Bluff Rd, east of I-355","Cook County, IL 60439",,154,Palos,,Black Partridge Woods,Goose Lake,Black Partridge Woods Nature Preserve,0,0,0,0,0,0,0,0,0,0,0,0,0,0,0,0,0,1,0,0,0,0,0,0,0,0,0,0,0,0,0,0,1,1,1,0,0,0,0,0,0,0,0,0,0,0,0,1,0,0,0,0,1,0,0,0,0,0,0,0,0,0,0,0,,0101000020E61000009AF3F570CD0156C05A381C492BD74440
333,activity area,,41.6911388811017,-87.932471004962,yes,Archer Ave &amp; Old Archer Ave,"Cook County, IL 60439",,262,Palos,,Sag Quarries,Palos,,0,0,0,0,0,0,0,0,0,1,1,0,0,1,0,0,0,0,0,0,1,1,0,0,1,0,0,0,0,0,0,0,0,0,0,0,0,0,0,0,0,0,0,0,0,0,0,0,0,0,0,0,1,0,0,0,0,0,0,0,0,0,0,0,,0101000020E6100000EDB1DD9AADFB55C00BAB253D77D84440
334,nature center,yes,41.6892667702031,-87.92571426968,yes,12545 West 111th St,"Lemont, IL 60439",,267,Palos,Camp Sagawau,Sagawau Environmental Learning Center,Palos,Sagawau Canyon Nature Preserve,0,0,0,1,0,0,0,0,0,1,0,0,0,0,0,0,0,1,0,0,0,0,0,0,1,0,0,0,0,1,0,1,0,1,0,0,0,0,0,0,0,0,0,0,0,0,0,1,0,1,1,1,0,0,0,0,0,0,0,0,0,0,0,0,,0101000020E6100000D66D10E73EFB55C04620BEE439D84440
335,activity area,,42.124673338001,-87.8964555068817,yes,E Hintz Rd &amp; Milwaukee Ave,"Wheeling, IL 60090",,325,Indian Boundary,,Dam No. 1 Woods-West,Dam #1,Dam Number 2,0,0,0,0,0,0,0,0,0,0,0,0,0,0,0,0,0,0,0,0,0,0,0,0,0,0,0,0,0,0,0,0,0,0,0,0,0,0,0,0,0,0,0,0,0,0,0,0,0,0,0,0,0,0,0,0,0,0,0,0,0,0,0,0,,0101000020E61000000F18EB865FF955C05EB4C24BF50F4540
336,activity area,,42.1180183922337,-87.8941782218279,yes,"Milwaukee Ave, south of E Hintz Rd","Cook County, IL 60090",,217,Indian Boundary,,Massasauga Family Picnic Area,,,0,0,0,0,0,0,0,0,0,0,0,0,0,0,0,0,0,0,0,0,0,0,0,0,0,0,0,0,0,0,0,0,0,0,0,0,0,0,0,0,0,0,0,0,0,0,0,0,0,0,0,0,0,0,0,0,0,0,0,0,0,0,0,0,,0101000020E6100000F5E24A373AF955C0A67D073A1B0F4540
337,activity area,,42.1004159121073,-87.8848414425994,yes,Milwaukee Ave &amp; Winkleman Rd,"Cook County, IL 60062",,161,Indian Boundary,,Allison Woods,,,1,0,0,0,0,0,0,1,0,1,1,0,0,1,0,0,0,0,0,0,0,0,0,0,1,0,0,0,0,0,0,0,0,0,0,0,0,0,0,0,1,0,0,0,0,0,0,0,0,0,0,0,1,1,1,0,0,0,0,1,0,0,0,0,,0101000020E61000000687003EA1F855C05441B96DDA0C4540
338,nature center,yes,42.0950110492162,-87.8848452803943,yes,3120 Milwaukee Ave,"Northbrook, IL 60062",,195,Indian Boundary,,River Trail Nature Center,,,0,0,0,1,0,0,0,0,0,0,0,0,0,0,0,0,0,1,0,0,0,0,0,0,1,0,0,0,0,1,0,1,0,1,0,0,0,0,0,0,0,0,0,0,0,0,0,1,0,1,1,1,0,0,0,0,0,0,0,0,0,0,0,0,,0101000020E61000000F54194EA1F855C0AF937252290C4540
339,activity area,,42.0893008779797,-87.8840091744789,yes,"W Lake Ave/E Eucilid Ave, east of N Des Plaines River Rd","Cook County, IL 60062",,162,Indian Boundary,,Lake Avenue Woods-East,,,0,0,0,1,0,0,0,0,0,1,1,0,0,1,0,0,0,0,0,0,0,0,0,0,1,0,0,0,0,0,0,0,0,0,0,0,0,0,0,0,1,0,0,0,0,0,0,0,0,0,0,0,1,0,1,0,0,0,0,0,0,0,0,0,,0101000020E61000000A70379B93F855C01D380F366E0B4540
340,activity area,,42.0886793575426,-87.8908761566271,yes,"N Des Plaines River Rd, north of W Lake Ave/E Euclid Ave","Cook County, IL 60056",,13,Indian Boundary,,Lake Avenue Woods-West,,,0,0,0,0,0,0,0,0,0,0,0,0,0,0,0,0,0,0,0,0,0,0,0,0,0,0,0,0,0,0,0,0,0,0,0,0,0,0,0,0,1,0,0,0,0,0,0,0,0,0,0,0,1,1,1,0,0,0,0,0,0,0,0,0,,0101000020E6100000FA5F6D1D04F955C0603E5ED8590B4540
341,activity area,,42.0835203753742,-87.8918400816183,yes,"E Des Plaines River Rd, south of E Euclid Ave/W Lake Ave","Cook County, IL 60056",,12,Indian Boundary,,Dam No. 2 Woods,Dam #2,Dam Number 2,0,0,0,0,0,0,0,1,0,0,0,0,0,0,0,0,0,0,0,0,0,0,0,0,0,0,0,0,0,0,0,0,0,0,0,0,0,0,0,0,1,0,0,0,0,0,0,0,0,0,0,0,1,0,0,0,0,0,0,0,0,0,0,0,,0101000020E610000001F46BE813F955C09165B0CBB00A4540
342,activity area,,42.0846061245928,-87.888217428568,yes,"W Lake Ave/E Eucilid Ave, east of N Des Plaines River Rd","Cook County, IL 60056",,15,Indian Boundary,,Camp Pine Woods,,,0,0,0,0,0,0,0,0,0,1,1,0,0,1,0,0,0,0,0,0,0,0,0,0,1,0,0,0,0,0,0,0,0,0,0,0,0,0,0,1,0,0,0,0,0,0,0,1,0,0,0,0,1,0,0,0,0,0,0,0,0,0,0,0,,0101000020E6100000F6DBE98DD8F855C0E1169D5FD40A4540
343,activity area,yes,42.0724184979931,-87.8757112419312,yes,East River Rd &amp; Central Road,"Cook County, IL 60016",,219,Indian Boundary,,Beck Lake,,,0,0,0,0,1,0,0,0,0,1,1,0,1,1,0,0,0,0,0,0,1,1,0,0,1,0,0,0,0,0,0,0,0,0,0,0,0,0,0,0,0,0,0,0,0,0,0,0,0,0,0,0,1,1,1,0,0,0,0,0,0,0,0,0,,0101000020E610000060352AA70BF855C03B42640245094540
344,golf driving range,,42.0554751065744,-87.8967359616537,yes,1150 E Golf Rd,"Des Plaines, IL 60016",,194,Indian Boundary,,Harry H. Semrow Driving Range,,,0,0,0,0,0,0,0,0,0,0,0,0,0,0,0,1,0,0,0,0,0,0,0,0,0,0,0,0,0,0,0,0,0,0,0,0,0,0,0,0,0,0,0,0,0,0,0,0,0,0,0,0,0,0,0,0,0,0,0,0,0,0,0,0,,0101000020E6100000CA1C3B1F64F955C0D03EECCE19074540
346,activity area,,42.0320951827991,-87.8676954904953,yes,"Busse Hwy, northwest of Oakton St","Park Ridge, IL 60068",,220,Indian Boundary,,Belleau Lake,,,0,0,0,0,0,0,0,0,0,0,0,0,0,0,0,0,0,0,0,0,1,1,0,0,0,0,0,0,0,0,0,0,0,0,0,0,0,0,0,0,0,0,0,0,0,0,0,0,0,0,0,0,1,0,0,0,0,0,0,0,0,0,0,0,,0101000020E61000001AA4AA5288F755C00F3FE8B11B044540
347,activity area,yes,42.1370094555283,-88.2203580523533,yes,"Bateman Rd, north of Algonquin Rd","Barrington Hills, IL 60010",,197,Northwest,,Spring Lake Equestrian Parking,,,0,0,0,0,0,0,0,0,0,1,1,0,0,1,0,0,0,1,1,0,0,0,0,0,1,0,0,0,0,0,0,0,0,0,0,0,0,0,0,0,0,0,0,0,0,0,0,1,0,0,0,0,1,0,0,0,0,0,0,0,0,0,0,0,,0101000020E61000002411A9581A0E56C0C95F9D8689114540
348,nature center,yes,42.1156336936851,-88.1635751102888,yes,3 Stover Rd,"Barrington Hills, IL 60010",,199,Northwest,,Crabtree Nature Center,Crabtree Preserve,,0,0,0,1,0,0,0,0,0,0,0,0,0,0,1,0,0,1,0,0,0,0,0,0,1,0,0,0,0,1,0,1,0,1,1,0,0,0,0,0,0,0,0,0,0,0,0,0,0,1,1,1,0,0,0,0,0,0,0,0,0,0,0,0,,0101000020E61000005248BD03780A56C03C5ABA15CD0E4540
349,activity area,,42.1469511550157,-88.1213830055851,yes,E Hillside Ave &amp; S Eastern Ave,"Barrington, IL 60010",,201,Northwest,,Baker's Lake Overlook,Baker's Lake Nature Preserve,,0,0,0,1,0,0,0,0,0,0,0,0,0,0,0,0,0,1,0,0,0,0,0,0,1,0,0,0,0,0,0,0,0,0,1,0,1,0,0,0,0,0,0,0,0,0,0,1,0,0,0,0,0,0,0,0,0,0,0,0,0,0,0,0,,0101000020E6100000CCD139BDC40756C0F274A24BCF124540
350,activity area,,42.1359810038832,-88.118519013383,yes,"E Dundee Rd, west of Glencrest Dr","Cook County, IL 60010",,202,Northwest,Bakers Lake,Baker's Lake Younghusband Prairie,,,0,0,0,1,0,0,0,0,0,0,0,0,0,0,0,0,0,0,0,0,0,0,0,0,1,0,0,0,0,0,0,0,0,0,1,0,0,0,0,0,0,0,0,0,0,0,0,1,0,0,0,0,0,0,0,0,0,0,0,0,0,0,0,0,,0101000020E6100000CB9BC5D0950756C0964856D367114540
351,activity area,,42.1353119335369,-88.0901406479088,yes,"W Dundee Rd, east of Northwest Hwy","Cook County, IL 60010",,203,Northwest,,Deer Grove-West,Jens Jensen Grasslands & Woods Land & Water Reserve,,0,0,0,0,0,0,0,0,0,1,1,0,0,1,0,0,0,1,0,0,0,0,0,0,1,0,0,0,0,0,0,0,0,0,0,0,0,0,0,0,0,0,0,0,0,0,0,1,0,0,0,0,1,1,0,0,0,0,0,0,0,0,0,0,,0101000020E6100000C0B347DDC40556C0D1A7C4E651114540
