poi_info_id,name,alt_name,alt2_name,point_type,public_access,latitude,longitude,web_poi,web_street_addr,web_muni_addr,parking_connection_id,parking_info_id,maintenance_div,maintenance_div_nickname,ada,bike_parking,bike_rental,birding,boat_ramp,boat_rental,camping,canoe,comfortstation,cross_country,cycling,disc_golf,dog_friendly,dog_leash,drinkingwater,drone,ecological,equestrian,fishing,ice_fishing,gas_powered,golf,hiking,indoor_rental,large_capacity,m_airplane,m_boat,nature_center,natureplay,no_alcohol,no_parking,overlook,pavilion,public_building,picnic_grove,shelter,skating_ice,skating_inline,sledding,snowmobile,swimming,toboggan,volunteer,zip_line,nature_preserve,no_fishing,driving_range,recreation_center,bathroom_building_winter,bathroom_building_summer,bathroom_building_ada,bathroom_portable_summer,bathroom_portable_winter,bathroom_portable_ada,web_map_geom,geom
307,Bobolink Family Picnic Area,South Green Belt Preserves,Bobolink Meadow Land & Water Reserve,activity area,,41.5493483564578,-87.7502665004989,yes,"Central Ave, north of Flossmoor Rd","Cook County, IL 60477",,284,Tinley Creek,,0,0,0,0,0,0,0,0,0,0,0,0,0,0,0,0,1,0,0,0,0,0,0,0,0,0,0,0,0,0,0,0,0,0,0,0,0,0,0,0,0,0,0,0,0,0,0,0,0,0,0,0,0,0,,0101000020E610000054BBC85D04F055C0828C040C51C64440
97,Sagawau Canyon Nature Preserve,Palos,Sagawau Environmental Learning Center,nature preserve,,41.6917372715712,-87.9224335796248,yes,,"Cook County, IL 60439",267,0,Palos,,0,0,0,1,0,0,0,0,0,0,0,0,0,0,0,0,0,0,0,0,0,0,0,0,0,0,0,0,0,0,1,0,0,0,0,0,0,0,0,0,0,0,1,0,1,1,0,0,0,0,0,0,0,0,,0101000020E61000001D4EDA2609FB55C04669CFD88AD84440
317,Dam No. 1 Woods-East,Dam #1,Dam Number 1,activity area,,42.1333326053107,-87.899549404036,yes,"Dundee Rd, east of Milwaukee Ave","Wheeling, IL 60090",,159,Indian Boundary,,0,0,0,0,0,0,0,0,0,1,1,0,0,1,0,0,0,1,0,0,0,0,1,0,0,0,0,0,0,0,0,0,0,0,0,1,0,0,0,0,0,0,0,0,0,0,0,0,0,0,0,1,1,0,,0101000020E610000025DEA93792F955C065A6F50A11114540
341,Dam No. 2 Woods,Dam #2,Dam Number 2,activity area,,42.0835203753743,-87.8918400816184,yes,"E Des Plaines River Rd, south of E Euclid Ave/W Lake Ave","Cook County, IL 60056",,12,Indian Boundary,,0,0,0,0,0,0,0,1,0,0,0,0,0,0,0,0,0,0,0,0,0,0,0,0,0,0,0,0,0,0,0,0,0,0,0,1,0,0,0,0,0,0,0,0,0,0,0,0,0,0,0,1,1,0,,0101000020E610000005F46BE813F955C01B64B0CBB00A4540
335,Dam No. 1 Woods-West,Dam #1,Dam Number 2,activity area,,42.124673338001,-87.8964555068817,yes,E Hintz Rd &amp; Milwaukee Ave,"Wheeling, IL 60090",,325,Indian Boundary,,0,0,0,0,0,0,0,0,0,0,0,0,0,0,0,0,0,0,0,0,0,0,0,0,0,0,0,0,0,0,0,0,0,0,0,0,0,0,0,0,0,0,0,0,0,0,0,0,0,0,0,0,0,0,,0101000020E61000001318EB865FF955C0E3B2C24BF50F4540
212,Dam No. 4 Woods-East,Dam #4,Dam Number 4,activity area,,41.9989636280111,-87.8583119832991,yes,"S Dee Rd, north of Devon Ave","Park Ridge, IL 60068",,4,Indian Boundary,,0,0,0,0,0,0,0,0,0,1,1,0,0,1,0,0,1,0,0,0,0,0,1,0,0,0,0,0,0,0,0,0,0,0,1,1,0,0,0,0,0,0,0,0,0,0,0,0,0,0,0,1,0,0,,0101000020E610000036826295EEF655C0C519480ADEFF4440
1096,Bobolink Meadow Land & Water Reserve,Killdeer Wetlands,Bobolink Family Picnic Area,nature preserve,,41.55104,-87.758792,yes,,Cook County IL 60477,285,0,Southwest,,0,0,0,0,0,0,0,0,0,0,0,0,0,0,0,0,1,0,0,0,0,0,0,0,0,0,0,0,0,0,1,0,0,0,0,0,0,0,0,0,0,0,1,0,1,1,0,0,0,0,0,0,0,0,,0101000020E6100000B7A18F6A7DF055C0100F240EE6C64440
261,Somme Woods,Somme Prairie Grove,Somme Prairie Nature Preserve,activity area,,42.1398415653921,-87.8239718636403,yes,"Dundee Rd, east of S Waukegan Ave","Northbrook, IL 60062",,163,North Branch,,0,0,0,0,0,0,0,0,0,1,1,0,0,1,0,0,1,0,0,0,0,0,1,0,0,0,0,0,0,1,0,0,0,0,0,1,0,0,0,0,0,0,1,0,0,0,0,0,0,0,0,1,1,0,,0101000020E610000031CA7BF4BBF455C086FD1254E6114540
111,Cherry Hill Woods,Edward M. Sneed Forest,Palos,activity area,,41.67470623347,-87.8719903566231,yes,"S Willow Springs Rd, north of McCarthy Rd","Cook County, IL 60464",,53,Palos,,0,0,0,0,0,0,0,0,0,0,0,0,0,0,0,0,1,0,0,0,0,0,0,0,0,0,0,0,0,0,0,0,0,0,0,1,0,0,0,0,0,0,0,0,0,0,0,0,0,0,0,1,0,0,,0101000020E6100000EA07A4B0CEF755C0A1941BC65CD64440
117,Swallow Cliff Woods-South,Edward M. Sneed Forest,Palos,activity area,,41.6758161324724,-87.8594651324699,yes,"S La Grange Rd, south of 119th St","Cook County, IL 60464",,55,Palos,,0,0,0,1,0,0,0,0,0,1,1,0,0,1,0,0,1,0,0,0,0,0,1,0,0,0,0,0,0,0,0,0,0,0,0,1,0,0,0,0,0,0,1,0,0,0,0,0,0,0,0,1,1,0,,0101000020E6100000A9000B7A01F755C0FB899D2481D64440
123,Swallow Cliff Woods-North,Edward M. Sneed Forest,Palos,activity area,,41.6807903011482,-87.860885665096,yes,"Calumet Sag Rd/Rte 83, west of La Grange Rd/96th Ave","Cook County, IL 60464",,60,Palos,Swallow Stairs,0,0,0,0,0,0,0,0,0,1,1,0,0,1,0,0,1,1,0,0,0,0,1,1,0,0,0,0,0,0,0,0,0,1,0,0,0,0,1,0,0,0,1,0,0,0,0,1,1,1,1,0,0,0,,0101000020E6100000B24B30C018F755C0C66EF72224D74440
115,Horsetail Lake,Edward M. Sneed Forest,Palos,activity area,,41.6709962007357,-87.8707244550488,yes,"104th Ave, north of McCarthy Rd","Cook County, IL 60464",,269,Palos,,0,0,0,0,0,0,0,0,0,1,1,0,0,1,0,0,0,1,1,1,0,0,1,0,0,0,0,0,0,0,0,0,0,0,0,0,0,0,0,0,0,0,0,0,0,0,0,0,0,0,0,1,1,0,,0101000020E6100000C49010F3B9F755C030F31834E3D54440
375,Irene C. Hernandez Family Picnic Grove,LaBagh Woods,Sauganash Prairie,activity area,,41.9758321783823,-87.7404212126222,yes,"W Foster Ave, east of N Cicero Ave","Chicago, IL 60630",,123,North Branch,,0,0,0,1,0,0,0,0,0,1,1,0,0,1,0,0,0,0,0,0,0,0,1,0,0,0,0,0,0,1,0,0,0,0,0,1,0,0,0,0,0,0,1,0,0,0,0,0,0,1,0,0,0,0,,0101000020E6100000845EA70F63EF55C0AA449E11E8FC4440
334,Sagawau Environmental Learning Center,Palos,Sagawau Canyon Nature Preserve,nature center,yes,41.6892667702031,-87.9257142696801,yes,12545 West 111th St,"Lemont, IL 60439",,267,Palos,Camp Sagawau,0,0,0,1,0,0,0,0,0,1,0,0,0,0,0,0,1,0,0,0,0,0,1,0,0,0,0,1,1,0,0,0,0,0,0,0,0,0,0,0,0,0,1,0,0,0,0,0,1,1,1,0,0,0,,0101000020E6100000D96D10E73EFB55C0F61EBEE439D84440
299,Country Lane Woods,Palos,Cranberry Slough Nature Preserve,activity area,,41.7160829681673,-87.8634634737676,yes,"95th St, east of Flavin Rd/Willow Springs Rd","Cook County, IL 60480",,67,Palos,,0,0,0,1,0,0,0,0,0,1,1,0,0,1,0,0,1,1,0,0,0,0,1,0,0,0,0,0,0,0,0,0,0,0,1,1,0,0,0,0,0,0,0,0,0,0,0,0,0,0,0,1,1,0,,0101000020E6100000D4474DFC42F755C022C0509BA8DB4440
112,Teason's Woods,Edward M. Sneed Forest,Cap Sauers Holding Nature Preserve,activity area,,41.6845137493428,-87.8730180938895,yes,"S Willow Springs Rd, south of Calumet Sag Rd/Rte 83","Cook County, IL 60464",,61,Palos,,0,0,0,0,0,0,0,0,0,1,1,0,0,1,0,0,1,0,0,0,0,0,1,0,0,0,0,0,0,0,0,0,0,0,0,1,0,0,0,0,0,0,0,0,0,0,0,0,0,0,0,1,1,0,,0101000020E610000093844887DFF755C0748B83259ED74440
49,Mary Mix McDonald Woods,William N. Erickson Preserves,Skokie Lagoons,activity area,,42.1504784215512,-87.7786838758566,yes,,"Glencoe, IL 60022",,0,North Branch,,0,0,0,0,0,0,0,0,0,0,0,0,0,0,0,0,1,0,0,0,0,0,0,0,0,0,0,0,0,0,1,0,0,0,0,0,0,0,0,0,0,0,0,0,0,0,0,0,0,0,0,0,0,0,,0101000020E6100000802EE5F4D5F155C07DA87DE042134540
369,Killdeer Wetlands,Bobolink Meadow Land & Water Reserve,South Green Belt Preserves,activity area,,41.5445537228528,-87.759358077875,yes,"Flossmoor Rd, west of Central Ave","Tinely Park, IL 60477",,285,Tinley Creek,,0,0,0,1,0,0,0,0,0,0,0,0,0,0,0,0,1,0,0,0,0,0,0,0,0,0,0,0,0,0,0,0,0,0,0,0,0,0,0,0,0,0,1,0,0,0,0,0,0,0,0,1,1,0,,0101000020E61000004C9B9F5299F055C0A948B7EFB3C54440
332,Black Partridge Woods,Goose Lake,Black Partridge Woods Nature Preserve,activity area,,41.6810084712761,-88.0281641389724,yes,"Bluff Rd, east of I-355","Cook County, IL 60439",,154,Palos,,0,0,0,0,0,0,0,0,0,0,0,0,0,0,0,0,1,0,0,0,0,0,0,0,0,0,0,0,0,1,0,0,0,0,0,0,0,0,0,0,0,0,1,0,0,1,0,1,0,0,0,1,0,0,,0101000020E61000009CF3F570CD0156C00A371C492BD74440
194,Carl R. Hansen Woods,Poplar Creek Prairie,Shoe Factory Road Prairie Nature Preserve,activity area,,42.0513364233059,-88.1952007789561,yes,"Sutton Rd/Rte 59, south of Shoe Factory Rd","Cook County, IL 60192",,156,Northwest,Hansen Woods,0,0,0,0,0,0,0,0,0,1,1,0,0,1,0,0,1,0,0,0,0,0,1,0,0,0,0,0,0,0,0,0,0,0,0,1,0,0,0,0,0,0,1,0,0,0,0,0,0,0,0,1,1,0,,0101000020E61000004A71682B7E0C56C09E98213192064540
275,Calvin R. Sutker Grove,George F. Nixon Forest,Harms Flatwoods Nature Preserve,activity area,,42.0555643937833,-87.7620691444573,yes,"Woods Dr, north of Golf Rd","Skokie, IL 60077",,237,North Branch,,0,0,0,0,0,0,0,0,0,1,1,0,0,1,0,0,1,1,0,0,0,0,1,0,0,0,0,0,0,0,0,0,0,0,0,0,0,0,0,0,0,0,0,0,0,0,0,0,0,0,0,0,0,0,,0101000020E6100000042FA9BDC5F055C0840FEBBB1C074540
304,Dan McMahon Woods,Palos,McMahon Woods and Fen Nature Preserve,activity area,,41.6940961708834,-87.8654216213523,yes,"107th St, west of 96th Ave","Cook County, IL 60480",,255,Palos,,0,0,0,0,0,0,0,0,0,1,1,0,0,1,0,0,1,1,0,0,0,0,1,0,0,0,0,0,0,0,0,0,0,0,0,0,0,0,0,0,0,0,0,0,0,0,0,0,0,0,0,0,0,0,,0101000020E6100000693D5E1163F755C0921CB124D8D84440
295,Spears Woods,Palos,Hogwash Slough,activity area,,41.726616018507,-87.8529737668643,yes,"96th Ave, south of W 87th St","Cook County, IL 60480",,74,Palos,,0,0,0,0,0,0,0,0,0,1,1,0,0,1,0,0,1,0,0,0,0,0,1,0,0,0,0,0,0,0,0,0,0,0,1,0,0,0,0,0,0,0,1,0,0,0,0,0,0,0,0,1,0,0,,0101000020E6100000CE41481F97F655C05E1EF2C001DD4440
319,Little Red Schoolhouse Nature Center,Palos,Longjohn Slough,nature center,yes,41.7089674264739,-87.8771527225817,yes,9800 Willow Springs Rd,"Willow Springs, IL 60480",,190,Palos,,0,0,0,1,0,0,0,0,0,0,0,0,0,0,0,0,1,0,0,0,0,0,1,0,0,0,0,1,1,0,0,0,0,0,0,0,0,0,0,0,0,0,1,0,0,1,0,0,1,1,1,0,0,0,,0101000020E61000007B452C4523F855C03A51D371BFDA4440
331,Maple Lake-East - Mountain Bike Staging Area,Palos,Mountain Bike Staging Area,activity area,yes,41.7155325651302,-87.8842461677674,yes,"95th St, west of Willow Springs Rd/Flavin Rd","Cook County, IL 60480",,71,Palos,,0,1,0,0,0,0,0,0,0,1,1,0,0,1,0,0,0,0,1,1,0,0,1,0,0,0,0,0,0,0,0,0,0,0,1,0,0,0,0,0,0,0,0,0,0,0,0,0,0,0,0,1,1,0,,0101000020E6100000290B3D7D97F855C07F3A339296DB4440
184,Busse Forest-North,Busse Forest Nature Preserve,Ned Brown,activity area,,42.0318774933133,-87.9988438073437,yes,"E Higgins Rd/Rte 72, west of N Arlington Heights Rd","Cook County, IL 60007",,316,Northwest,,0,0,0,0,0,0,0,0,0,0,0,0,0,0,0,0,1,0,0,0,0,0,0,0,0,0,0,0,0,0,0,0,0,0,1,1,0,0,0,0,0,0,1,0,0,0,0,0,0,1,0,0,0,0,,0101000020E61000009D96930EEDFF55C028A1CB8F14044540
187,Busse Lake Beisner Road Access,Busse Woods,Ned Brown,activity area,,42.0092281366655,-88.0188273950553,yes,"Beisner Rd, north of Biesterfield Rd","Cook County, IL 60007",,144,Northwest,Cosman,0,0,0,0,0,0,0,0,0,1,1,0,0,1,0,0,0,0,1,1,0,0,1,0,0,0,0,0,0,0,0,0,0,0,0,1,0,1,0,0,0,0,1,0,0,0,0,0,0,1,0,0,0,0,,0101000020E61000000582D177340156C0319738632E014540
186,Busse Forest Main Dam,Busse Woods,Ned Brown,activity area,,42.0177965855163,-87.9994657006448,yes,"S Arlington Heights Rd, south of Landmeier Rd","Elk Grove Village, IL 60007",,145,Northwest,Main Dam,0,0,0,0,0,0,0,0,0,1,1,0,0,1,0,0,0,0,1,1,0,0,1,0,0,0,0,0,0,0,0,0,0,0,0,1,0,1,0,0,0,0,1,0,0,0,0,0,1,1,0,0,0,0,,0101000020E61000008D6FFC3EF7FF55C0F762942847024540
189,Busse Lake Boating Center,Busse Woods,Ned Brown,activity area,,42.0284943718204,-88.0223865681845,yes,"E Higgins Rd/Rte 72, east of I-290/Hwy 53","Cook County, IL 60007",,313,Northwest,Busse Res / Reservoir,0,0,0,0,1,1,0,0,0,1,1,0,0,1,0,0,0,0,1,1,0,0,1,0,0,0,0,0,0,0,0,0,0,0,1,1,1,0,0,0,0,0,1,0,0,0,0,0,1,1,1,1,1,0,,0101000020E6100000388E12C86E0156C05F8B1DB4A5034540
185,Busse Forest Elk Pasture,Busse Woods,Ned Brown,activity area,,42.0300801794296,-87.9884122721545,yes,"N Arlington Heights Rd, north of E Higgins Rd","Cook County, IL 60007",,166,Northwest,,0,0,0,0,0,0,0,0,0,1,1,0,0,1,0,0,0,0,0,0,0,0,1,0,0,0,0,0,0,0,0,1,0,0,0,0,0,1,0,0,0,0,1,0,0,0,0,1,1,1,0,0,0,0,,0101000020E61000009BF78B2542FF55C03D74D5AAD9034540
191,Busse Forest-Central,Busse Woods,Ned Brown,activity area,,42.0322870992945,-88.0081935813047,yes,"E Higgins Rd/Rte 72, west of N Arlington Heights Rd","Cook County, IL 60007",,315,Northwest,Busse 4,0,0,0,0,0,0,0,0,0,1,1,0,0,1,0,0,1,0,0,0,0,0,1,0,0,0,0,0,0,1,0,0,0,0,0,1,0,1,0,0,0,0,1,0,0,0,0,0,0,1,0,0,0,0,,0101000020E61000006AEF5E3E860056C0BAC6D1FB21044540
190,Busse Forest-West,Busse Woods,Ned Brown,activity area,,42.0335152900432,-88.0152910948815,yes,"E Higgins Rd/Rte 72, east of I-290/Hwy 53","Cook County, IL 60007",,314,Northwest,Busse 31,0,0,0,0,0,0,0,0,0,1,1,0,0,1,0,0,0,0,1,0,0,0,1,0,0,0,0,0,0,0,0,0,0,0,0,1,0,1,0,0,0,0,1,0,0,0,0,0,0,1,0,0,0,0,,0101000020E6100000E81B8087FA0056C06B53A13A4A044540
31,Busse Forest-South,Busse Woods,Ned Brown,activity area,,42.0248840654301,-87.9928974822813,yes,"E Higgins Rd/Rte 72, west of N Arlington Heights Rd","Cook County, IL 60007",,312,Northwest,,0,0,0,0,0,0,0,0,0,1,1,0,0,1,0,0,1,0,1,1,0,0,1,0,1,0,0,0,0,0,0,0,0,0,1,1,0,1,0,0,0,0,1,0,0,0,0,0,0,1,0,0,0,0,,0101000020E610000075ABE1A18BFF55C05E9BAB662F034540
30,Busse Forest Nature Preserve,Busse Woods,Ned Brown,nature preserve,,42.0451442772333,-88.0049375571208,yes,,"Cook County, IL 60007",316,0,Northwest,,0,0,0,1,0,0,0,0,0,0,0,0,0,0,0,0,0,0,0,0,0,0,0,0,0,0,0,0,0,1,1,0,0,0,0,0,0,0,0,0,0,0,1,0,1,1,0,0,0,0,0,0,0,0,,0101000020E6100000C5969DE5500056C0C428A549C7054540
282,Bunker Hill,Clayton F. Smith,Oxbow Prairie,activity area,,42.0055128772443,-87.787642659723,yes,"W Harts Rd, southwest of W Toughy Ave","Niles, IL 60714",,142,North Branch,,0,0,1,1,0,0,0,0,0,1,1,0,0,1,0,0,1,0,0,0,0,0,1,0,0,0,0,0,0,0,0,0,0,0,0,1,0,1,0,0,0,0,1,0,0,0,0,0,0,1,0,0,1,0,,0101000020E6100000791CC2BC68F255C051BC5DA5B4004540
287,Edgebrook Woods,Willow Road Woods,Sam Stewart Shelter,activity area,,41.9918752576627,-87.7648014527619,yes,"Central Ave, south of N Lehigh Ave","Chicago, IL 60646",,120,North Branch,,0,0,0,0,0,0,0,0,0,0,0,0,0,0,0,0,1,0,0,0,0,0,0,0,0,0,0,0,0,0,0,0,0,0,0,1,0,0,0,0,0,0,0,0,0,0,0,0,0,0,0,1,0,0,,0101000020E6100000EDE2CA81F2F055C0B9AFB8C4F5FE4440
195,Poplar Creek Equestrian Parking,Arthur L. Janura Preserve,Schaumburg Road Grasslands,activity area,yes,42.031413036835,-88.2141887750807,yes,"Schaumburg Rd, east of W Irving Park Rd","Cook County, IL 60120",,214,Northwest,Horse Lot,0,0,0,1,0,0,0,0,0,1,1,0,0,1,0,0,1,1,0,0,0,0,1,0,0,0,0,0,0,0,0,0,0,0,0,0,0,0,0,0,0,0,1,0,0,0,0,0,0,0,0,1,1,0,,0101000020E61000001609D644B50D56C0F2EFA65705044540
125,Tampier Lake-North,John J. Duffy Preserve,Tampier Slough,activity area,,41.6519603013629,-87.9032242461484,yes,W 131st St west of S Wolf Rd,"Cook County, IL 60464",,271,Palos,,0,0,0,1,0,0,0,0,0,0,0,0,0,0,0,0,0,0,0,0,0,0,0,0,0,0,0,0,0,0,0,0,0,0,0,0,0,0,0,0,0,0,0,0,0,1,0,0,0,0,0,0,0,0,,0101000020E6100000598A116DCEF955C06A52666F73D34440
126,Tampier Lake Boating Center,John J. Duffy Preserve,Tampier Slough,activity area,,41.6493150737309,-87.9006506263722,yes,W 131st St west of S Wolf Rd,"Cook County, IL 60467",,272,Palos,,0,0,0,0,1,1,0,0,0,0,0,0,0,0,0,0,0,0,1,1,0,0,0,0,0,0,0,0,0,0,0,0,0,0,0,0,0,0,0,0,0,0,0,0,0,0,0,0,0,1,1,0,1,0,,0101000020E610000001598642A4F955C0AD3C9FC11CD34440
178,Camp Alphonse,,,activity area,,42.1374055223405,-88.077615691903,yes,"Dundee Rd, west of N Quentin Rd","Cook County, IL 60010",,204,Northwest,,0,0,0,0,0,0,0,0,0,1,1,0,0,0,0,0,0,0,0,0,0,0,1,0,0,0,0,0,0,0,0,0,0,0,0,0,0,0,0,0,0,0,0,0,0,0,0,0,0,0,0,1,1,0,,0101000020E61000005298CEA7F70456C0FE5E108196114540
68,Tryner's Pond,,,activity area,,41.5671200238494,-87.7519826724247,yes,,"Cook County, IL 60477",,0,Tinley Creek,,0,0,0,0,0,0,0,0,0,0,0,0,0,0,0,0,0,0,1,0,0,0,0,0,0,0,0,0,0,0,1,0,0,0,0,0,0,0,0,0,0,0,0,0,0,0,0,0,0,0,0,0,0,0,,0101000020E6100000404EEE7B20F055C086AB916397C84440
51,Edgebrook Golf Course,,,golf course,,41.99296015882,-87.7705130130416,yes,6100 N Central Ave,"Chicago, IL 60646",,242,North Branch,,0,0,0,0,0,0,0,0,0,0,0,0,0,0,0,0,0,0,0,0,0,1,0,0,0,0,0,0,0,0,0,0,0,0,0,0,0,0,0,0,0,0,0,0,0,0,0,0,0,0,0,0,0,0,0101000020E6100000108C3D3909F155C0A3A2D0AAC7FE4440,0101000020E6100000FB09D01550F155C0762E885119FF4440
61,Tuma Lake,,,activity area,,41.7052477355057,-87.8719309261035,yes,,"Cook County, IL 60480",,0,Palos,,0,0,0,0,0,0,0,0,0,0,0,0,0,0,0,0,0,0,1,0,0,0,0,0,0,0,0,0,0,0,1,0,0,0,0,0,0,0,0,0,0,0,0,0,0,0,0,0,0,0,0,0,0,0,,0101000020E61000003FD2E2C5E6F755C05901A31427DA4440
41,Brookfield Zoo,,,special activity,,41.8328520584018,-87.8359964800038,yes,3300 Golf Rd,"Brookfield, IL 60513",,337,Salt Creek,,0,0,0,1,0,0,0,0,0,0,0,0,0,0,0,0,0,0,0,0,0,0,1,0,0,0,0,0,0,0,0,0,0,0,0,0,0,0,0,0,0,0,0,0,0,1,0,0,1,1,1,0,0,0,,0101000020E6100000FC4B61F780F555C0FA9E70E59AEA4440
217,Irving Park Road Canoe Landing,,,activity area,,41.954007076439,-87.8565739467665,yes,"Des Plaines River Rd, north of Irving Park Rd","Schiller Park, IL 60176",,25,Indian Boundary,Canoe Launch,0,0,0,0,0,0,0,1,0,0,0,0,0,0,0,0,0,0,0,0,0,0,0,0,0,0,0,0,0,0,0,0,0,0,0,0,0,0,0,0,0,0,0,0,0,0,0,0,0,0,0,0,0,0,,0101000020E6100000EDFD871BD2F655C09EBA64E71CFA4440
253,Plank Road Meadow Boat Launch,,,activity area,,41.8170188897751,-87.8320019005662,yes,"Ogden Ave, east of 1st Ave","Riverside, IL 60534",,34,Salt Creek,Plank,0,0,0,0,1,0,0,0,0,0,0,0,0,0,0,0,0,0,0,0,1,0,0,0,0,0,0,0,0,0,0,0,0,0,0,0,0,0,0,0,0,0,0,0,0,0,0,0,0,0,0,0,0,0,,0101000020E61000001449E6843FF555C031E6311394E84440
175,Turtlehead Lake,,,activity area,,41.6435414162526,-87.8008654818298,yes,"Harlem Ave, south of W 135th St","Cook County, IL 60462",,47,Tinley Creek,,0,0,0,0,0,0,0,0,0,1,1,0,0,1,0,0,0,0,1,1,0,0,1,0,0,0,0,0,0,0,0,0,0,0,0,1,0,1,0,1,0,0,0,0,0,0,0,0,0,0,0,1,1,0,,0101000020E6100000123D4B6141F355C09C36AC905FD24440
128,Arrowhead Lake,,,activity area,,41.6490934875738,-87.7929001741509,yes,"W 135th St, east of Harlem Ave","Cook County, IL 60463",,48,Tinley Creek,,0,0,0,0,0,0,0,0,0,1,1,0,0,1,0,0,0,0,1,1,0,0,1,0,0,0,0,0,0,0,0,0,0,0,0,1,0,1,0,0,0,0,0,0,0,0,0,0,0,0,0,1,1,0,,0101000020E6100000233E5FE0BEF255C08D96D27E15D34440
22,Wampum Lake,,,activity area,,41.5715772006866,-87.5919974703954,yes,Thornton-Lansing Rd &amp; Willigan Rd,"Cook County, IL 60476",,113,Thorn Creek ,Wampum,0,0,0,0,0,0,0,0,0,0,0,0,0,0,0,0,0,0,1,1,0,0,0,0,0,0,0,0,0,0,0,0,0,0,1,1,0,0,0,0,0,0,1,0,0,0,0,0,0,0,0,1,1,0,,0101000020E61000006EAA5B49E3E555C0470B147129C94440
325,Bullfrog Lake,,,activity area,,41.7108447407821,-87.8982229756888,yes,"Wolf Rd, south of 95th St","Cook County, IL 60480",,178,Palos,,0,0,0,0,0,0,0,0,0,1,1,0,0,1,0,0,0,0,1,1,0,0,1,0,0,0,0,0,0,0,0,0,0,0,0,0,0,0,0,0,0,0,0,0,0,0,0,0,0,0,0,1,1,0,,0101000020E61000005A46387C7CF955C0AC18E1F5FCDA4440
344,Harry H. Semrow Driving Range,,,golf driving range,,42.0554751065745,-87.8967359616538,yes,1150 E Golf Rd,"Des Plaines, IL 60016",,194,Indian Boundary,,0,0,0,0,0,0,0,0,0,0,0,0,0,0,0,0,0,0,0,0,0,0,0,0,0,0,0,0,0,0,0,0,0,0,0,0,0,0,0,0,0,0,0,0,0,0,1,0,0,0,0,0,0,0,,0101000020E6100000CD1C3B1F64F955C05D3DECCE19074540
347,Spring Lake Equestrian Parking,,,activity area,yes,42.1370094555283,-88.2203580523533,yes,"Bateman Rd, north of Algonquin Rd","Barrington Hills, IL 60010",,197,Northwest,,0,0,0,0,0,0,0,0,0,1,1,0,0,1,0,0,1,1,0,0,0,0,1,0,0,0,0,0,0,0,0,0,0,0,0,0,0,0,0,0,0,0,0,0,0,0,0,0,0,0,0,0,0,0,,0101000020E61000002511A9581A0E56C04D5E9D8689114540
202,Beverly Lake,,,activity area,,42.083002804393,-88.2294442003051,yes,"W Higgins Rd/Rte 72, west of Beverly Rd","Cook County, IL 60010",,206,Northwest,,0,0,0,0,0,0,0,0,0,1,1,0,0,1,0,0,1,0,1,0,0,0,1,0,0,0,1,0,0,0,0,0,0,0,0,0,0,0,0,0,0,0,0,0,0,0,0,0,0,0,0,0,0,0,,0101000020E61000004C24BA36AF0E56C0162CFDD59F0A4540
343,Beck Lake,,,activity area,yes,42.0724184979931,-87.8757112419312,yes,East River Rd &amp; Central Road,"Cook County, IL 60016",,219,Indian Boundary,,0,0,0,0,1,0,0,0,0,1,1,0,1,1,0,0,0,0,1,1,0,0,1,0,0,0,0,0,0,0,0,0,0,0,0,0,0,0,0,0,0,0,0,0,0,0,0,0,0,0,0,1,1,1,,0101000020E610000064352AA70BF855C0C540640245094540
346,Belleau Lake,,,activity area,,42.0320951827991,-87.8676954904954,yes,"Busse Hwy, northwest of Oakton St","Park Ridge, IL 60068",,220,Indian Boundary,,0,0,0,0,0,0,0,0,0,0,0,0,0,0,0,0,0,0,1,1,0,0,0,0,0,0,0,0,0,0,0,0,0,0,0,0,0,0,0,0,0,0,0,0,0,0,0,0,0,0,0,1,1,0,,0101000020E61000001DA4AA5288F755C09D3DE8B11B044540
305,Midlothian Reservoir,,,activity area,,41.5922955339364,-87.7385941714513,yes,"167th St, west of Cicero Ave","Oak Forest, IL 60452",,282,Tinley Creek,Twin Lakes,0,0,0,0,0,0,0,0,0,1,1,0,0,1,0,0,0,0,1,0,0,0,1,0,0,0,0,0,0,0,0,0,0,0,0,0,0,1,0,0,0,0,0,0,0,0,0,0,0,0,0,1,0,0,,0101000020E610000090D97C2045EF55C073E90D57D0CB4440
149,Powderhorn Lake,,,activity area,,41.6427377599386,-87.5346152812891,yes,"S Brainard Ave, east of S Burnham Ave/S Ave O","Burnham, IL 60633",,298,Calumet,,0,0,0,1,1,0,0,0,0,0,0,0,0,0,0,0,1,0,1,1,0,0,0,0,0,0,0,0,0,0,0,0,0,0,0,0,0,0,0,0,0,0,1,0,0,0,0,0,0,0,0,0,0,0,,0101000020E61000000645032337E255C0986B1D3B45D24440
60,Joe's Pond,,,activity area,,41.7023968536751,-87.8773735176755,yes,"S Willow Springs Rd/Flavin Rd, north of 107th St","Cook County, IL 60480",,311,Palos,,0,0,0,0,0,0,0,0,0,0,0,0,0,0,0,0,0,0,1,0,0,0,0,0,0,0,0,0,0,0,0,0,0,0,0,0,0,0,0,0,0,0,0,0,0,0,0,0,0,0,0,0,0,0,,0101000020E6100000BA3241E326F855C085ACDD23E8D94440
364,Big Bend Lake,,,activity area,,42.0519230686842,-87.8718923683243,yes,"Bender Rd, south of Golf Rd","Des Plaines, IL 60016",,147,Indian Boundary,,0,0,0,0,1,0,0,0,0,1,1,0,0,1,0,0,0,1,1,1,0,0,1,0,0,0,0,0,0,0,0,0,0,0,0,1,0,0,0,0,0,0,0,0,0,0,0,0,0,0,0,1,1,0,,0101000020E61000006BE5A515CDF755C008F4446AA5064540
383,Axehead Lake,,,activity area,,42.0084610947781,-87.8625277446431,yes,"S River Road, south of W Touhy Ave","Cook County, IL 60018",,170,Indian Boundary,,0,0,0,0,0,0,0,0,0,0,0,0,0,0,0,0,0,0,1,1,0,0,0,0,0,0,0,0,0,0,0,0,0,0,0,0,0,0,0,0,0,0,0,0,0,0,0,0,0,0,0,1,1,0,,0101000020E61000009FC891A733F755C023AECE4015014540
393,Horizon Farm,,,activity area,,42.127002325319,-88.1890005973572,yes,"Old Sutton Rd, south of Otis Rd","Barrington Hills, IL 60010",,198,Northwest,,0,0,0,1,0,0,0,0,0,1,1,0,0,0,0,0,1,0,0,0,0,0,1,0,0,0,0,0,0,0,0,0,0,0,0,0,0,0,0,0,0,0,0,0,0,0,0,0,0,0,0,1,0,0,,0101000020E6100000BA24F695180C56C066E1B89C41104540
391,Arie Crown Forest,,,activity area,,41.7624424368191,-87.8757547912127,yes,"S LaGrange Rd, south of 67th St","Countryside, IL 60525",,79,Salt Creek,,0,0,0,0,0,0,0,0,0,1,1,0,0,1,0,0,1,0,0,0,0,0,1,0,0,0,0,0,0,0,0,0,0,0,0,1,0,0,0,0,0,0,1,0,0,0,0,0,0,0,0,1,1,0,,0101000020E6100000B8E4D25D0CF855C03F9CB9B697E14440
144,Calumet Woods,,,activity area,,41.6454849544547,-87.6646258904096,yes,Ashland Ave &amp; Charles Dr,"Riverdale, IL 60827",,82,Calumet,,0,0,0,0,0,0,0,0,0,0,0,0,0,0,0,0,0,0,0,0,0,0,0,0,0,0,0,0,0,0,0,0,0,0,0,1,0,0,0,0,0,0,0,0,0,0,0,0,0,0,0,1,0,0,,0101000020E610000094D8073B89EA55C0B1B840409FD24440
132,Rubio Woods,,,activity area,,41.6347141373996,-87.7657482919245,yes,"W Midlothian Turnpike/W 143rd St, west of S Ridgeland Ave","Cook County, IL 60445",,84,Tinley Creek,,0,0,0,0,0,0,0,0,0,1,1,0,0,1,0,0,0,0,0,0,0,0,1,0,0,0,0,0,0,0,0,0,0,0,1,1,0,1,0,0,0,0,0,0,0,0,0,0,0,0,0,1,1,0,,0101000020E610000025B21F0502F155C05D3817503ED14440
134,Carlson Springs Woods,,,activity area,,41.6293639465236,-87.78408383794,yes,"Oak Park Ave, south of E 143rd St","Cook County, IL 60452",,86,Tinley Creek,,0,0,0,0,0,0,0,0,0,0,0,0,0,0,0,0,0,0,0,0,0,0,0,0,0,0,0,0,0,0,0,0,0,0,0,1,0,0,0,0,0,0,0,0,0,0,0,0,0,0,0,1,0,0,,0101000020E61000008E51FA6D2EF255C0DACC6FFF8ED04440
141,Whistler Woods,,,activity area,,41.6550125575091,-87.6398358425017,yes,"Forest View Ave, east of S Harlem Ave","Riverdale, IL 60827",,89,Calumet,,0,0,0,0,0,0,0,0,0,1,1,0,0,1,0,0,1,0,0,0,0,0,1,0,0,0,0,0,0,0,0,0,0,0,1,0,0,1,0,0,0,0,1,0,0,0,0,0,0,0,0,1,1,0,,0101000020E6100000A0960812F3E855C0427C9473D7D34440
152,Clayhole Woods,,,activity area,,41.6036367462182,-87.5576080899236,yes,"Torrence Ave, north of 159th St/River Oaks Dr","Calumet City, IL 60409",,91,Thorn Creek ,Clayhole,0,0,0,0,0,0,0,0,0,0,0,0,0,0,0,0,0,0,0,0,0,0,0,0,1,0,0,0,0,0,0,0,0,0,0,1,0,0,0,0,0,0,0,0,0,0,0,0,0,0,0,1,0,0,,0101000020E61000003C8DD7D9AFE355C0EBD509F843CD4440
268,Erickson Woods,,,activity area,,42.1026157818614,-87.7650482342287,yes,"Willow Rd, east of I-94/Edens Expy","Cook County, IL 60093",,99,North Branch,,0,0,0,1,0,0,0,0,0,1,1,0,0,1,0,0,1,0,1,0,0,0,1,0,0,0,0,0,0,0,0,0,0,0,0,1,0,1,0,0,0,0,1,0,0,0,0,0,0,0,0,1,1,0,,0101000020E61000000078DE8CF6F055C0FC929183220D4540
367,Woodrow Wilson Woods,,,activity area,,41.5066949782878,-87.6445646174335,yes,"Lincoln Hwy, west of Chicago Rd","Chicago Heights, IL 60411",,100,Thorn Creek ,Wilson,0,0,0,0,0,0,0,0,0,1,1,0,0,1,0,0,0,0,0,0,0,0,1,0,0,0,0,0,0,0,0,0,0,0,0,0,0,0,0,0,0,0,0,0,0,0,0,0,0,0,0,0,0,0,,0101000020E61000004A02F48B40E955C092658C61DBC04440
166,Joe Orr Woods,,,activity area,,41.5190176635927,-87.6299692448016,yes,"E Joe Orr Rd, east of S Halsted St","Chicago Heights, IL 60411",,101,Thorn Creek ,Joe Orr,0,0,0,0,0,0,0,0,0,1,1,0,0,1,0,0,0,0,0,0,0,0,1,0,0,0,0,0,0,0,0,0,0,0,0,1,0,1,0,0,0,0,0,0,0,0,0,0,0,0,0,1,1,0,,0101000020E610000028FA856A51E855C0A196B92B6FC24440
164,North Creek Meadow,,,activity area,,41.543726979593,-87.5601878416241,yes,"Glenwood Lansing Rd, west of Torrence Ave","Cook County, IL 60411",,102,Thorn Creek ,North Creek,0,0,0,0,0,0,0,0,0,1,1,0,0,1,0,0,0,0,0,0,0,0,1,0,1,0,0,0,0,0,0,0,0,0,0,1,0,1,0,1,0,0,0,0,0,0,0,0,0,1,1,1,1,0,,0101000020E610000019D91A1EDAE355C0FEA67DD898C54440
160,Glenwood Woods-North,,,activity area,,41.5486782054084,-87.622305025752,yes,"Glenwood Chicago Heights Rd, west of S William St","Glenwood, IL 60425",,108,Thorn Creek ,Glenwood North,0,0,0,0,0,0,0,0,0,1,1,0,0,1,0,0,0,0,0,0,0,0,1,0,0,0,0,0,0,0,0,0,0,0,0,1,0,0,0,0,0,0,0,0,0,0,0,0,0,0,0,1,1,0,,0101000020E6100000716F75D8D3E755C0E02062163BC64440
158,Brownell Woods,,,activity area,,41.562039218838,-87.6096847806159,yes,"S Hunter St, south of E Margret St","Thornton, IL 60476",,110,Thorn Creek ,Brownell,0,0,0,0,0,0,0,0,0,0,0,0,0,0,0,0,0,0,0,0,0,0,0,0,0,0,0,0,0,1,0,0,0,0,1,0,0,0,0,0,0,0,0,0,0,0,0,0,0,0,0,1,0,0,,0101000020E61000005067501305E755C040FDAFE6F0C74440
162,Jurgensen Woods,,,activity area,,41.5537014141214,-87.593549708892,yes,"183rd St, east of Cottage Grove Ave","Cook County, IL 60476",,111,Thorn Creek ,Jurgensen,0,0,0,0,0,0,0,0,0,1,1,0,0,1,0,0,1,0,0,0,0,0,1,0,0,0,0,0,0,0,0,0,0,0,0,1,0,0,0,0,0,0,0,0,0,0,0,0,0,0,0,1,0,0,,0101000020E6100000740FEBB7FCE555C03BB31CB0DFC64440
159,Sweet Woods,,,activity area,,41.5559127305837,-87.5994268520931,yes,"Cottage Grove Ave, north of Glenwood Lansing Rd","Cook County, IL 60476",,112,Thorn Creek ,,0,0,0,0,0,0,0,0,0,1,1,0,0,1,0,0,0,0,0,0,0,0,1,0,0,0,0,0,0,0,0,0,0,0,0,1,0,1,0,0,0,0,0,0,0,0,0,0,0,0,0,1,1,1,,0101000020E6100000648571025DE655C0C0A4FA2528C74440
288,Forest Glen Woods,,,activity area,,41.9815003035327,-87.7558766594084,yes,"N Forest Glen Ave, north of N Elston Ave","Chicago, IL 60630",,122,North Branch,,0,0,0,0,0,0,0,0,0,1,1,0,0,1,0,0,0,0,0,0,0,0,1,0,0,0,0,0,0,0,0,0,0,0,0,1,0,0,0,0,0,0,1,0,0,0,0,0,0,1,0,1,0,1,,0101000020E610000004FE7E4860F055C0EF574CCDA1FD4440
220,Schiller Playfield,,,activity area,,41.9576718946953,-87.8343224881557,yes,"W Montrose Ave, east of N Cumberland Ave","Chicago, IL 60706",,125,Indian Boundary,,0,0,0,0,0,0,0,0,0,0,0,0,0,0,0,0,0,0,0,0,0,0,0,0,0,0,0,0,0,0,0,0,0,0,0,0,0,0,0,0,0,0,1,0,0,0,0,0,0,0,0,0,0,0,,0101000020E6100000903C268A65F555C0E1011EFE94FA4440
223,Che Che Pin Qua Woods,,,activity area,,41.9511168909135,-87.8462614966239,yes,"W Irving Park Ave, west of N Cumberland Ave","Chicago, IL 60634",,127,Indian Boundary,,0,0,0,0,0,0,0,0,0,0,0,0,0,0,0,0,0,0,0,0,0,0,0,0,0,0,0,0,0,0,0,0,0,0,1,0,0,0,0,0,0,0,1,0,0,0,0,0,0,0,0,1,0,0,,0101000020E610000049F7FA2529F655C0CC92C232BEF94440
218,Schiller Woods-West,,,activity area,,41.9555767610468,-87.8518596767565,yes,"W Irving Park Rd, east of Des Plaines River Rd","Schiller Park, IL 60634",,129,Indian Boundary,Schiller 1-8,0,0,0,0,0,0,0,0,0,1,1,0,0,1,0,0,1,0,0,0,0,0,1,0,0,0,0,0,0,0,0,0,0,0,1,1,0,0,0,0,0,0,1,0,0,0,0,0,0,0,0,1,1,0,,0101000020E6100000D21C73DE84F655C0BFC1DC5650FA4440
219,Schiller Woods-South,,,activity area,,41.9520062574735,-87.8527092454165,yes,"W Irving Park Rd, east of Des Plaines River Rd","Schiller Park, IL 60634",,130,Indian Boundary,Schiller 15,0,0,0,0,0,0,0,0,0,1,1,0,0,1,0,0,1,0,0,0,0,0,1,0,0,0,0,0,0,0,0,0,0,0,0,0,0,0,0,0,0,0,1,0,0,0,0,0,0,0,0,0,0,0,,0101000020E6100000E483CCC992F655C0D7B74E57DBF94440
193,Dan Ryan Woods-Central,,,activity area,,41.7409734968597,-87.6800029915432,yes,"W 83rd St, east of S Western Ave","Chicago, IL 60620",,131,Calumet,Circle,0,0,1,0,0,0,0,0,0,1,1,0,0,1,0,0,0,0,0,0,0,0,1,0,0,0,0,0,0,0,0,0,0,0,0,1,0,1,0,0,0,0,1,0,0,0,0,0,1,1,0,0,1,0,,0101000020E61000001077442B85EB55C08A1B3438D8DE4440
312,Dan Ryan Woods-East,,,activity area,,41.7363865597619,-87.6762222823148,yes,"W 87th St, west of S Damen Ave","Chicago, IL 60620",,132,Calumet,,0,0,0,0,0,0,0,0,0,0,0,0,0,0,0,0,0,0,0,0,0,0,0,0,0,0,0,0,0,0,0,0,0,0,1,0,0,0,0,0,0,0,1,0,0,0,0,0,1,1,0,1,0,0,,0101000020E610000094D7D23947EB55C010B22FEA41DE4440
311,Dan Ryan Woods-North,,,activity area,,41.7434783850339,-87.6804028881989,yes,"W 83rd St, east of S Western Ave","Chicago, IL 60620",,134,Calumet,Dan Ryan 15 & 16,0,0,0,0,0,0,0,0,0,1,1,0,0,1,0,0,0,0,0,0,0,0,1,0,0,0,0,0,0,0,0,0,0,0,0,1,0,1,0,0,0,0,1,0,0,0,0,0,0,1,0,0,0,0,,0101000020E6100000C73A8EB88BEB55C07780BA4C2ADF4440
13,Dan Ryan Woods-South,,,activity area,,41.7324336383051,-87.680722145691,yes,"S Western Ave, south of W 87th St","Chicago, IL 60620",,135,Calumet,,0,0,0,0,0,0,0,0,0,0,0,0,0,0,0,0,1,0,0,0,0,0,0,0,0,0,0,0,0,1,0,0,0,0,1,1,0,0,0,0,0,0,1,0,0,0,0,0,0,0,0,1,0,0,,0101000020E6100000F6599EF390EB55C05B81AD62C0DD4440
314,Dan Ryan Woods-91st Street,,,activity area,,41.7287839027294,-87.6676634793654,yes,W 91st St &amp; S Hermitage Ave,"Chicago, IL 60620",,138,Calumet,Downstairs,0,0,0,0,0,0,0,0,0,0,0,0,0,0,0,0,0,0,0,0,0,0,0,0,0,0,0,0,0,0,0,0,0,0,0,0,0,0,0,0,0,0,1,0,0,0,0,0,0,0,0,1,1,0,,0101000020E6100000E7269AFFBAEA55C07C097ACA48DD4440
315,Eggers Grove,,,activity area,,41.6896544838695,-87.5277253266566,yes,E 112th St &amp; S Ave E,"Chicago, IL 60617",,139,Calumet,,0,0,0,1,0,0,0,0,0,1,1,0,0,1,0,0,1,0,0,0,0,0,1,0,0,0,0,0,0,0,0,0,0,0,1,1,0,1,0,0,0,0,1,0,0,0,0,0,0,1,1,1,1,1,,0101000020E6100000B4D07240C6E155C02AE11E9946D84440
214,Catherine Chevalier Woods,,,activity area,,41.9804593064387,-87.847738518705,yes,"N East River Rd, north of W Foster Ave","Chicago, IL 60656",,140,Indian Boundary,,0,0,0,0,0,0,0,0,0,1,1,0,0,1,0,0,0,0,0,0,0,0,1,0,0,0,0,0,0,0,0,0,0,0,0,1,0,0,0,0,0,0,0,0,0,0,0,0,0,0,0,1,1,0,,0101000020E610000072590F5941F655C0421BC8B07FFD4440
216,Robinson Woods-South,,,activity area,,41.9648813538556,-87.8540106231084,yes,"Lawrence Ave, west of N East River Rd","Chicago, IL 60656",,141,Indian Boundary,,0,0,0,0,0,0,0,0,0,1,1,0,0,1,0,0,1,0,0,0,0,0,1,0,0,0,0,0,0,0,0,0,0,0,0,1,0,0,0,0,0,0,1,0,0,0,0,0,0,0,0,1,0,0,,0101000020E6100000F82B2C1CA8F655C03AAA713B81FB4440
207,Camp Ground Road Woods,,,activity area,,42.0298695309527,-87.8738567885706,yes,E Algonquin Rd &amp; Joseph Schwab Rd,"Des Plaines, IL 60016",,148,Indian Boundary,,0,0,0,0,0,0,0,0,0,1,1,0,0,1,0,0,0,0,0,0,0,0,1,0,0,0,0,0,0,0,0,0,0,0,0,1,0,0,0,0,0,0,0,0,0,0,0,0,0,0,0,1,0,0,,0101000020E610000018130645EDF755C05C4BC9C3D2034540
204,Lions Woods,,,activity area,,42.0526526341169,-87.8858638086948,yes,"S River Rd, south of E Golf Rd","Des Plaines, IL 60016",,149,Indian Boundary,,0,0,0,0,0,0,0,0,0,0,0,0,0,0,0,0,0,0,0,0,0,0,0,0,0,0,0,0,0,0,0,0,0,0,0,1,0,0,0,0,0,0,0,0,0,0,0,0,0,0,0,1,0,1,,0101000020E610000077C31DFEB1F855C048CA4E52BD064540
366,Tampier Greenway Family Picnic Area,,,activity area,,41.6434592557743,-87.8914425372713,yes,"135th St, east of S Wolf Rd","Cook County, IL 60467",,152,Palos,,0,0,0,0,0,0,0,0,0,0,0,0,0,0,0,1,0,0,0,0,0,0,0,0,0,0,0,0,0,0,0,0,0,0,0,1,0,0,0,0,0,0,0,0,0,0,0,0,0,0,0,1,0,0,,0101000020E6100000FBF5FF640DF955C0F7ED75DF5CD24440
28,Plum Creek Meadow,,,activity area,,41.484630847409,-87.5337460697742,yes,"Burnham Ave, north of 223rd St","Cook County, IL 60411",,103,Thorn Creek ,Plum Creek,0,0,0,0,0,0,0,0,0,1,1,0,0,1,0,1,1,0,0,0,0,0,1,0,1,0,0,0,0,0,0,0,0,0,0,1,0,0,0,0,0,0,0,0,0,0,0,0,0,1,0,0,0,0,,0101000020E61000001C8346E528E255C08C20346208BE4440
1078,Oak Forest Heritage Preserve-West,,,activity area,yes,,,yes,"159th St, east of S Cicero Ave","Oak Forest, IL 60452",,350,Tinley Creek,,0,0,0,1,0,0,0,0,0,1,1,0,0,1,0,0,0,0,0,0,0,0,1,0,0,0,0,0,0,0,0,0,0,0,0,0,0,0,0,0,0,0,0,0,0,1,0,0,0,0,0,0,0,0,,0101000020E61000007008E2027FEE55C031C89A75D1CC4440
129,Cooper's Hawk Family Picnic Area,,,activity area,,41.645631785357,-87.7709356179928,yes,"W 135th St, east of S Ridgeland Ave","Cook County, IL 60463",,87,Tinley Creek,,0,0,0,0,0,0,0,0,0,1,1,0,0,1,0,0,0,0,0,0,0,0,1,0,0,0,0,0,0,0,0,0,0,0,0,0,0,0,0,0,0,0,0,0,0,0,0,0,0,0,0,0,0,0,,0101000020E610000070A6580257F155C0E0AEF50FA4D24440
338,River Trail Nature Center,,,nature center,yes,42.0950110492162,-87.8848452803943,yes,3120 Milwaukee Ave,"Northbrook, IL 60062",,195,Indian Boundary,,0,0,0,1,0,0,0,0,0,0,0,0,0,0,0,0,1,0,0,0,0,0,1,0,0,0,0,1,1,0,0,0,0,0,0,0,0,0,0,0,0,0,1,0,0,0,0,0,1,1,1,0,0,0,,0101000020E61000001354194EA1F855C036927252290C4540
397,Mathew Bieszczat Volunteer Resource Center,,,volunteer center,yes,41.9920109586126,-87.7686259808768,yes,6100 N Central,"Chicago, IL 60646",,242,North Branch,VRC,0,0,0,0,0,0,0,0,0,0,0,0,0,0,0,0,1,0,0,0,0,0,0,1,0,0,0,0,0,0,0,0,0,1,0,0,0,0,0,0,0,0,1,0,0,0,0,0,1,1,1,0,0,0,0101000020E610000011DA030D08F155C0FD7BB463D1FE4440,0101000020E610000031AE062B31F155C0E6411037FAFE4440
286,Billy Caldwell Golf Course,,,golf course,,41.9901761840252,-87.7596773224012,yes,6150 Caldwell Ave,"Chicago, IL 60646",,243,North Branch,,0,0,0,0,0,0,0,0,0,0,0,0,0,0,0,0,0,0,0,0,0,1,0,0,0,0,0,0,0,0,0,0,0,0,0,0,0,0,0,0,0,0,0,0,0,0,0,0,0,0,0,0,0,0,,0101000020E610000075CEA18D9EF055C04AD5DB17BEFE4440
259,Stony Ford Canoe Landing,,,activity area,,41.8126940268703,-87.8103620455888,yes,"Joliet Ave/43rd St, west of S Harlem Ave","Lyons, IL 60534",,244,Salt Creek,Stony,0,0,0,0,0,0,0,1,0,0,0,0,0,0,0,0,0,0,0,0,0,0,0,0,0,0,0,0,0,0,0,0,0,0,0,0,0,0,0,0,0,0,0,0,0,0,0,0,0,0,0,0,0,0,,0101000020E610000052EEC4F8DCF355C0FC879D5B06E84440
252,Meadowlark Golf Course,,,golf course,,41.8324828476081,-87.9111610319634,yes,11599 31st St,"Hinsdale, IL 60523",,249,Salt Creek,,0,0,0,0,0,0,0,0,0,0,0,0,0,0,0,0,0,0,0,0,0,1,0,0,0,0,0,0,0,0,0,0,0,0,0,0,0,0,0,0,0,0,0,0,0,0,0,0,0,0,0,0,0,0,,0101000020E6100000066B5C7650FA55C0987A46CC8EEA4440
163,Thorn Creek Model Airplane Flying Field,,,activity area,,41.5530212348503,-87.5749150615737,yes,"Stoney Island Ave, south of 186th St","Cook County, IL 60411",,264,Thorn Creek ,Flying Field,0,0,0,0,0,0,0,0,0,0,0,0,0,0,0,1,0,0,0,0,0,0,0,0,0,1,0,0,0,0,0,0,0,0,0,0,0,0,0,0,0,0,0,0,0,0,0,0,0,0,0,1,1,0,,0101000020E6100000F7DB8A68CBE455C073D65A66C9C64440
365,Oak Forest Heritage Preserve-East,,,activity area,,41.5994482740361,-87.7229853102362,yes,"Fieldcrest Dr, southwest of Crawford Ave","Oak Forest, IL 60452",,283,Tinley Creek,,0,0,0,1,0,0,0,0,0,1,1,0,0,1,0,0,0,0,0,0,0,0,1,0,0,0,0,0,0,0,0,0,0,0,0,0,0,0,0,0,0,0,0,0,0,1,0,0,0,0,0,1,1,0,,0101000020E610000034CAAC2F19EE55C0A9733D5DC2CC4440
371,McGinnis Slough,,,activity area,,41.6413352063953,-87.856399019819,yes,"S La Grange Rd, south of W 135th St","Orland Park, IL 60462",,275,Tinley Creek,,0,0,0,1,0,0,0,0,0,0,0,0,0,0,0,0,1,0,0,0,0,0,0,0,0,0,0,0,0,0,0,0,0,0,0,0,0,0,0,0,0,0,0,0,0,1,0,0,0,0,0,1,0,0,,0101000020E6100000BE9CD53DCFF655C0DF9EA44517D24440
143,Little Calumet Boat Launch,,,activity area,,41.650997616366,-87.6584663321192,yes,"Jackson St, east of S Ashland Ave","Cook County, IL 60827",,290,Calumet,,0,0,0,0,1,0,0,0,0,0,0,0,0,0,0,0,0,0,0,0,1,0,0,0,0,0,0,0,0,0,0,0,0,0,0,0,0,0,0,0,0,0,0,0,0,0,0,0,0,0,0,0,0,0,,0101000020E6100000037EF84F24EA55C06B08D0E353D34440
148,Burnham Woods Golf Course,,,golf course,,41.6356994124558,-87.5349333248425,yes,14201 S Burnham Ave,"Burnham, IL 60633",,299,Calumet,,0,0,0,0,0,0,0,0,0,0,0,0,0,0,0,0,0,0,0,0,0,1,0,0,0,0,0,0,0,0,0,0,0,0,0,0,0,0,0,0,0,0,0,0,0,0,0,0,0,0,0,0,0,0,,0101000020E61000004FEFFB583CE255C0CA4A2D995ED14440
150,Sand Ridge Nature Center,,,nature center,yes,41.6059330105459,-87.5657494562067,yes,15891 Paxton Ave,"South Holland, IL 60473",,303,Thorn Creek ,Nature Center,0,0,0,1,0,0,0,0,0,0,0,0,0,0,0,0,1,0,0,0,0,0,1,0,0,0,0,1,1,0,0,0,0,0,0,0,0,0,0,0,0,0,0,0,0,0,0,0,1,1,1,0,0,0,,0101000020E6100000CE08353D35E455C048EE7F368FCD4440
156,River Oaks Golf Course,,,golf course,,41.5991916877367,-87.5757276386905,yes,1 Park Avenue,"Calumet City, IL 60409",,304,Thorn Creek ,,0,0,0,0,0,0,0,0,0,0,0,0,0,0,0,0,0,0,0,0,0,1,0,0,0,0,0,0,0,0,0,0,0,0,0,0,0,0,0,0,0,0,0,0,0,0,0,0,0,0,0,0,0,0,,0101000020E61000000CE5BCB8D8E455C09D6E2F50B2CC4440
206,Potawatomi Woods,,,activity area,,42.1409296692582,-87.9011610905799,yes,"E Dundee Rd, east of N Milwaukee Ave","Cook County, IL 60062",,158,Indian Boundary,,0,0,0,0,0,0,0,0,0,1,1,0,0,1,0,0,1,0,1,0,0,0,1,0,0,0,1,0,0,1,0,0,0,0,0,1,0,0,0,0,0,0,0,0,0,0,0,0,0,0,0,1,1,1,,0101000020E6100000FA1D919FACF955C00740C0FB09124540
337,Allison Woods,,,activity area,,42.1004159121073,-87.8848414425994,yes,Milwaukee Ave &amp; Winkleman Rd,"Cook County, IL 60062",,161,Indian Boundary,,0,0,0,0,0,0,0,1,0,1,1,0,0,1,0,0,0,0,0,0,0,0,1,0,0,0,0,0,0,0,0,0,0,0,0,1,0,0,0,0,0,0,0,0,0,0,0,0,0,0,0,1,0,0,,0101000020E61000000A87003EA1F855C0DB3FB96DDA0C4540
339,Lake Avenue Woods-East,,,activity area,,42.0893008779797,-87.8840091744789,yes,"W Lake Ave/E Eucilid Ave, east of N Des Plaines River Rd","Cook County, IL 60062",,162,Indian Boundary,,0,0,0,1,0,0,0,0,0,1,1,0,0,1,0,0,0,0,0,0,0,0,1,0,0,0,0,0,0,0,0,0,0,0,0,1,0,0,0,0,0,0,0,0,0,0,0,0,0,0,0,1,1,0,,0101000020E61000000E70379B93F855C0A5360F366E0B4540
138,Bremen Grove,,,activity area,,41.6002202294361,-87.7844127859422,yes,"Oak Park Ave, south of 159th St","Cook County, IL 60477",,164,Tinley Creek,,0,0,0,0,0,0,0,0,0,1,1,0,1,1,0,0,0,0,0,0,0,0,1,0,0,0,0,0,0,0,0,0,0,0,0,1,0,1,0,0,0,0,0,0,0,0,0,0,1,1,1,0,0,0,,0101000020E6100000E58BAFD133F255C0B1E93704D4CC4440
140,Yankee Woods,,,activity area,,41.5921483824811,-87.7571073004078,yes,"Central Ave, north of 167th St","Cook County, IL 60477",,165,Tinley Creek,,0,0,0,0,0,0,0,0,0,1,1,0,0,1,0,0,1,0,0,0,0,0,1,0,0,0,0,0,0,0,0,0,0,0,1,1,0,1,0,0,0,0,1,0,0,0,0,0,0,0,0,1,1,0,,0101000020E61000001BB42D7274F055C05D91A884CBCB4440
213,Blue Beech Family Picnic Area,,,activity area,,41.9945458737548,-87.8606197771279,yes,"S River Road, south of E Devon Ave","Cook County, IL 60018",,167,Indian Boundary,,0,0,0,0,0,0,0,0,0,0,0,0,0,0,0,0,0,0,0,0,0,0,0,0,0,0,0,0,0,0,0,0,0,0,0,0,0,0,0,0,0,0,0,0,0,0,0,0,0,0,0,0,0,0,,0101000020E61000008843F96414F755C0001379474DFF4440
211,Blandings Grove Family Picnic Area,,,activity area,,41.9988368882166,-87.8619941160048,yes,"S River Road, north of E Devon Ave","Cook County, IL 60018",,169,Indian Boundary,,0,0,0,0,0,0,0,0,0,0,0,0,0,0,0,0,0,0,0,0,0,0,0,0,0,0,0,0,0,0,0,0,0,0,0,0,0,0,0,0,0,0,0,0,0,0,0,0,0,0,0,0,0,0,,0101000020E610000071655EE92AF755C0E0761CE3D9FF4440
192,Camp Dan Beard,,,camp,,42.1502767028373,-87.8977787641521,yes,200 Portwine Rd,"Northbrook, IL 60062",,171,Indian Boundary,,0,0,0,0,0,0,1,0,0,0,0,0,0,0,0,0,0,0,0,0,0,0,0,0,0,0,0,0,0,0,0,0,0,0,0,0,0,0,0,0,0,0,0,0,0,0,0,0,1,1,1,0,0,0,,0101000020E6100000E7C40F3575F955C0BA045A443C134540
239,Callahan Grove,,,activity area,,41.8491340439372,-87.8240729452461,yes,"W Cermak Rd, west of Des Plaines Ave","North Riverside, IL 60546",,173,Salt Creek,Callahan,0,0,0,0,0,0,0,0,0,0,0,0,0,0,0,0,0,0,0,0,0,0,0,0,0,0,0,0,0,0,0,0,0,0,0,0,0,0,0,0,0,0,0,0,0,0,0,0,0,0,0,0,0,0,,0101000020E61000006F56739CBDF455C0B150A26CB0EC4440
135,Bachelor's Grove Woods,,,activity area,,41.6331265815848,-87.7857958334741,yes,"W 143rd St, west of Oak Park Ave","Cook County, IL 60463",,183,Tinley Creek,,0,0,0,0,0,0,0,0,0,0,0,0,0,0,0,0,1,0,0,0,0,0,0,0,0,0,0,0,0,0,0,0,0,0,0,0,0,0,0,0,0,0,0,0,0,0,0,0,0,0,0,0,0,0,,0101000020E6100000AF869B7A4AF255C04411B54A0AD14440
179,Camp Reinberg,,,camp,,42.1425331418669,-88.0615282760851,yes,1801 N Quentin Rd,"Palatine, IL 60074",,186,Northwest,,0,0,0,0,0,0,1,0,0,1,1,0,0,1,0,0,1,0,0,0,0,0,1,0,0,0,0,0,1,0,0,0,0,0,0,0,0,1,0,0,0,0,0,0,0,0,0,0,1,1,1,0,0,0,,0101000020E610000025644B14F00356C00875A7863E124540
161,Glenwood Woods-South,,,activity area,,41.5468326067123,-87.6195062007884,yes,"Glenwood Chicago Heights Rd, west of S William St","Glenwood, IL 60425",,196,Thorn Creek ,Glenwood South,0,0,0,0,0,0,0,0,0,1,1,0,0,1,0,0,0,0,0,0,0,0,1,0,0,0,0,0,0,0,0,0,0,0,0,1,0,1,0,0,0,0,0,0,0,0,0,0,0,0,0,1,0,0,,0101000020E61000008E0356FDA5E755C0971B619CFEC54440
350,Baker's Lake Younghusband Prairie,,,activity area,,42.1359810038832,-88.1185190133831,yes,"E Dundee Rd, west of Glencrest Dr","Cook County, IL 60010",,202,Northwest,Bakers Lake,0,0,0,1,0,0,0,0,0,0,0,0,0,0,0,0,0,0,0,0,0,0,1,0,0,0,0,0,0,0,0,0,0,0,0,0,0,0,0,0,0,0,1,0,0,0,0,0,0,0,0,0,0,0,,0101000020E6100000CD9BC5D0950756C01A4756D367114540
389,Andrew Toman Grove,,,activity area,,41.8405107594058,-87.8243846747834,yes,Desplaines Ave &amp; 27th St,"North Riverside, IL 60546",,263,Salt Creek,,0,0,0,0,0,0,0,0,0,0,0,0,0,0,0,0,0,0,0,0,0,0,0,0,0,0,0,0,0,0,0,0,0,0,0,1,0,0,0,0,0,0,0,0,0,0,0,0,0,0,0,0,0,0,,0101000020E61000002961F0B7C2F455C0C8CA47DB95EB4440
127,Orland Grove,,,activity area,,41.6307531943034,-87.8655984789908,yes,"143rd St, west of Southwest Hwy","Orland Park, IL 60462",,274,Tinley Creek,,0,0,0,0,0,0,0,0,0,0,0,0,0,0,0,0,0,0,0,0,0,0,0,0,0,0,0,0,0,0,0,0,0,0,0,0,0,0,0,0,0,0,0,0,0,0,0,0,0,0,0,0,0,0,,0101000020E6100000E9AE29F765F755C0B5B04A85BCD04440
372,Orland Grassland South,,,activity area,,41.5611931832213,-87.8661820602993,yes,"104th Ave, south of 179th St","Cook County, IL 60467",,277,Tinley Creek,,0,0,0,1,0,0,0,0,0,0,1,0,0,1,0,0,1,0,0,0,0,0,1,0,0,0,0,0,0,0,0,0,0,0,0,0,0,0,0,0,0,0,1,0,0,0,0,0,0,0,0,1,1,0,,0101000020E61000008057E1866FF755C03F56A02DD5C74440
137,Catalina Grove Family Picnic Area,,,activity area,,41.6175898948664,-87.8020838028555,yes,"151st St, west of Harlem Ave","Cook County, IL 60462",,279,Tinley Creek,,0,0,0,0,0,0,0,0,0,1,1,0,0,1,0,0,0,0,0,0,0,0,1,0,0,0,0,0,0,0,0,0,0,0,0,0,0,1,0,0,0,0,0,0,0,0,0,0,0,0,0,0,0,0,,0101000020E6100000987A4D5755F355C04F65882F0DCF4440
377,St. Mihiel Woods-East,,,activity area,,41.5859117237459,-87.7540062005199,yes,"Central Ave, south of 167th St","Cook County, IL 60477",,281,Tinley Creek,,0,0,0,0,0,0,0,0,0,1,1,0,0,1,0,0,0,0,0,0,0,0,1,0,0,0,0,0,0,0,0,0,0,0,0,0,0,0,0,0,0,0,0,0,0,0,0,0,0,0,0,0,0,0,,0101000020E6100000B20D39A341F055C075EAC527FFCA4440
145,Kickapoo Woods,,,activity area,,41.6312513498305,-87.6443048463573,yes,"Halsted St, south of W 144th St","Riverdale, IL 60827",,289,Calumet,,0,0,0,0,0,0,0,1,0,1,1,0,0,1,0,0,1,0,0,0,0,0,1,0,0,1,0,0,0,0,0,0,0,0,0,0,0,1,0,0,0,0,1,0,0,0,0,0,0,0,0,1,1,1,,0101000020E610000092F0644A3CE955C0FB891FD8CCD04440
210,Chippewa Woods,,,activity area,,42.0058625057575,-87.8655728150426,yes,"S River Rd, south of W Touhy Ave","Cook County, IL 60018",,291,Indian Boundary,,0,0,0,0,0,0,0,0,0,0,0,0,0,0,0,0,0,0,1,1,0,0,0,0,0,0,0,0,0,1,0,0,0,0,0,1,0,0,0,0,0,0,0,0,0,0,0,0,0,0,0,0,0,0,,0101000020E6100000863A858B65F755C02940431AC0004540
208,Iroquois Woods,,,activity area,,42.0111744870281,-87.8641605932528,yes,"E Touhy Ave, west of Talcott Rd","Cook County, IL 60018",,292,Indian Boundary,,0,0,0,0,0,0,0,0,0,0,0,0,0,0,0,0,0,0,0,0,0,0,0,0,0,0,0,0,0,0,0,0,0,0,1,0,0,0,0,0,0,0,0,0,0,0,0,0,0,0,0,1,0,0,,0101000020E6100000D2A03B684EF755C0E72A642A6E014540
277,Linne Woods,,,activity area,,42.0431798236324,-87.7854703159286,yes,"W Dempster St, east of Lehigh Ave","Morton Grove, IL 60053",,293,North Branch,,0,0,0,0,0,0,0,1,0,1,1,0,0,1,0,0,1,1,0,0,0,0,1,0,0,0,0,0,0,0,0,0,0,0,0,1,0,1,0,0,0,0,1,0,0,0,0,0,0,1,0,0,1,1,,0101000020E61000001AB9492545F255C0982C9DEA86054540
154,Calumet City Playfield,,,activity area,,41.6074573111872,-87.5345571792198,yes,Freeland Ave &amp; Warren St,"Calumet City, IL 60409",,302,Thorn Creek ,Playfield,0,0,0,0,0,0,0,0,0,0,0,0,0,0,0,0,0,0,0,0,0,0,0,0,0,0,0,0,0,0,0,0,0,0,0,0,0,0,0,0,0,0,0,0,0,0,0,0,0,0,0,0,0,0,,0101000020E6100000D3A5502F36E255C0F3A14229C1CD4440
188,Woodland Meadow,,,activity area,,42.0075658021447,-88.0308113776329,yes,"Rohlwing Rd, north of Biesterfield Rd","Elk Grove Village, IL 60007",,309,Northwest,Soccer Field,0,0,0,0,0,0,0,0,0,1,1,0,0,1,0,0,0,0,0,0,0,0,1,0,0,0,0,0,0,0,0,0,0,0,0,0,0,1,0,0,0,0,0,0,0,0,0,0,0,0,0,1,1,0,,0101000020E6100000CED148D0F80156C0C1638CEAF7004540
133,Goeselville Grove Family Picnic Area,,,activity area,,41.6289977760962,-87.7772896823128,yes,"Ridgeland Ave, south of E 143rd St","Cook County, IL 60452",,182,Tinley Creek,,0,0,0,0,0,0,0,0,0,1,1,0,0,1,0,0,0,0,0,0,0,0,1,0,0,0,0,0,0,0,0,0,0,0,0,0,0,1,0,0,0,0,0,0,0,0,0,0,0,0,0,0,0,0,,0101000020E61000004D43391DBFF155C07DCBC6FF82D04440
241,National Grove-South,,,activity area,,41.8389220614475,-87.8262254319534,yes,"Groveland Ave, north of 31st St","North Riverside, IL 60546",,318,Salt Creek,,0,0,0,0,0,0,0,0,0,0,0,0,0,0,0,0,0,0,0,0,0,0,0,0,0,0,0,0,0,0,0,0,0,0,1,1,0,0,0,0,0,0,0,0,0,0,0,0,0,1,0,1,0,0,,0101000020E61000004357A2E0E0F455C0AEE750CC61EB4440
242,Zoo Woods,,,activity area,,41.8322140755827,-87.827851841014,yes,"1st Ave, south of 31st Ave","Riverside, IL 60546",,319,Salt Creek,,0,0,0,0,0,0,0,0,0,0,0,0,0,0,0,0,1,0,0,0,0,0,0,0,0,0,0,0,0,0,0,0,0,0,0,0,0,0,0,0,0,0,0,0,0,0,0,0,0,0,0,1,0,0,,0101000020E6100000A9C54986FBF455C002F3A6FD85EA4440
165,Lansing Woods,,,activity area,,41.5562677951184,-87.5508426857174,yes,"186th St, east of Torrence Ave","Cook County, IL 60438",,322,Thorn Creek ,Lansing,0,0,0,0,0,0,0,0,0,1,1,0,0,1,0,0,0,0,0,0,0,0,1,0,0,0,0,0,0,0,0,0,0,0,1,0,0,1,0,0,0,0,0,0,0,0,0,0,0,0,0,1,1,0,,0101000020E61000006A19AE0141E355C001ED79C833C74440
306,Midlothian Meadows,,,activity area,,41.6102983743372,-87.7213583545988,yes,"Crawford Ave, north of W 159th St","Cook County, IL 60428",,83,Tinley Creek,,0,0,0,0,0,0,0,0,0,1,1,0,0,1,0,1,0,0,0,0,0,0,1,0,1,0,0,0,0,0,0,0,0,0,0,1,0,1,0,0,0,0,0,0,0,0,0,0,0,0,0,1,1,1,,0101000020E6100000AD6C3BBC2AEE55C0414AD3411ECE4440
153,Green Lake Woods,,,activity area,,41.6042830636646,-87.5563066701709,yes,"Torrence Ave, north of 159th St/River Oaks Dr","Calumet City, IL 60409",,93,Thorn Creek ,Green Lake,0,0,0,0,0,0,0,0,0,1,1,0,0,1,0,0,0,0,1,1,0,0,1,0,1,0,0,0,0,0,0,0,0,0,1,0,0,1,0,0,0,0,0,0,0,0,0,0,0,1,0,0,1,0,,0101000020E610000093BB4A879AE355C0B1FBBD2559CD4440
20,Dixmoor Playfield,,,activity area,,41.634736801691,-87.6592241700086,yes,"Wood St, south of Thornton Rd","Dixmoor, IL 60426",,323,Calumet,,0,0,0,0,0,0,0,0,0,0,0,0,0,0,0,0,0,0,0,0,0,0,0,0,0,0,0,0,0,0,0,0,0,0,0,1,0,0,0,0,0,0,0,0,0,0,0,0,0,0,0,1,1,0,,0101000020E6100000D9BA92BA30EA55C0506A360E3FD14440
313,Dan Ryan Woods-West,,,activity area,,41.7376618343069,-87.681137067012,yes,"S Western Ave, north of W 87th St","Chicago, IL 60620",,137,Calumet,Upstairs,0,0,0,0,0,0,0,0,0,0,0,0,0,0,0,0,0,0,0,0,0,0,0,1,0,0,0,0,0,0,0,0,1,1,1,0,0,0,1,0,0,0,1,0,0,0,0,0,1,1,1,0,0,0,,0101000020E61000003BBAECBF97EB55C083EDF6B36BDE4440
205,Northwestern Woods,,,activity area,,42.036501684567,-87.8812411215376,yes,"Joseph Schwab Rd, south of Minor St","Des Plaines, IL 60016",,324,Indian Boundary,,0,0,0,0,0,0,0,1,0,0,0,0,0,0,0,0,0,0,0,0,0,0,0,0,0,0,0,0,0,0,0,0,0,0,0,0,0,0,0,0,0,0,0,0,0,0,0,0,0,0,0,0,0,0,,0101000020E61000003C39294166F855C066BB5216AC044540
384,Halsted Woods,,,activity area,,41.5125180649216,-87.63791502814,yes,,"Chicago Heights, IL 60411",,9,Thorn Creek ,,0,0,0,0,0,0,0,0,0,0,0,0,0,0,0,0,0,0,0,0,0,0,0,0,0,0,0,0,0,0,1,0,0,0,0,0,0,0,0,0,0,0,0,0,0,0,0,0,0,0,0,0,0,0,,0101000020E61000002074F2EDDAE855C0A940180A8FC14440
42,Westchester Woods,,,activity area,,41.8474524561742,-87.8690492912182,yes,"W Cermak Rd, east of S Manheim Rd/S La Grange Rd","Cook County, IL 60526",,11,Salt Creek,Westchester,0,0,0,0,0,0,0,0,0,0,0,0,0,0,0,0,0,0,0,0,0,0,0,0,0,0,0,0,0,0,0,0,0,0,1,0,0,0,1,0,0,0,0,0,0,0,0,0,0,0,0,1,1,0,,0101000020E61000003A19EB809EF755C06F17745279EC4440
379,Orland Grassland Land and Water Reserve,,,nature preserve,,41.5762479008459,-87.8623330620577,yes,"W 167th St, west of S La Grange Rd","Cook County, IL 60467",,276,Tinley Creek,,0,0,0,1,0,0,0,0,0,0,1,0,0,1,0,0,1,0,0,0,0,0,1,0,0,0,0,0,0,0,0,0,0,0,0,0,0,0,0,0,0,0,1,0,1,0,0,0,0,0,0,1,1,0,,0101000020E610000006F3027730F755C0CB42C07DC2C94440
260,Chicago Portage National Historic Site,,,activity area,,41.8053117330451,-87.8025320640396,yes,"S Harlem Ave, south of 47th St","Lyons, IL 60402",,245,Salt Creek,Portage,0,0,0,0,0,0,0,0,0,1,1,0,0,1,0,0,1,0,0,0,0,0,1,0,0,0,0,0,0,0,0,1,0,0,0,0,0,1,0,0,0,0,1,0,0,0,0,0,0,0,0,1,1,0,,0101000020E6100000A64272AF5CF355C0C141727414E74440
142,"Joe Louis ""The Champ"" Golf Course",,,golf course,,41.6537129128625,-87.6440941140806,yes,13100 S Halsted St,"Riverdale, IL 60827",,266,Calumet,,0,0,0,0,0,0,0,0,0,0,0,0,0,0,0,0,0,0,0,0,0,1,0,0,0,0,0,0,0,0,0,0,0,0,0,0,0,0,0,0,0,0,0,0,0,0,1,0,0,0,0,0,0,0,,0101000020E61000006AE184D638E955C0CDDB5EDDACD34440
21,Indian Hill Woods,,,activity area,,41.500380708745,-87.6494012999376,yes,,"Chicago Heights, IL 60411",,0,Thorn Creek ,,0,0,0,0,0,0,0,0,0,0,0,0,0,0,0,0,1,0,0,0,0,0,0,0,0,0,0,0,0,0,1,0,0,0,0,0,0,0,1,0,0,0,0,0,0,0,0,0,0,0,0,0,0,0,,0101000020E6100000924D78CA8FE955C0F8CD9D790CC04440
74,McGinty Slough,,,activity area,,41.6591317588222,-87.9246980392589,yes,,"Cook County, IL 60439",297,0,Palos,,0,0,0,0,0,0,0,0,0,0,0,0,0,0,0,0,0,0,1,0,0,0,0,0,0,0,0,0,0,0,1,0,0,0,0,0,0,0,0,0,0,0,0,0,0,0,0,0,0,0,0,0,0,0,,0101000020E6100000B852AF402EFB55C0B4F2F16D5ED44440
12,George W. Dunne National Golf Course,,,golf course,,41.6001490639521,-87.7638582069222,yes,16310 S Central Ave,"Oak Forest, IL 60452",,280,Tinley Creek,,0,0,0,0,0,0,0,0,0,0,0,0,0,0,0,0,0,0,0,0,0,1,0,0,0,0,0,0,0,0,0,0,0,0,0,0,0,0,0,0,0,0,0,0,0,0,1,0,0,0,0,0,0,0,,0101000020E6100000C860880DE3F055C017333DAFD1CC4440
92,Salt Creek Woods Nature Preserve,,,nature preserve,,41.8318805351405,-87.8893346687094,yes,,"La Grange Park, IL 60526",151,0,Salt Creek,,0,0,0,1,0,0,0,0,0,0,0,0,0,0,0,0,1,0,0,0,0,0,1,0,0,0,0,0,0,0,1,0,0,0,0,0,0,0,0,0,0,0,1,0,1,0,0,0,0,0,0,0,0,0,,0101000020E61000009353F5DBEAF855C0BC4DB60F7BEA4440
43,Wolf Road Prairie Nature Preserve,,,nature preserve,,41.8385172657,-87.9046266903584,yes,"31st St, west of Wolf Rd","Cook County, IL 60154",,251,Salt Creek,,0,0,0,1,0,0,0,0,0,0,0,0,0,0,0,0,1,0,0,0,0,0,0,0,0,0,0,0,0,0,0,0,0,0,0,0,0,0,0,0,0,0,1,0,1,0,0,0,0,0,0,0,0,0,,0101000020E6100000688B5867E5F955C00EA8A48854EB4440
23,Perkins Woods,,,activity area,,42.0599441421809,-87.7123799219771,yes,Ewing Ave &amp; Grant St,"Evanston, IL 60201",,0,North Branch,,0,0,0,1,0,0,0,0,0,0,0,0,0,0,0,0,1,0,0,0,0,0,0,0,0,0,0,0,0,0,1,0,0,0,0,0,0,0,0,0,0,0,1,0,0,0,0,0,0,0,0,0,0,0,,0101000020E610000002CEF4A197ED55C07920E93FAC074540
19,Wentworth Prairie,,,activity area,,41.6180913233709,-87.5458031363017,yes,,"Calumet City, IL 60409",,0,Thorn Creek ,,0,0,0,0,0,0,0,0,0,0,0,0,0,0,0,0,1,0,0,0,0,0,0,0,0,0,0,0,0,0,1,0,0,0,0,0,0,0,0,0,0,0,0,0,0,0,0,0,0,0,0,0,0,0,,0101000020E6100000161E4770EEE255C0DFE8D19D1DCF4440
65,Spring Lake Nature Preserve,,,nature preserve,,42.1457695340063,-88.2155225046444,yes,,"Barrington Hills, IL 60010",,0,Northwest,,0,0,0,0,0,0,0,0,0,0,0,0,0,0,0,0,1,0,0,0,0,0,0,0,0,0,0,0,0,0,1,0,0,0,0,0,0,0,0,0,0,0,0,0,1,0,0,0,0,0,0,0,0,0,,0101000020E6100000FC3FE71ECB0D56C0AFA77A93A8124540
99,Wolf Lake Overlook,,,activity area,,41.6782487667657,-87.5295258210979,yes,,"Chicago, IL 60617",,0,Calumet,,0,0,0,1,0,0,0,0,0,0,0,0,0,0,0,0,1,0,0,0,0,0,0,0,0,0,0,0,0,0,1,1,0,0,0,0,0,0,0,0,0,0,0,0,0,1,0,0,0,0,0,0,0,0,,0101000020E6100000310045C0E3E155C0CAE707DBD0D64440
108,Baker's Lake Nature Preserve,,,nature preserve,,42.1387352411888,-88.1229486000005,yes,,"Cook County, IL 60010",201,0,Northwest,,0,0,0,1,0,0,0,0,0,0,0,0,0,0,0,0,1,0,0,0,0,0,1,0,0,0,0,0,0,0,1,0,0,0,0,0,0,0,0,0,0,0,1,0,1,0,0,0,0,0,0,0,0,0,,0101000020E61000001060C9BAE40756C08C131FCB2C124540
64,Kloempken Prairie,,,activity area,,42.0560644867655,-87.877466131064,yes,,"Cook County, IL 60016",,0,Indian Boundary,,0,0,0,0,0,0,0,0,0,0,0,0,0,0,0,0,1,0,0,0,0,0,0,0,0,0,0,0,0,0,1,0,0,0,0,0,0,0,0,0,0,0,1,0,0,0,0,0,0,0,0,0,0,0,,0101000020E61000001F11B46728F855C0FA8F001F2D074540
91,Burnham Prairie Nature Preserve,,,nature preserve,,41.6386733260067,-87.5494566247011,yes,,"Burnham, IL 60633",300,0,Thorn Creek,,0,0,0,1,0,0,0,0,0,0,0,0,0,0,0,0,1,0,0,0,0,0,0,0,0,0,0,0,0,0,1,0,0,0,0,0,0,0,0,0,0,0,0,0,1,1,0,0,0,0,0,0,0,0,,0101000020E61000005C6A1E4C2AE355C061032C0CC0D14440
70,Powderhorn Prairie and Marsh Nature Preserve,,,nature preserve,,41.6462654258348,-87.5332752786501,yes,,"Chicago, IL 60633",,0,Calumet,,0,0,0,1,0,0,0,0,0,0,0,0,0,0,0,0,1,0,0,0,0,0,0,0,0,0,0,0,0,0,1,0,0,0,0,0,0,0,0,0,0,0,1,0,1,1,0,0,0,0,0,0,0,0,,0101000020E61000005064A22E21E255C07B3F52D3B8D24440
81,Rolling Knolls,,,activity area,,42.036030482894,-88.2307713965283,yes,"Rohrssen Rd, south of Bode Rd","Elgin, IL 60120",,188,Northwest,,0,0,0,0,0,0,0,0,0,0,0,1,0,1,0,1,0,0,1,0,0,0,1,1,0,0,0,0,0,0,0,0,0,1,0,0,0,0,1,0,0,0,0,0,0,0,0,0,1,1,1,1,1,0,,0101000020E6100000413C64F5C40E56C032D898A59C044540
50,Watersmeet Woods,,,activity area,,42.092395994616,-87.7731923577862,yes,,"Cook County, IL 60093",,0,North Branch,,0,0,0,0,0,0,0,0,0,0,0,0,0,0,0,0,1,0,0,0,0,0,0,0,0,0,0,0,0,0,1,0,0,0,0,0,0,0,0,0,0,0,1,0,0,0,0,0,0,0,0,0,0,0,,0101000020E61000005D8DCCFB7BF155C02194C7A1D30B4540
84,Sand Ridge Nature Preserve,,,nature preserve,,41.6136057653046,-87.5556691249524,yes,,"Calumet City, IL 60409",,0,Thorn Creek ,,0,0,0,0,0,0,0,0,0,0,0,0,0,0,0,0,1,0,0,0,0,0,0,0,0,0,0,0,0,0,1,0,0,0,0,0,0,0,0,0,0,0,0,0,1,0,0,0,0,0,0,0,0,0,,0101000020E610000055C43B1590E355C0634F3BA28ACE4440
103,Algonquin Woods,,,activity area,,42.0177071722708,-87.8713454711081,yes,,"Cook County, IL 60018",,0,Indian Boundary,Campground Woods,0,0,0,0,0,0,0,0,0,0,0,0,0,0,0,0,0,0,0,0,0,0,0,0,0,0,0,0,0,0,1,0,0,0,0,0,0,0,0,0,0,0,0,0,0,0,0,0,0,0,0,0,0,0,,0101000020E6100000537BCB1FC4F755C066E7863A44024540
46,Chipilly Woods,,,activity area,,42.1335743692229,-87.8051695640779,yes,,"Northbrook, IL 60062",,0,North Branch,,0,0,0,0,0,0,0,0,0,0,0,0,0,0,0,0,0,0,0,0,0,0,0,0,0,0,0,0,0,0,1,0,0,0,0,0,0,0,0,0,0,0,0,0,0,0,0,0,0,0,0,0,0,0,,0101000020E6100000BC5CECE587F355C0BCB205F718114540
37,Thatcher Woods Glen,,,activity area,,41.8933005192391,-87.8283265013158,yes,"Chicago Ave, west of Thatcher Ave","River Forest, IL 60305",,172,Indian Boundary,,0,0,0,0,0,0,0,0,0,0,0,0,0,0,0,0,1,0,1,0,0,0,0,0,0,0,0,0,0,0,0,0,0,0,0,0,0,0,0,0,0,0,1,0,0,0,0,0,0,0,0,0,0,0,0101000020E61000007BF6BB3AF7F455C0AF7C951569F24440,0101000020E6100000EC63284D03F555C0DBD0E1AB57F24440
82,Dolton Avenue Prairie,,,activity area,,41.6340028311352,-87.5708694432508,yes,,"Calumet City, IL 60409",,0,Calumet,,0,0,0,1,0,0,0,0,0,0,0,0,0,0,0,0,1,0,0,0,0,0,0,0,0,0,0,0,0,0,1,0,0,0,0,0,0,0,0,0,0,0,1,0,0,0,0,0,0,0,0,0,0,0,,0101000020E61000000E43FD1F89E455C00DA6380127D14440
40,Thomas Jefferson Woods,,,activity area,,41.8805970783322,-87.8266900165327,yes,,"River Forest, IL 60305",,0,Indian Boundary,,0,0,0,0,0,0,0,0,0,0,0,0,0,0,0,0,1,0,0,0,0,0,0,0,0,0,0,0,0,0,1,0,0,0,0,0,0,0,0,0,0,0,1,0,0,0,0,0,0,0,0,0,0,0,,0101000020E6100000013C3E7DE8F455C0F031B267B7F04440
109,Bluff Spring Fen Nature Preserve,,,nature preserve,,42.0143295204857,-88.2543180820433,yes,,"Elgin, IL 60120",,0,Northwest,,0,0,0,1,0,0,0,0,0,0,0,0,0,0,0,0,1,0,0,0,0,0,1,0,0,0,0,0,0,0,0,0,0,0,0,0,0,0,0,0,0,0,1,0,1,1,0,0,0,0,0,0,0,0,,0101000020E6100000124A59BF461056C03EEDBA8CD5014540
113,Camp Shabbona Woods,,,camp,,41.605377793893,-87.5630372101531,yes,15810 S Torrence Ave,"South Holland, IL 60473",,92,Thorn Creek ,Shabbona,0,0,0,0,0,0,1,0,0,0,0,0,0,0,0,0,0,0,0,0,0,0,0,0,0,0,0,0,1,0,0,0,0,0,0,0,0,0,0,0,0,0,0,0,0,0,0,0,1,1,1,0,0,0,,0101000020E6100000770239CD08E455C0613F01057DCD4440
101,Jurgensen Woods North Nature Preserve,,,nature preserve,,41.5553016910371,-87.5874930103787,yes,,"Cook County, IL 60476",,0,Thorn Creek ,,0,0,0,1,0,0,0,0,0,0,0,0,0,0,0,0,0,0,0,0,0,0,0,0,0,0,0,0,0,0,0,0,0,0,0,0,0,0,0,0,0,0,0,0,1,0,0,0,0,0,0,0,0,0,,0101000020E61000001D8D487C99E555C07D35352014C74440
232,Thatcher Woods,,,activity area,,41.8958578810614,-87.8308902275866,yes,"Chicago Ave, west of Thatcher Ave","River Forest, IL 60305",,27,Indian Boundary,,0,0,0,1,0,0,0,0,0,0,0,0,0,0,0,1,1,0,0,0,0,0,0,1,0,0,0,0,0,0,0,0,1,1,1,1,0,0,0,0,0,0,1,0,0,0,0,0,1,1,1,1,1,1,,0101000020E61000003783344E2DF555C0DD829678ABF24440
243,Brookfield Woods,,,activity area,,41.8361021891075,-87.8390820642009,yes,"31st St, west of 1st Ave","Brookfield, IL 60513",,28,Salt Creek,Brookfield,0,0,0,0,0,0,0,0,0,1,1,0,0,1,0,0,1,0,0,0,0,0,1,0,0,0,0,0,0,0,0,0,0,0,1,1,0,1,0,0,0,0,1,0,0,0,0,0,0,0,0,1,1,1,,0101000020E6100000CC194285B3F555C05B2A836505EB4440
247,Brezina Woods,,,activity area,,41.8439995223743,-87.8737399389314,yes,"N La Grange Rd, south of W Cermak Rd","Cook County, IL 60526",,29,Salt Creek,,0,0,0,0,0,0,0,0,0,1,1,0,0,1,0,0,1,0,0,0,0,0,1,0,0,0,0,0,0,0,0,0,0,0,1,1,0,1,0,0,0,0,0,0,0,0,0,0,0,0,0,1,0,0,,0101000020E6100000D7BAEB5AEBF755C0FB37252D08EC4440
249,LaGrange Park Woods,,,activity area,,41.8333334802784,-87.8747941580405,yes,"W 31st St, west of S La Grange Rd","La Grange Park, IL 60526",,30,Salt Creek,LaGrange,0,0,0,0,0,0,0,0,0,0,0,0,0,0,0,0,0,0,0,0,0,0,0,0,0,0,0,0,0,0,0,0,0,0,1,0,0,0,0,0,0,0,0,0,0,0,0,0,0,0,0,1,0,0,,0101000020E610000004E1A2A0FCF755C08D3AE6ABAAEA4440
254,Cermak Woods,,,activity area,,41.8198402291496,-87.8112201802962,yes,7600 W Ogden Ave,"Lyons, IL 60534",,336,Salt Creek,Cermak,0,0,0,0,0,0,0,0,0,1,1,0,0,1,0,0,1,0,1,0,0,0,1,0,0,0,0,0,0,0,0,0,0,0,0,0,0,0,0,0,0,0,0,0,0,0,0,0,0,0,0,1,0,1,0101000020E61000000B114D1B1AF455C0C389D13CFEE84440,0101000020E6100000910E0C08EBF355C048124E86F0E84440
255,White Eagle Woods-North,,,activity area,,41.8194552655581,-87.8075184070441,yes,Haas Ave &amp; Oakwood Ave,"Lyons, IL 60534",,38,Salt Creek,White Eagle 1,0,0,0,0,0,0,0,0,0,0,0,0,0,0,0,0,0,0,0,0,0,0,0,0,0,0,0,0,0,0,0,0,0,0,0,1,0,0,0,0,0,0,0,0,0,0,0,0,0,0,0,1,0,0,,0101000020E6100000074BAF61AEF355C0BA0DFFE8E3E84440
228,Jerome Huppert Woods,,,activity area,,41.9209089495726,-87.8336038538782,yes,"N Thatcher Ave, south of W Fullerton Ave","River Grove, IL 60171",,305,Indian Boundary,,0,0,0,0,0,0,0,0,0,1,1,0,0,1,0,0,0,0,0,0,0,0,1,0,0,0,0,0,0,0,0,0,0,0,0,1,0,0,0,0,0,0,0,0,0,0,0,0,0,0,0,1,0,0,,0101000020E61000007F8EFAC359F555C009812E58E0F54440
278,Wayside Woods,,,activity area,,42.0424283847892,-87.7912467881798,yes,"Lehigh Ave, north of W Dempster Ave","Morton Grove, IL 60053",,2,North Branch,,0,0,0,0,0,0,0,0,0,0,0,0,0,0,0,0,1,0,0,0,0,0,0,0,0,0,0,0,0,1,0,0,0,0,0,1,0,0,0,0,0,0,1,0,0,0,0,0,0,0,0,1,0,0,,0101000020E6100000069391C9A3F255C0B78B164B6E054540
234,Maywood Grove,,,activity area,,41.8907348183977,-87.8324307583225,yes,"Des Plaines Ave, north of Lake St","Maywood, IL 60153",,8,Indian Boundary,,0,0,0,0,0,0,0,0,0,0,0,0,0,0,0,0,0,0,0,0,0,0,0,0,0,0,0,0,0,0,0,0,0,0,0,1,0,0,0,0,0,0,0,0,0,0,0,0,0,0,0,1,0,0,,0101000020E610000082CBA88B46F555C09E36399903F24440
248,Possum Hollow Woods,,,activity area,,41.8358203522537,-87.878901042921,yes,"W 31st St, west of S La Grange Rd","Cook County, IL 60526",,10,Salt Creek,Possum,0,0,0,0,0,0,0,0,0,0,0,0,0,0,0,0,1,0,0,0,0,0,0,0,0,0,0,0,0,0,0,0,0,0,1,1,0,0,0,0,0,0,0,0,0,0,0,0,0,0,0,1,1,0,,0101000020E610000004F128EA3FF855C064214B29FCEA4440
231,Silver Creek Family Picnic Area,,,activity area,,41.9006040669426,-87.8344277818416,yes,"N 1st Ave, north of Chicago Ave","Melrose Park, IL 60160",,18,Indian Boundary,,0,0,0,0,0,0,0,0,0,0,0,0,0,0,0,0,1,0,0,0,0,0,0,0,0,0,0,0,0,0,0,0,0,0,0,0,0,0,0,0,0,0,0,0,0,0,0,0,0,0,0,0,0,0,,0101000020E61000008B78C84367F555C0E6147BFE46F34440
340,Lake Avenue Woods-West,,,activity area,,42.0886793575426,-87.8908761566271,yes,"N Des Plaines River Rd, north of W Lake Ave/E Euclid Ave","Cook County, IL 60056",,13,Indian Boundary,,0,0,0,0,0,0,0,0,0,0,0,0,0,0,0,0,0,0,0,0,0,0,0,0,0,0,0,0,0,0,0,0,0,0,0,1,0,0,0,0,0,0,0,0,0,0,0,0,0,0,0,1,0,0,,0101000020E6100000FC5F6D1D04F955C0E93C5ED8590B4540
269,Blue Star Memorial Woods,,,activity area,,42.0790179616355,-87.7751659641333,yes,"E Lake Ave, east of Wagner Rd","Glenview, IL 60025",,14,North Branch,,0,0,0,0,0,0,0,0,0,1,1,0,0,1,0,1,1,0,0,0,0,0,1,0,0,0,0,0,0,0,0,0,0,0,0,1,0,1,0,0,0,0,1,0,0,0,0,0,0,0,0,1,1,0,,0101000020E6100000313BB4519CF155C0B082B4421D0A4540
342,Camp Pine Woods,,,activity area,,42.0846061245928,-87.8882174285681,yes,"W Lake Ave/E Eucilid Ave, east of N Des Plaines River Rd","Cook County, IL 60056",,15,Indian Boundary,,0,0,0,0,0,0,0,0,0,1,1,0,0,1,0,0,0,0,0,0,0,0,1,0,0,0,0,0,0,0,0,0,0,0,1,0,0,0,0,0,0,0,0,0,0,0,0,0,0,0,0,1,0,0,,0101000020E6100000F9DBE98DD8F855C06B159D5FD40A4540
171,Schubert's Woods,,,activity area,,41.4819627837178,-87.6591791127108,yes,"Sauk Trail, west of Ashland Ave","Cook County, IL 60475",,17,Thorn Creek ,Schuberts,0,0,0,0,0,0,0,0,0,1,1,0,0,1,0,0,0,0,0,0,0,0,1,0,0,0,0,0,0,0,0,0,0,0,0,1,0,1,0,0,0,0,0,0,0,0,0,0,0,0,0,1,1,0,,0101000020E610000024D396FD2FEA55C087FADCF4B0BD4440
229,Evans Field,,,activity area,,41.9131317474418,-87.8266771574922,yes,"N Thatcher Ave, north of North Ave","River Grove, IL 60171",,19,Indian Boundary,,0,0,0,0,0,0,0,0,0,1,1,0,0,1,0,0,0,0,0,0,0,0,1,0,0,0,0,0,0,0,0,0,0,0,0,1,0,0,0,0,0,0,0,0,0,0,0,0,0,1,0,0,0,0,,0101000020E6100000E2F14E47E8F455C0D3194880E1F44440
230,Sunset Bridge Meadow,,,activity area,,41.909217855042,-87.8307008681009,yes,"North Ave, east of N 1st Ave","River Grove, IL 60171",,23,Indian Boundary,,0,0,0,0,0,0,0,0,0,1,1,0,0,1,0,0,0,0,0,0,0,0,1,0,0,0,0,0,0,0,0,0,0,0,0,1,0,0,0,0,0,0,0,0,0,0,0,0,0,1,0,0,0,0,,0101000020E61000002150F9332AF555C01D2C2C4061F44440
352,Robinson Homestead Family Picnic Area,,,activity area,,41.9625497285638,-87.8604100972815,yes,"Des Plaines River Rd, south of Lawrence Ave","Schiller Park, IL 60176",,24,Indian Boundary,,0,0,0,0,0,0,0,0,0,0,0,0,0,0,0,0,1,0,0,0,0,0,0,0,0,0,0,0,0,0,0,0,0,0,0,0,0,0,0,0,0,0,0,0,0,0,0,0,0,0,0,0,0,0,,0101000020E61000003A3E83F510F755C0447A5AD434FB4440
256,White Eagle Woods-South,,,activity area,,41.816782346205,-87.8051573041227,yes,"40th St, west of S Harlem Ave","Lyons, IL 60534",,39,Salt Creek,White Eagle2 or @ grove 3,0,0,0,0,0,0,0,0,0,0,0,0,0,0,0,0,0,0,0,0,0,0,0,0,0,0,0,0,0,0,0,0,0,0,0,1,0,0,0,0,0,0,0,0,0,0,0,0,0,0,0,1,0,0,,0101000020E6100000ED5580B287F355C04B73EC528CE84440
240,McCormick Woods,,,activity area,,41.8360866824027,-87.8289621001369,yes,"1st Ave, north of 31st St","North Riverside, IL 60546",,42,Salt Creek,McCormick,0,0,0,0,0,0,0,0,0,0,0,0,0,0,0,0,1,0,0,0,0,0,0,0,0,0,0,0,0,0,0,0,0,0,0,1,0,0,0,0,0,0,1,0,0,0,0,0,0,0,0,1,0,0,,0101000020E6100000896D0DB70DF555C03CC56EE304EB4440
353,National Grove-North,,,activity area,,41.8407613196239,-87.8295872578066,yes,"W 26th St, east of 1st Ave","North Riverside, IL 60546",,43,Salt Creek,National 3,0,0,0,0,0,0,0,0,0,0,0,0,0,0,0,0,0,0,0,0,0,0,0,0,0,0,0,0,0,0,0,0,0,0,0,1,0,0,0,0,0,0,0,0,0,0,0,0,0,0,0,1,0,1,,0101000020E61000004B5D27F517F555C060C321119EEB4440
238,Schuth's Grove,,,activity area,,41.8510950088303,-87.8235663229637,yes,"W Cermak Rd, west of Des Plaines Ave","Cook County, IL 60546",,44,Salt Creek,,0,0,0,0,0,0,0,0,0,0,0,0,0,0,0,0,0,0,0,0,0,0,0,0,0,0,0,0,0,0,0,0,0,0,1,1,0,0,0,0,0,0,0,0,0,0,0,0,0,0,0,1,0,0,,0101000020E6100000D3CD854FB5F455C0815B66AEF0EC4440
250,Bemis Woods-South,,,activity area,,41.8221740811255,-87.909560995167,yes,"Ogden Ave, west of Wolf Rd","Cook County, IL 60558",,46,Salt Creek,,0,0,0,1,0,0,0,0,0,1,1,0,0,1,0,0,1,0,0,0,0,0,1,0,0,0,0,0,0,0,0,0,0,0,0,1,0,1,0,0,0,0,1,1,0,0,0,1,1,1,0,0,1,0,,0101000020E610000067FD513F36FA55C0C60613003DE94440
177,Bur Oak Woods,,,activity area,,41.6423594279017,-87.7935023869444,yes,"Harlem Ave, south of W 135th St","Cook County, IL 60463",,49,Tinley Creek,,0,0,0,0,0,0,0,0,0,0,0,0,0,0,0,0,1,0,0,0,0,0,0,0,0,0,0,0,0,0,0,0,0,0,1,1,0,0,0,0,0,0,0,0,0,0,0,0,0,0,0,1,0,0,,0101000020E6100000564E3CBEC8F255C0BD8E6FD538D24440
130,Elizabeth A. Conkey Forest-North,,,activity area,,41.6507179743807,-87.7613509580493,yes,"Central Ave, north of W 135th St","Cook County, IL 60463",,50,Tinley Creek,,0,0,0,1,0,0,0,0,0,0,0,0,0,0,0,0,0,0,0,0,0,0,0,0,1,0,0,0,0,0,0,0,0,0,1,1,0,0,0,0,0,0,0,0,0,0,0,0,0,0,0,1,1,1,,0101000020E610000068665EF9B9F055C0387101BA4AD34440
131,Elizabeth A. Conkey Forest-South,,,activity area,,41.647981283509,-87.7631613291402,yes,"W 135th St, west of Central Ave","Cook County, IL 60463",,51,Tinley Creek,,0,0,0,1,0,0,0,0,0,0,0,0,0,0,0,0,0,0,0,0,0,0,0,0,1,0,0,0,0,0,0,0,0,0,1,1,0,0,0,0,0,0,0,0,0,0,0,0,0,0,0,1,0,0,,0101000020E6100000A78E9DA2D7F055C0A88BFA0CF1D24440
176,Tinley Creek Woods,,,activity area,,41.634113112403,-87.7931189573635,yes,"Harlem Ave, north of W 143rd St","Cook County, IL 60483",,52,Tinley Creek,,0,0,0,0,0,0,0,0,0,0,0,0,0,0,0,0,1,0,0,0,0,0,0,0,0,0,0,0,0,1,0,0,0,0,0,1,0,0,0,0,0,0,0,0,0,0,0,0,0,0,0,1,0,0,,0101000020E6100000B3ED0376C2F255C02BDE539E2AD14440
114,Sunset Ridge Woods,,,activity area,,42.1291200069135,-87.7905468027302,yes,,"Northbrook, IL 60062",,0,North Branch,,0,0,0,0,0,0,0,0,0,0,0,0,0,0,0,0,0,0,0,0,0,0,0,0,0,0,0,0,0,0,1,0,0,0,0,0,0,0,0,0,0,0,0,0,0,0,0,0,0,0,0,0,0,0,,0101000020E6100000BFEB9D5198F255C0F6791F0187104540
246,Twenty-Sixth Street Woods-West,,,activity area,,41.8424214399353,-87.8571287943641,yes,"26th St, east of S 25th Ave","Cook County, IL 60526",,306,Salt Creek,Twenty-six West,0,0,0,0,0,0,0,1,0,1,1,0,0,1,0,0,0,0,0,0,0,0,1,0,0,0,0,0,0,0,0,0,0,0,0,1,0,1,0,0,0,0,0,0,0,0,0,0,0,0,0,1,0,0,,0101000020E61000003F10BB32DBF655C058FC3A77D4EB4440
245,Twenty-Sixth Street Woods-East,,,activity area,,41.8424268771931,-87.852965424569,yes,"26th St, west of Maple Ave","Cook County, IL 60526",,307,Salt Creek,Twenty-six East,0,0,0,0,0,0,0,0,0,0,0,0,0,0,0,0,0,0,0,0,0,0,0,0,0,0,0,0,0,0,0,0,0,0,1,0,0,0,0,0,0,0,0,0,0,0,0,0,0,0,0,1,0,0,,0101000020E61000001EC94AFC96F655C06A68D7A4D4EB4440
34,John E. Traeger Family Picnic Area,,,activity area,,42.0093927955306,-87.8573902373624,yes,"E Touhy Ave, east of Talcott Rd","Park Ridge, IL 60068",,21,Indian Boundary,,0,0,0,0,0,0,0,0,0,0,0,0,0,0,0,0,0,0,0,0,0,0,0,0,0,0,0,0,0,0,0,0,0,0,0,0,0,0,0,0,0,0,0,0,0,0,0,0,0,0,0,0,0,0,,0101000020E610000064584D7BDFF655C09DCF7AC833014540
336,Massasauga Family Picnic Area,,,activity area,,42.1180183922337,-87.8941782218279,yes,"Milwaukee Ave, south of E Hintz Rd","Cook County, IL 60090",,217,Indian Boundary,,0,0,0,0,0,0,0,0,0,0,0,0,0,0,0,0,0,0,0,0,0,0,0,0,0,0,0,0,0,0,0,0,0,0,0,0,0,0,0,0,0,0,0,0,0,0,0,0,0,0,0,0,0,0,,0101000020E6100000F9E24A373AF955C02D7C073A1B0F4540
215,River Bend Family Picnic Area,,,activity area,,41.9719675552726,-87.861447788095,yes,"Des Plaines River Rd, north of Lawrence Ave","Schiller Park, IL 60176",,222,Indian Boundary,,0,0,0,0,0,0,0,0,0,0,0,0,0,0,0,0,0,0,0,0,0,0,0,0,0,0,0,0,0,0,0,0,0,0,0,0,0,0,0,0,0,0,0,0,0,0,0,0,0,0,0,0,0,0,,0101000020E61000001745E7F521F755C0A255CF6E69FC4440
224,Indian Boundary Family Picnic Area,,,activity area,,41.9460935077436,-87.8548410436145,yes,"Des Plaines River Rd, south of Irving Park Ave","Cook County, IL 60176",,224,Indian Boundary,,0,0,0,0,0,0,0,0,0,0,0,0,0,0,0,0,0,0,0,0,0,0,0,0,0,0,0,0,0,0,0,0,0,0,0,0,0,0,0,0,0,0,0,0,0,0,0,0,0,0,0,0,0,0,,0101000020E6100000916635B7B5F655C0BC5B919719F94440
373,Fullerton Woods Family Picnic Area,,,activity area,,41.9206157038634,-87.8384068275482,yes,"Des Plaines River Rd, southeast of N 5th Ave","River Grove, IL 60171",,326,Indian Boundary,,0,0,0,0,0,0,0,0,0,0,0,0,0,0,0,0,0,0,0,0,0,0,0,0,0,0,0,0,0,0,0,0,0,0,0,0,0,0,0,0,0,0,0,0,0,0,0,0,0,0,0,0,0,0,,0101000020E610000003441C75A8F555C0792342BCD6F54440
235,Quercus Woods Family Picnic Area,,,activity area,,41.8842302444341,-87.8334088118885,yes,"1st Ave, north of Washington Blvd","Cook County, IL 60153",,228,Indian Boundary,,0,0,0,0,0,0,0,0,0,0,0,0,0,0,0,0,0,0,0,0,0,0,0,0,0,0,0,0,0,0,0,0,0,0,0,0,0,0,0,0,0,0,0,0,0,0,0,0,0,0,0,0,0,0,,0101000020E610000099D0E99156F555C044FDE6742EF14440
270,Glenview Woods,,,activity area,,42.0675220471221,-87.7728795963381,yes,"Harms Rd, south of Glenview Rd","Glenview, IL 60025",,236,North Branch,,0,0,0,0,0,0,0,0,0,1,1,0,0,1,0,0,0,0,0,0,0,0,1,0,0,0,0,0,0,0,0,0,0,0,0,0,0,1,0,0,0,0,0,0,0,0,0,0,0,0,0,1,1,0,,0101000020E61000002281FBDB76F155C00413FC8FA4084540
182,Highland Woods Golf Course,,,golf course,,42.074728525977,-88.0829431596197,yes,2775 Ela Rd,"Hoffman Estates, IL 60192",,208,Northwest,,0,0,0,0,0,0,0,0,0,0,0,0,0,0,0,0,0,0,0,0,0,1,0,0,0,0,0,0,0,0,0,0,0,0,0,0,0,0,0,0,0,0,0,0,0,0,1,0,0,0,0,0,0,0,,0101000020E6100000977FD3F04E0556C027934FB490094540
222,Schiller Model Airplane Flying Field,,,activity area,,41.9511220417671,-87.841470474353,yes,"W Irving Park Rd, west of N Cumberland Ave","Chicago, IL 60634",,223,Indian Boundary,,0,0,0,0,0,0,0,0,0,0,0,0,0,0,0,0,0,0,0,0,0,0,0,0,0,1,0,0,0,0,0,0,0,0,0,0,0,0,0,0,0,0,1,0,0,0,0,0,0,0,0,1,1,1,,0101000020E610000057F9F9A6DAF555C078F2F75DBEF94440
225,Indian Boundary Golf Course,,,golf course,,41.9416931694623,-87.8439361524096,yes,8600 W Forest Preserve Dr,"Chicago, IL 60634",,225,Indian Boundary,,0,0,0,0,0,0,0,0,0,0,0,0,0,0,0,0,0,0,0,0,0,1,0,0,0,0,0,0,0,0,0,0,0,0,0,0,0,0,0,0,0,0,0,0,0,0,0,0,0,0,0,0,0,0,,0101000020E6100000BAA0C70C03F655C083DADA6689F84440
263,Chicago Botanic Garden,,,special activity,,42.1503333831494,-87.7884428645228,yes,1000 Lake Cook Rd,"Glencoe, IL 60022",,229,North Branch,,0,0,1,1,0,0,0,0,0,0,1,0,0,0,0,0,0,0,0,0,0,0,1,0,0,0,0,0,0,0,0,0,0,0,0,0,0,0,0,0,0,0,0,0,0,1,0,0,1,1,1,0,0,0,,0101000020E6100000F3780FD975F255C0D40FD21F3E134540
274,Glen Grove Equestrian Center,,,activity area,yes,42.0540985289108,-87.764427220155,yes,9453 Harms Rd,"Morton Grove, IL 60053",,238,North Branch,,0,0,0,0,0,0,0,0,0,0,0,0,0,0,0,0,0,1,0,0,0,0,0,0,0,0,0,0,0,0,0,0,0,0,0,0,0,0,0,0,0,0,0,0,0,0,0,0,0,0,0,0,0,0,,0101000020E610000038AF2560ECF055C07C375AB3EC064540
276,Chick Evans Golf Course,,,golf course,,42.0540237158687,-87.7790764934414,yes,6145 Golf Rd,"Morton Grove, IL 60053",,239,North Branch,,0,0,0,0,0,0,0,0,0,0,0,0,0,0,0,0,0,0,0,0,0,1,0,0,0,0,0,0,0,0,0,0,0,0,0,0,0,0,0,0,0,0,0,0,0,0,0,0,0,0,0,0,0,0,,0101000020E6100000741AA763DCF155C0AA6EC63FEA064540
374,Cummings Square,General Headquarters & Permit Office,,activity area,,41.8891220288123,-87.8064195311811,yes,536 N Harlem Ave,"River Forest, IL 60305",26,0,Indian Boundary,GHQ,0,0,0,0,0,0,0,0,0,0,0,0,0,0,0,0,0,0,0,0,0,0,0,0,0,0,0,0,0,0,0,0,0,0,0,0,0,0,0,0,0,0,0,0,0,0,0,0,0,0,0,0,0,0,,0101000020E6100000D151AA609CF355C070F329C0CEF14440
395,General Headquarters & Permit Office,Cummings Square,,headquarters,yes,41.8895065312239,-87.805678313722,yes,536 N Harlem Ave,"River Forest, IL 60305",,26,Indian Boundary,,0,0,0,0,0,0,0,0,0,0,0,0,0,0,0,0,1,0,0,0,0,0,0,0,0,0,0,0,0,0,0,0,0,1,0,0,0,0,0,0,0,0,0,0,0,0,0,0,1,1,1,0,0,0,,0101000020E61000001422C63B90F355C0AC979A59DBF14440
85,Thornton-Lansing Road Nature Preserve,Zanders Woods,,nature preserve,,41.5614590719372,-87.5911807082971,yes,,"Cook County, IL 60476",,0,Thorn Creek ,,0,0,0,0,0,0,0,0,0,0,0,0,0,0,0,0,1,0,0,0,0,0,0,0,0,0,0,0,0,0,1,0,0,0,0,0,0,0,0,0,0,0,0,0,1,0,0,0,0,0,0,0,0,0,,0101000020E61000005E0A9CE7D5E555C09E0110E4DDC74440
262,Turnbull Woods,William N. Erickson Preserves,,activity area,,42.1497254851173,-87.7745249659741,yes,"Green Bay Rd, south of Lake Cook Rd","Glencoe, IL 60022",,95,North Branch,,0,0,0,0,0,0,0,0,0,0,0,0,0,0,0,0,0,0,0,0,0,0,0,0,0,0,0,0,0,0,0,0,0,0,0,1,0,0,0,0,0,0,1,0,0,0,0,0,0,0,0,0,1,1,,0101000020E6100000D5B229D191F155C06EFA66342A134540
174,Hickory Hills Woods,Walnut Grove,,activity area,,41.717368706338,-87.8319407589554,yes,"W 95th St, east of S 88th Ave","Cook County, IL 60465",,62,Palos,,0,0,0,0,0,0,0,0,0,0,0,0,0,0,0,0,0,0,0,0,0,0,0,0,0,0,0,0,0,0,0,0,0,0,1,0,0,0,0,0,0,0,0,0,0,0,0,0,0,0,0,1,0,0,,0101000020E610000010FB73843EF555C0A572DEBCD2DB4440
289,Theodore Stone Forest,Ted Stone Forest,,activity area,,41.7695573676384,-87.8665835577705,yes,"67th St, east of S La Grange Rd","Hodgkins, IL 60525",,80,Salt Creek,,0,0,0,0,0,0,0,0,0,0,0,0,0,0,0,0,1,0,0,0,0,0,0,0,0,0,0,0,0,1,0,0,0,0,1,1,0,0,0,0,0,0,1,0,0,0,0,0,0,0,0,1,1,0,,0101000020E61000000DF8E11A76F755C08E3317DB80E24440
172,King's Grove,Steger Woods,,activity area,,41.4746083515162,-87.65734094751,yes,"Ashland Ave, south of Sauk Trail","Cook County, IL 60475",,16,Thorn Creek ,Kings,0,0,0,0,0,0,0,0,0,0,0,0,0,0,0,0,0,0,0,0,0,0,0,0,0,0,0,0,0,0,0,0,0,0,0,1,0,0,0,0,0,0,0,0,0,0,0,0,0,0,0,1,0,0,,0101000020E610000023F8C3DF11EA55C0D5156AF7BFBC4440
309,Vollmer Road Grove,South Green Belt Preserves,,activity area,,41.5285137711588,-87.7191628657529,yes,"Vollmer Rd, west of Crawford Ave","Cook County, IL 60478",,114,Tinley Creek,,0,0,0,0,0,0,0,0,0,1,1,0,0,1,0,0,0,0,0,0,0,0,1,0,0,0,0,0,0,0,0,0,0,0,0,1,0,1,0,0,0,0,0,0,0,0,0,0,0,0,0,1,1,0,,0101000020E6100000043AAFC306EE55C0714ED956A6C34440
308,Tinley Creek Model Airplane Flying Field,South Green Belt Preserves,,activity area,,41.5367887384284,-87.7376719791109,yes,"Cicero Ave, south Flossmoor Rd","Cook County, IL 60478",,286,Tinley Creek,,0,0,0,0,0,0,0,0,0,0,0,0,0,0,0,1,0,0,0,0,0,0,0,0,0,1,0,0,0,0,0,0,0,0,0,0,0,0,0,0,0,0,0,0,0,0,0,0,0,0,0,1,1,1,,0101000020E61000003B5D880436EF55C0A3344E7EB5C44440
310,Flossmoor Road Bicycle Lot,South Green Belt Preserves,,activity area,yes,41.5420255245424,-87.720044273656,yes,"Flossmoor Rd, west of Crawford Ave","Cook County, IL 60478",,287,Tinley Creek,,0,1,0,0,0,0,0,0,0,1,1,0,0,1,0,0,0,0,0,0,0,0,1,0,0,0,0,0,0,0,0,0,0,0,0,0,0,0,0,0,0,0,0,0,0,0,0,0,0,0,0,1,1,0,,0101000020E610000093C1933415EE55C0E5C0A61761C54440
76,Bartel Grassland Land and Water Reserve,South Green Belt Preserves,,nature preserve,,41.5370289657047,-87.7618932578595,yes,"Flossmoor Rd, west of Central Ave","Cook County, IL 60477",,310,Tinley Creek,,0,0,0,1,0,0,0,0,0,0,0,0,0,0,0,0,1,0,0,0,0,0,0,0,0,0,0,0,0,0,0,0,0,0,0,0,0,0,0,0,0,0,1,0,1,0,0,0,0,0,0,1,1,0,,0101000020E61000002A63F0DBC2F055C0715A7A5DBDC44440
265,Forest Way Grove,Skokie Lagoons,,activity area,,42.1284467797275,-87.7753242898305,yes,"Forest Way Dr, south of Dundee Rd","Cook County, IL 60022",,94,North Branch,Strawberry Hill,0,0,0,0,0,0,0,0,0,1,1,0,0,1,0,0,0,0,1,0,0,0,1,0,0,0,0,0,0,0,0,0,0,0,0,1,0,1,0,0,0,0,1,0,0,0,0,0,0,0,0,1,1,0,,0101000020E61000007027C5E99EF155C05C1AAFF170104540
266,Tower Road,Skokie Lagoons,,activity area,,42.1152537666697,-87.7735161995319,yes,"Tower Rd, west of Forestway Dr","Cook County, IL 60093",,232,North Branch,,0,0,0,1,0,1,0,0,0,1,1,0,0,1,0,0,1,0,1,0,0,0,1,0,0,0,0,0,0,0,0,0,0,0,0,0,0,1,0,0,0,0,1,0,0,0,0,0,0,0,0,1,0,0,,0101000020E61000009CFA164A81F155C0234BABA2C00E4540
267,Tower Road Boat Launch,Skokie Lagoons,,activity area,yes,42.1147199116429,-87.7756590165728,yes,"Tower Rd, west of Forestway Dr","Cook County, IL 60093",,233,North Branch,,0,0,1,1,1,0,0,0,0,1,1,0,0,1,0,0,0,1,1,0,0,0,1,0,0,0,0,0,0,0,0,0,0,0,0,0,0,1,0,0,0,0,1,0,0,0,0,0,0,0,0,1,1,0,,0101000020E6100000C541B765A4F155C0625A5E24AF0E4540
386,Burnham Prairie,Burnham Prairie Nature Preserve,,activity area,,41.6422182592618,-87.5517396281841,yes,E 139th St &amp; S Manistee Ave,"Burnham, IL 60633",,300,Thorn Creek,,0,0,0,1,0,0,0,0,0,0,0,0,0,0,0,0,0,0,0,0,0,0,0,0,0,0,0,0,0,0,0,0,0,0,0,0,0,0,0,0,0,0,0,0,0,0,0,0,0,0,0,0,0,0,,0101000020E610000050BDBAB34FE355C039363A3534D24440
349,Baker's Lake Overlook,Baker's Lake Nature Preserve,,activity area,,42.1469511550157,-88.1213830055851,yes,E Hillside Ave &amp; S Eastern Ave,"Barrington, IL 60010",,201,Northwest,,0,0,0,1,0,0,0,0,0,0,0,0,0,0,0,0,1,0,0,0,0,0,1,0,0,0,0,0,0,0,0,1,0,0,0,0,0,0,0,0,0,0,1,0,0,0,0,0,0,0,0,0,0,0,,0101000020E6100000CED139BDC40756C07673A24BCF124540
390,Bemis Woods-North,Salt Creek Woods Nature Preserve,,activity area,,41.8290414331274,-87.9043481413168,yes,"Wolf Rd, south of 31st St","Cook County, IL 60523",,151,Salt Creek,,0,0,0,1,0,0,0,1,0,1,1,0,0,1,0,0,1,0,0,0,0,0,1,0,0,0,0,0,0,0,0,0,0,0,1,1,0,1,0,0,0,0,1,0,0,0,0,0,0,0,0,1,1,0,,0101000020E6100000DEC906D7E0F955C0DA2799071EEA4440
398,Sag Valley Equestrian Parking,McGinty Slough,,activity area,yes,41.649666415484,-87.9246028327522,yes,"W 131st St, east of Bell Rd","Cook County, IL 60439",,297,Palos,,0,0,0,0,0,0,0,0,0,1,1,0,0,0,0,0,0,1,0,0,0,0,1,0,0,0,0,0,0,0,0,0,0,0,0,0,0,0,0,0,0,0,0,0,0,0,0,0,0,0,0,1,0,0,,0101000020E61000006B1D5CB12CFB55C017E8E34428D34440
290,Sundown Meadow,Ida Lake,,activity area,,41.7683244161522,-87.8688827332963,yes,"S LaGrange Rd, north of 67th St","Countryside, IL 60525",,81,Salt Creek,,0,0,0,0,0,0,0,0,0,1,1,0,0,1,0,0,1,0,1,1,0,0,1,0,0,0,1,0,0,0,0,0,0,0,1,1,0,0,0,0,0,0,1,0,0,0,0,0,0,0,0,1,1,0,,0101000020E610000046E452C69BF755C0C30B587458E24440
146,Beaubien Woods Boat Launch,Flatfoot Lake,,activity area,,41.6539155287214,-87.5914699374949,yes,"E 130th St, east of S Ellis Ave","Chicago, IL 60827",,301,Calumet,,0,0,0,0,1,0,0,0,0,0,0,0,0,0,0,0,0,0,0,0,0,0,0,0,0,0,0,0,0,0,0,0,0,0,0,0,0,0,0,0,0,0,1,0,0,0,0,0,0,0,0,1,0,0,,0101000020E6100000E486B9A4DAE555C03F1A0981B3D34440
147,Beaubien Woods,Flatfoot Lake,,activity area,,41.6505190858175,-87.5823529207047,yes,"W Doty Ave S, southeast of E 130th St &amp; S Ellis Ave","Chicago, IL 60827",,321,Calumet,Flatfoot,0,0,0,0,0,0,0,0,0,0,0,0,0,0,0,0,1,0,1,1,0,0,0,0,0,0,0,0,0,0,0,0,0,0,0,1,0,0,0,0,0,0,1,0,0,0,0,0,0,0,0,1,1,0,,0101000020E61000000B4A2F4545E555C04E819B3544D34440
170,Sauk Trail Woods-South,Sauk Lake Woods,,activity area,,41.4850464504352,-87.6541072052978,yes,"Forest Preserve Dr, north of W Sauk Trail","South Chicago Heights, IL 60411",,104,Thorn Creek ,Sauk 6,0,0,0,0,0,0,0,0,0,1,1,0,0,1,0,0,0,0,1,0,0,0,1,0,0,0,0,0,0,0,0,0,0,0,1,0,0,1,0,0,0,0,0,0,0,0,0,0,0,0,0,1,0,0,,0101000020E610000042B577E4DCE955C082D4880016BE4440
167,Sauk Trail Woods-East,Sauk Lake Woods,,activity area,,41.4870646520479,-87.6463941603431,yes,"Forest Preserve Dr, south of W 26th St","South Chicago Heights, IL 60411",,105,Thorn Creek ,Sauk 1 & 2,0,0,0,0,0,0,0,0,0,1,1,0,0,1,0,0,0,0,0,0,0,0,1,0,0,0,0,0,0,0,0,0,0,0,1,1,0,0,0,0,0,0,0,0,0,0,0,0,0,0,0,1,0,0,,0101000020E6100000F2BF9C855EE955C0ACCA6F2258BE4440
169,Sauk Trail Woods-North,Sauk Lake Woods,,activity area,,41.4896107902365,-87.6509888283019,yes,"W 26th St, west of Euclid Ave","South Chicago Heights, IL 60411",,106,Thorn Creek ,Sauk 3 & 4,0,0,0,0,0,0,0,0,0,1,1,0,0,1,0,0,0,0,1,0,0,0,1,0,0,0,0,0,0,0,0,0,0,0,1,1,0,1,0,0,0,0,0,0,0,0,0,0,0,0,0,1,1,0,,0101000020E610000091E70BCDA9E955C0CFEAFD90ABBE4440
168,Sauk Trail Woods-Central,Sauk Lake Woods,,activity area,,41.4872207944093,-87.653045458077,yes,"Forest Preserve Dr, south of W 26th St","South Chicago Heights, IL 60411",,107,Thorn Creek ,Sauk 5,0,0,0,0,0,0,0,0,0,1,1,0,0,1,0,0,0,0,1,0,0,0,1,0,0,0,0,0,0,0,0,0,0,0,1,1,0,1,0,0,0,0,0,0,0,0,0,0,0,0,0,1,1,0,,0101000020E6100000804F2D7FCBE955C0A1F540405DBE4440
56,LaBagh Woods,Sauganash Prairie,,activity area,,41.9766177219045,-87.745092424784,yes,"N Cicero Ave, north of W Foster Ave","Chicago, IL 60630",,124,North Branch,,0,0,0,1,0,0,0,0,0,1,1,0,0,1,0,0,1,0,0,0,0,0,1,0,0,0,0,0,0,0,0,0,0,0,0,1,0,0,0,0,0,0,1,0,0,0,0,0,0,1,0,0,1,1,,0101000020E6100000753C2398AFEF55C013233CCF01FD4440
183,Grassy Ridge Meadow,Paul Douglas,,activity area,,42.0688220869794,-88.1127113082096,yes,"W Central Ave, east of Huntington Blvd/Freeman Rd","Hoffman Estates, IL 60195",,146,Northwest,,0,0,0,1,0,0,0,0,0,1,1,0,0,0,0,0,0,0,0,0,0,0,1,0,0,0,0,0,0,0,0,0,0,0,0,0,0,0,0,0,0,0,0,0,0,0,0,0,0,0,0,1,1,0,,0101000020E610000090A97DA9360756C0DB688229CF084540
58,Camp Kiwanis Equestrian Staging Area,Palos,,activity area,yes,41.7094065907726,-87.8729945846752,yes,"Willow Springs Rd, south of 95th St","Cook County, IL 60480",,192,Palos,,0,0,0,0,0,0,0,0,0,1,1,0,0,1,0,0,0,1,0,0,0,0,1,0,0,0,0,0,0,0,0,0,0,0,0,0,0,0,0,0,0,0,0,0,0,0,0,0,0,0,0,0,0,0,,0101000020E6100000F7B0AD24DFF755C0B977CDD5CDDA4440
297,John Husar I&M Canal Bicycle Trail Parking Lot,Palos,,activity area,yes,41.7333126271734,-87.8803606216549,yes,"Willow Blvd, north of Archer Ave","Willow Springs, IL 60480",,175,Palos,,0,1,0,0,0,0,0,0,0,1,1,0,0,1,0,0,0,0,0,0,0,0,1,0,0,0,0,0,0,0,0,0,0,0,0,0,0,1,0,0,0,0,0,0,0,0,0,0,1,1,0,0,0,0,,0101000020E610000068AC13D457F855C00ABA2B30DDDD4440
378,Maple Lake Boating Center,Palos,,activity area,,41.7127769216576,-87.8915778017743,yes,"Wolf Rd, south of 95th St","Cook County, IL 60480",,177,Palos,,0,0,0,0,0,1,0,0,0,1,1,0,0,1,0,0,0,0,1,1,0,0,1,0,0,0,0,0,0,0,0,0,0,0,0,0,0,0,0,0,0,0,0,0,0,0,0,0,0,1,1,0,1,1,,0101000020E6100000771D579C0FF955C077EE2F463CDB4440
300,Belly Deep Slough,Palos,,activity area,,41.7093908550081,-87.8517825897335,yes,"96th Ave, south of W 95th St","Cook County, IL 60480",,253,Palos,,0,0,0,0,0,0,0,0,0,0,0,0,0,0,0,0,0,0,1,0,0,0,0,0,0,0,0,0,0,0,0,0,0,0,0,0,0,0,0,0,0,0,0,0,0,0,0,0,0,0,0,0,0,0,,0101000020E6100000478D1F9B83F655C0B32BCD51CDDA4440
370,Crawdad Slough,Palos,,activity area,,41.7149434814677,-87.8732326722084,yes,"Flavin Rd/Willow Springs Rd/104th Ave, south of 95th St","Cook County, IL 60480",,257,Palos,,0,0,0,0,0,0,0,0,0,0,0,0,0,0,0,0,0,0,0,0,0,0,0,0,0,0,0,0,0,0,0,0,0,0,0,0,1,0,0,0,0,0,0,0,0,1,0,0,0,0,0,0,0,0,,0101000020E6100000C53B4A0BE3F755C035B29B4483DB4440
330,Maple Lake Overlook,Palos,,activity area,,41.715946682716,-87.8922922339976,yes,"95th St, southeast of S Archer Ave","Cook County, IL 60480",,258,Palos,,0,0,0,0,0,0,0,0,0,0,0,0,0,0,0,0,1,0,1,1,0,0,0,0,0,0,0,0,0,0,0,1,0,0,0,0,0,0,0,0,0,0,0,0,0,0,0,0,0,0,0,0,0,0,,0101000020E6100000A7DFE2501BF955C0ECF81124A4DB4440
118,Forty Acre Woods,Palos,,activity area,,41.6738999668214,-87.8509470028646,yes,"119th St, east of S La Grange Rd","Cook County, IL 60464",,54,Palos,,0,0,0,0,0,0,0,0,0,1,1,0,0,1,0,0,0,1,0,0,0,0,1,0,0,0,0,0,0,0,0,0,0,0,1,0,0,0,0,0,0,0,0,0,0,0,0,0,0,0,0,1,1,0,,0101000020E6100000B2FB6AEA75F655C00223A75A42D64440
121,Paddock Woods,Palos,,activity area,,41.677996609199,-87.8315716970369,yes,"S 86th St, south of Calumet Sag Rd/Rte 83","Cook County, IL 60464",,57,Palos,,0,0,0,0,0,0,0,0,0,1,1,0,0,1,0,0,1,0,0,0,0,0,1,0,0,0,0,0,0,0,0,0,0,0,1,0,0,0,0,0,0,0,1,0,0,0,0,0,0,0,0,1,0,0,,0101000020E610000063C37E7838F555C084A7C797C8D64440
120,Palos Park Woods-South,Palos,,activity area,,41.675481552321,-87.8386415878421,yes,"119th St, west of S 86th Ave","Cook County, IL 60464",,58,Palos,Palos #2,0,0,0,0,0,0,0,0,0,1,1,0,0,1,0,0,1,0,0,0,0,0,1,0,0,0,0,0,0,0,0,0,0,0,0,1,0,0,0,0,0,0,0,0,0,0,0,0,0,0,0,1,0,0,,0101000020E61000003C36C44DACF555C08922F42D76D64440
122,Palos Park Woods-North,Palos,,activity area,,41.6807292844582,-87.8421150726465,yes,"Kean Ave, south of Calumet Sag Rd/Rte 83","Cook County, IL 60464",,59,Palos,Palos #1,0,0,0,0,0,0,0,0,0,1,1,0,0,1,0,0,1,1,0,0,0,0,1,0,0,0,0,0,0,0,0,0,0,0,0,1,0,0,0,0,0,0,0,0,0,0,0,0,0,0,0,1,0,1,,0101000020E61000000D1F9E36E5F555C0BC161F2322D74440
292,Buffalo Woods-North,Palos,,activity area,,41.7381124964692,-87.8491747148589,yes,"S Kean Ave, north of W 87th St","Cook County, IL 60480",,63,Palos,Buffalo #2,0,0,0,0,0,0,0,0,0,1,1,0,0,1,0,0,0,0,0,0,0,0,1,0,0,0,0,0,0,0,0,0,0,0,0,1,0,0,0,0,0,0,0,0,0,0,0,0,0,0,0,1,0,0,,0101000020E61000002C3AE7E058F655C0548D64787ADE4440
293,Buffalo Woods-Central,Palos,,activity area,,41.7362014764295,-87.8496783422963,yes,"S Kean Ave, north of W 87th St","Cook County, IL 60480",,64,Palos,Buffalo #3,0,0,0,0,0,0,0,0,0,1,1,0,0,1,0,0,0,0,0,0,0,0,1,0,0,0,0,0,0,1,0,0,0,0,0,1,1,0,0,0,0,0,0,0,0,1,0,0,0,0,0,1,1,0,,0101000020E61000001112452161F655C0124498D93BDE4440
294,Buffalo Woods-South,Palos,,activity area,,41.7335443585481,-87.8488160009683,yes,"W 87th St, west of S Kean Ave","Cook County, IL 60480",,65,Palos,Buffalo #4,0,0,0,0,0,0,0,0,0,1,1,0,0,1,0,0,0,0,0,0,0,0,1,0,0,0,0,0,0,0,0,0,0,0,0,1,0,0,0,0,0,0,0,0,0,0,0,0,0,0,0,1,0,0,,0101000020E6100000C01E590053F655C08D1013C8E4DD4440
376,Columbia Woods,Palos,,activity area,,41.7288788893232,-87.8923116578846,yes,Willow Springs Rd &amp; Corcoran Rd,"Willow Springs, IL 60480",,66,Palos,,0,0,0,0,0,0,0,1,0,1,1,0,0,0,0,0,0,0,1,0,0,0,1,0,0,0,0,0,0,0,0,0,0,0,0,1,0,0,0,0,0,0,0,0,0,0,0,0,0,0,0,1,0,0,,0101000020E61000000A1D5BA21BF955C0AF3148E74BDD4440
316,Pioneer Woods,Palos,,activity area,,41.6981493582912,-87.869489100447,yes,"107th St, east of S Willow Springs Rd/Flavin Rd","Cook County, IL 60480",,72,Palos,,0,0,0,0,0,0,0,0,0,1,1,0,0,1,0,0,1,0,0,0,0,0,1,0,1,0,0,0,0,0,0,0,0,0,1,1,0,0,1,0,0,0,1,0,0,0,0,0,0,0,0,1,1,0,,0101000020E61000007EA99CB5A5F755C0BECA4AF55CD94440
301,White Oak Woods,Palos,,activity area,,41.7037039276171,-87.8549072084018,yes,"96th Ave, north of 107th St","Cook County, IL 60480",,75,Palos,,0,0,0,0,0,0,0,0,0,0,0,0,0,0,0,0,0,0,0,0,0,0,0,0,0,0,0,0,0,0,0,0,0,0,1,0,0,0,0,0,0,0,0,0,0,0,0,0,0,0,0,1,0,0,,0101000020E6100000D64CB9CCB6F655C0599765F812DA4440
296,Willow Springs Woods,Palos,,activity area,,41.7279399632104,-87.8730851816077,yes,"Willow Springs Rd, southeast of S Archer Ave","Cook County, IL 60480",,76,Palos,,0,0,0,0,0,0,0,0,0,1,1,0,0,1,0,0,1,0,0,0,0,0,1,0,0,0,0,0,0,0,0,0,0,0,0,1,0,0,0,0,0,0,1,0,0,0,0,0,0,0,0,1,0,0,,0101000020E61000002668ABA0E0F755C051B8FF222DDD4440
320,Wolf Road Woods,Palos,,activity area,,41.7035559728427,-87.8965693928194,yes,"Wolf Rd, south of 95th St","Cook County, IL 60480",,77,Palos,,0,0,0,0,0,0,0,0,0,1,1,0,0,1,0,0,0,0,0,0,0,0,1,0,0,0,0,0,0,0,0,0,0,0,1,1,0,0,0,0,0,0,0,0,0,1,0,0,0,0,0,1,0,0,,0101000020E61000003D30976461F955C0E921431F0EDA4440
55,Hidden Pond Woods-East,Palos,,activity area,,41.7210067295146,-87.8485448767528,yes,"S Kean Ave, north of W 95th St","Cook County, IL 60480",,320,Palos,,0,0,0,0,0,0,0,0,0,1,1,0,0,1,0,0,1,1,0,0,0,0,1,0,0,0,0,0,0,0,0,0,0,0,1,0,1,0,0,0,0,0,1,0,0,1,0,0,0,0,0,1,1,0,,0101000020E6100000E0B52B8F4EF655C002BBD1F249DC4440
119,McClaughrey Springs Woods,Palos,,activity area,,41.6762326725168,-87.8447902310204,yes,"Kean Ave, north of 119th St","Cook County, IL 60464",,56,Palos,,0,0,0,1,0,0,0,0,0,1,1,0,0,1,0,0,1,0,0,0,0,0,1,0,0,0,0,0,0,0,0,0,0,0,1,0,0,0,0,0,0,0,1,0,0,0,0,0,0,0,0,1,0,0,,0101000020E6100000A08D0B0B11F655C01F79CECA8ED64440
323,Saganashkee Slough-East,Palos,,activity area,,41.6897510714639,-87.8763267927038,yes,"S Willow Springs Rd/104th Ave, north of Calumet Sag Rd/Rte 83","Cook County, IL 60480",,256,Palos,Sag Dam,0,0,0,0,0,0,0,0,0,1,1,0,0,1,0,0,0,0,1,1,0,0,1,0,0,0,0,0,0,0,0,0,0,0,0,0,0,0,0,0,0,0,0,0,0,0,0,0,0,0,0,0,0,0,,0101000020E61000005DD1F8BC15F855C0C6285BC349D84440
322,Saganashkee Slough-Central,Palos,,activity area,,41.6959257681344,-87.8986982354032,yes,"107th St, west of S Willow Springs Rd/104th Ave","Cook County, IL 60480",,260,Palos,,0,0,0,0,0,0,0,0,0,0,0,0,0,0,0,0,0,0,1,1,0,0,0,0,0,0,0,0,0,0,0,0,0,0,0,0,0,0,0,0,0,0,0,0,0,0,0,0,0,0,0,0,0,0,,0101000020E6100000E9819A4584F955C0594A771814D94440
324,Saganashkee Slough Boat Launch,Palos,,activity area,,41.6965185903913,-87.9057957346235,yes,"107th St, west of S Willow Springs Rd/104th Ave","Cook County, IL 60480",,261,Palos,,0,0,0,0,1,0,0,0,0,0,0,0,0,0,0,0,0,0,1,1,0,0,0,0,0,0,0,0,0,0,0,0,0,0,0,0,0,0,0,0,0,0,0,0,0,0,0,0,0,0,0,1,1,0,,0101000020E61000001F44AC8EF8F955C0AB646B8527D94440
333,Sag Quarries,Palos,,activity area,,41.6911388811017,-87.9324710049621,yes,Archer Ave &amp; Old Archer Ave,"Cook County, IL 60439",,262,Palos,,0,0,0,0,0,0,0,0,0,1,1,0,0,1,0,0,0,0,1,1,0,0,1,0,0,0,0,0,0,0,0,0,0,0,0,0,0,0,0,0,0,0,1,0,0,0,0,0,0,0,0,1,1,0,,0101000020E6100000F0B1DD9AADFB55C0BAA9253D77D84440
291,Buffalo Woods Family Picnic Area,Palos,,activity area,,41.7396726342183,-87.8484401598881,yes,"S Kean Ave, north of W 87th St","Cook County, IL 60480",,174,Palos,Buffalo #1,0,0,0,0,0,0,0,0,0,0,0,0,0,0,0,0,0,0,0,0,0,0,0,0,0,0,0,0,0,0,0,0,0,0,0,0,0,0,0,0,0,0,0,0,0,0,0,0,0,0,0,0,0,0,,0101000020E610000048D5F4D74CF655C05BDBC697ADDE4440
328,Pulaski Woods-South,Palos,,activity area,,41.7084014700751,-87.8943652309316,yes,"Wolf Rd, south of 95th St","Cook County, IL 60480",,176,Palos,,0,0,0,0,0,0,0,0,0,1,1,0,0,1,0,0,0,0,0,0,0,0,1,0,0,0,0,0,0,0,0,0,0,0,0,0,0,0,0,0,0,0,0,0,0,0,0,0,0,0,0,1,0,0,,0101000020E6100000F661AA473DF955C09A343DE6ACDA4440
329,Pulaski Woods-East,Palos,,activity area,,41.709947873965,-87.8945197461508,yes,"Wolf Rd, south of 95th St","Cook County, IL 60480",,179,Palos,,0,0,0,0,0,0,0,0,0,0,0,0,0,0,0,0,0,0,0,0,0,0,0,0,0,0,0,0,0,0,0,0,0,0,0,0,0,0,0,0,0,0,0,0,0,0,0,0,0,0,0,0,0,0,,0101000020E610000004D6BFCF3FF955C0B1456A92DFDA4440
298,Hidden Pond Woods-West,Palos,,activity area,,41.7221746623397,-87.850046771483,yes,"96th Ave, north of W 95th St","Cook County, IL 60480",,252,Palos,,0,0,0,0,0,0,0,0,0,1,1,0,0,1,0,0,1,1,0,0,0,0,1,0,0,0,0,0,0,0,0,0,0,0,0,0,1,0,0,0,0,0,1,0,0,1,0,0,0,0,0,0,0,0,,0101000020E6100000C0E5922A67F655C0D45F263870DC4440
327,Henry De Tonty Woods,Palos,,activity area,,41.7133199401121,-87.9116200872062,yes,"S Archer Ave, northeast of 107th St","Cook County, IL 60480",,259,Palos,,0,0,0,0,0,0,0,0,0,1,1,0,0,1,0,0,0,0,0,0,0,0,1,0,0,0,0,0,0,0,0,0,0,0,0,0,0,1,0,0,0,0,0,0,0,0,0,0,0,0,0,0,0,0,,0101000020E61000005B3BC7FB57FA55C0DA2E5B114EDB4440
302,Crooked Creek Woods,Palos,,activity area,,41.7003826080701,-87.8508787299965,yes,"S La Grange Rd, north of 107th St","Cook County, IL 60480",,69,Palos,,0,0,0,0,0,0,0,0,0,0,0,0,0,0,0,0,0,0,0,0,0,0,0,0,0,0,0,0,0,0,0,0,0,0,1,1,0,0,0,0,0,0,0,0,0,0,0,0,0,0,0,1,0,0,,0101000020E61000009A8C0FCC74F655C08D2C2623A6D94440
321,Pulaski Woods,Palos,,activity area,,41.7082132911898,-87.8992090679155,yes,"Wolf Rd, south of 95th St","Cook County, IL 60480",,73,Palos,Pulaski West,0,0,0,0,0,0,0,0,0,0,0,0,0,0,0,0,0,0,0,0,0,0,0,0,0,0,0,0,0,0,0,0,0,0,0,1,0,0,0,0,0,0,0,0,0,0,0,0,0,0,0,1,0,0,,0101000020E6100000ABBD30A48CF955C05B20AEBBA6DA4440
326,Red Gate Woods,Palos,,activity area,,41.7092809279629,-87.9117194734348,yes,"S Archer Ave, northeast of 107th St","Cook County, IL 60480",,155,Palos,,0,0,0,0,0,0,0,0,0,1,1,0,0,1,0,0,1,0,0,0,0,0,1,0,0,0,0,0,0,0,0,0,0,0,1,0,0,0,0,0,0,0,0,0,0,0,0,0,0,0,0,1,0,0,,0101000020E6100000D961A29C59FA55C07BA3AAB7C9DA4440
88,Paw Paw Woods Nature Preserve,Palos,,nature preserve,,41.7239625899084,-87.8869249334928,yes,,"Cook County, IL 60480",,0,Palos,,0,0,0,0,0,0,0,0,0,0,0,0,0,0,0,0,1,0,0,0,0,0,0,0,0,0,0,0,0,0,1,0,0,0,0,0,0,0,0,0,0,0,1,0,1,0,0,0,0,0,0,0,0,0,,0101000020E6100000F4D6CB60C3F855C088975FCEAADC4440
100,Camp Bullfrog Lake,Palos,,camp,,41.7091219193714,-87.9031915070664,yes,9600 Wolf Rd,"Willow Springs, IL 60480",,334,Palos,,0,0,0,0,0,1,1,0,0,1,1,0,0,1,0,0,0,0,1,1,0,0,1,0,0,0,0,0,0,0,0,0,0,0,0,0,0,0,0,0,0,0,0,0,0,0,0,0,1,1,1,0,0,0,,0101000020E61000000438C0E3CDF955C0DE49CE81C4DA4440
89,Palos Fen Nature Preserve,Palos,,nature preserve,,41.6983424081041,-87.8414085910535,yes,,"Palos Hills, IL 60465",,0,Palos,,0,0,0,0,0,0,0,0,0,0,0,0,0,0,0,0,1,0,0,0,0,0,0,0,0,0,0,0,0,0,1,0,0,0,0,0,0,0,0,0,0,0,0,0,1,0,0,0,0,0,0,0,0,0,,0101000020E61000007E496BA3D9F555C0C91BB64863D94440
3,Cranberry Slough Nature Preserve,Palos,,nature preserve,,41.7093005567491,-87.8628168865171,yes,,"Cook County, IL 60480",67,0,Palos,,0,0,0,0,0,0,0,0,0,0,0,0,0,0,0,0,1,0,0,0,0,0,0,0,0,0,0,0,0,0,1,0,0,0,0,0,0,0,0,0,0,0,1,0,1,1,0,0,0,0,0,0,0,0,,0101000020E6100000C581516438F755C0CD22535CCADA4440
2,Cap Sauers Holding Nature Preserve,Palos,,nature preserve,,41.6784402784034,-87.8936629947387,yes,,"Cook County, IL 60464",61,0,Palos,,0,0,0,0,0,0,0,0,0,1,1,0,0,0,0,0,1,0,0,0,0,0,1,0,0,0,0,0,0,0,1,0,0,0,0,0,0,0,0,0,0,0,1,0,1,0,0,0,0,0,0,0,0,0,,0101000020E6100000180346C631F955C014048C21D7D64440
102,McMahon Woods and Fen Nature Preserve,Palos,,nature preserve,,41.6907763361242,-87.8648260077968,yes,,"Cook County, IL 60480",255,0,Palos,,0,0,0,1,0,0,0,0,0,0,0,0,0,0,0,0,1,0,0,0,0,0,0,0,0,0,0,0,0,0,1,0,0,0,0,0,0,0,0,0,0,0,1,0,1,0,0,0,0,0,0,0,0,0,,0101000020E6100000EB0D2F4F59F755C08640E65B6BD84440
303,Morrill Meadow,Palos,,activity area,,41.6944142736088,-87.8592549226164,yes,"107th St, west of 96th Ave","Cook County, IL 60480",,254,Palos,Airplane/Snowmobile Field,0,0,0,0,0,0,0,0,0,0,0,0,0,0,0,0,0,0,0,0,0,0,0,0,0,1,0,0,0,0,0,0,0,0,0,0,0,0,0,1,0,0,0,0,0,0,0,0,0,0,0,1,1,1,,0101000020E61000001DE45B08FEF655C045832191E2D84440
116,Papoose Lake,Palos,,activity area,,41.6658101653624,-87.8622604736193,yes,"McCarthy Rd, west of S La Grange Rd","Cook County, IL 60464",,234,Palos,,0,0,0,0,0,0,0,0,0,0,0,0,0,0,0,0,0,0,1,1,0,0,0,0,0,0,0,0,0,0,0,0,0,0,0,0,0,0,0,0,0,0,0,0,0,0,0,0,0,0,0,1,1,0,,0101000020E610000005B58D462FF755C0BAC97A4439D54440
258,Ottawa Trail Woods-South,Laughton Trading Post and Ford,,activity area,,41.8104318048915,-87.8045734564459,yes,"47th St, west of S Harlem Ave","Lyons, IL 60534",,36,Salt Creek,,0,0,0,1,0,0,0,0,0,0,0,0,0,0,0,0,1,0,0,0,0,0,0,0,0,0,0,0,0,0,0,0,0,0,1,1,0,0,0,0,0,0,0,0,0,0,0,0,0,0,0,1,0,0,,0101000020E61000008DAAAA217EF355C0DDD2B83ABCE74440
257,Ottawa Trail Woods-North,Laughton Trading Post and Ford,,activity area,,41.815199615385,-87.8049194397712,yes,"Joliet Ave, west of S Harlem Ave","Lyons, IL 60534",,308,Salt Creek,Ottawa 3,0,0,0,0,0,0,0,0,0,0,0,0,0,0,0,0,0,0,0,0,0,0,0,0,0,0,0,0,0,0,0,0,0,0,1,0,0,0,0,0,0,0,0,0,0,0,0,0,0,0,0,1,0,0,,0101000020E6100000DB6ED3CC83F355C030E5037658E84440
227,Fullerton Woods,La Framboise Woods,,activity area,,41.9221597277621,-87.8372456391827,yes,"W Fullerton Ave, west of N 1st Ave","River Grove, IL 60171",,20,Indian Boundary,,0,0,0,0,0,0,0,0,0,1,1,0,0,1,0,0,0,0,0,0,0,0,1,0,0,0,0,0,0,0,0,0,0,0,0,1,0,0,0,0,0,0,0,0,0,0,0,0,0,0,0,1,0,0,,0101000020E610000089C0BB6E95F555C09736785409F64440
124,Tampier Lake-West,John J. Duffy Preserve,,activity area,,41.65025837728,-87.9094333632082,yes,"S Will Cook Rd, south of W 131st St","Cook County, IL 60467",,153,Palos,,0,0,0,0,0,0,0,0,0,0,0,0,0,0,0,0,0,0,1,1,0,0,0,0,0,0,0,0,0,0,0,0,0,0,0,1,0,0,0,0,0,0,0,0,0,0,0,0,0,0,0,1,1,0,,0101000020E6100000B737FE2734FA55C0122FA0AA3BD34440
52,"Thaddeus S. ""Ted"" Lechowicz Woods",Indian Road Woods,,activity area,,41.9890384355563,-87.7642791595145,yes,"N Central Ave, north of N Elston Ave","Chicago, IL 60646",,121,North Branch,,0,0,0,0,0,0,0,0,0,1,1,0,0,1,0,0,1,0,0,0,0,0,1,0,0,0,0,0,0,0,0,0,0,0,0,1,0,0,1,0,0,0,1,0,0,0,0,0,0,0,0,1,1,0,,0101000020E610000042C822F3E9F055C0BE99BBCF98FE4440
15,Green Lake Family Aquatic Center,Green Lake Pool,,aquatic center,yes,41.6026404371242,-87.5534210748,yes,1100 River Oaks Drive,"Calumet City, IL 60409",,90,Thorn Creek ,,0,0,0,0,0,0,0,0,0,0,0,0,0,0,0,0,0,0,0,0,0,0,0,0,0,0,0,0,0,0,0,0,0,0,0,0,0,0,0,0,1,0,0,0,0,0,0,0,1,1,1,0,0,0,,0101000020E6100000BA4B3A406BE355C00859645223CD4440
39,G.A.R. Woods,Grand Army of the Republic Woods,,activity area,,41.8834489126874,-87.8276994451372,yes,,"River Forest, IL 60305",,0,Indian Boundary,,0,0,0,0,0,0,0,0,0,0,0,0,0,0,0,0,1,0,0,0,0,0,0,0,0,0,0,0,0,0,1,0,0,0,0,0,0,0,0,0,0,0,1,0,0,0,0,0,0,0,0,0,0,0,,0101000020E610000006F21707F9F455C0EDD69DDA14F14440
96,Black Partridge Woods Nature Preserve,Goose Lake,,nature preserve,,41.6837383377182,-88.0250334973323,yes,,"Cook County, IL 60439",154,0,Palos,,0,0,0,0,0,0,0,0,0,0,0,0,0,0,0,0,0,0,0,0,0,0,0,0,0,0,0,0,0,1,1,0,0,0,0,0,0,0,0,0,0,0,1,0,1,1,0,0,0,0,0,0,0,0,,0101000020E6100000341619269A0156C0B1C2E3BC84D74440
272,Harms Woods-Central,George F. Nixon Forest,,activity area,,42.0596404099222,-87.769829966248,yes,"Harms Rd, south of Old Orchard Rd","Cook County, IL 60077",,96,North Branch,,0,0,0,0,0,0,0,0,0,1,1,0,0,1,0,0,1,0,0,0,0,0,1,0,0,0,0,0,0,0,0,0,0,0,1,1,0,1,0,0,0,0,1,0,0,0,0,0,0,0,0,1,0,0,,0101000020E61000000321E8E444F155C06A11054CA2074540
271,Harms Woods-North,George F. Nixon Forest,,activity area,,42.0625555240933,-87.7720086521144,yes,Harms Rd &amp; Old Orchard Rd,"Cook County, IL 60077",,97,North Branch,,0,0,1,1,0,0,0,0,0,1,1,0,0,1,0,0,1,0,0,0,0,0,1,0,0,0,0,0,0,0,0,0,0,0,1,1,0,1,0,0,0,0,1,0,0,0,0,0,0,1,1,0,1,1,,0101000020E6100000E043FA9668F155C02115C5D101084540
273,Harms Woods-South,George F. Nixon Forest,,activity area,,42.0574509110928,-87.769401809467,yes,"Harms Rd, north of Golf Rd","Cook County, IL 60077",,98,North Branch,,0,0,0,0,0,0,0,0,0,1,1,0,0,1,0,0,1,0,0,0,0,0,1,0,0,0,0,0,0,0,0,0,0,0,1,1,0,0,0,0,0,0,1,0,0,0,0,0,0,0,0,1,0,0,,0101000020E6100000374916E13DF155C069222C8D5A074540
1076,Harms Flatwoods Nature Preserve,George F. Nixon Forest,,nature preserve,yes,,,yes,,"Skokie, IL 60077",237,0,North Branch,,0,0,0,0,0,0,0,0,0,1,1,0,0,0,0,0,1,1,0,0,0,0,1,0,0,0,0,0,0,0,1,0,0,0,0,0,0,0,0,0,0,0,1,0,1,0,0,0,0,0,0,0,0,0,,0101000020E6100000AFC5DEB8F1F055C0E32C741BA2074540
236,Miller Meadow-North,George A. Miller Meadow,,activity area,,41.8631474158894,-87.8296127043071,yes,"Roosevelt Rd, east of 1st Ave","Cook County, IL 60130",,5,Salt Creek,,0,0,0,0,0,0,0,0,0,0,0,0,0,0,0,0,1,0,0,0,0,0,0,0,1,0,0,0,0,0,0,0,0,0,1,1,0,0,0,0,0,0,0,0,0,0,0,0,0,0,0,1,1,0,,0101000020E61000001856E25F18F555C0946F519D7BEE4440
237,Miller Meadow-South,George A. Miller Meadow,,activity area,,41.8579385993794,-87.8296783779469,yes,"1st Ave, south of Roosevelt Rd","Cook County, IL 60130",,7,Salt Creek,,0,0,0,1,0,0,0,0,0,1,1,0,1,1,0,1,1,0,0,0,0,0,1,0,1,1,0,0,0,0,0,0,0,0,0,1,0,1,0,1,0,0,0,0,0,0,0,0,0,0,0,1,1,0,,0101000020E6100000BADE567319F555C0BC2799EED0ED4440
280,Miami Woods,Frank Bobrytzke,,activity area,,42.0279997101757,-87.7933246412127,yes,"N Caldwell Ave, north of Oakton St","Morton Grove, IL 60053",,295,North Branch,,0,0,0,0,0,0,0,0,0,1,1,0,0,1,0,0,1,0,0,0,0,0,1,0,0,0,0,0,0,0,0,0,0,0,0,1,0,1,0,0,0,0,1,0,0,0,0,0,0,0,0,1,1,0,,0101000020E6100000A447B7D4C5F255C04BC0977E95034540
279,St. Paul Woods,Frank Bobrytzke,,activity area,,42.0339879054924,-87.7907158709224,yes,"Lincoln Ave, south of W Dempster St","Morton Grove, IL 60053",,1,North Branch,,0,0,0,0,0,0,0,0,0,0,0,0,0,0,0,0,1,0,0,0,0,0,0,0,1,0,0,0,0,0,0,0,0,0,0,1,0,0,0,0,0,0,0,0,0,0,0,0,0,0,0,1,1,0,,0101000020E61000009082BD169BF255C0574637B759044540
348,Crabtree Nature Center,Crabtree Preserve,,nature center,yes,42.1156336936851,-88.1635751102888,yes,3 Stover Rd,"Barrington Hills, IL 60010",,199,Northwest,,0,0,0,1,0,0,0,0,0,0,0,0,0,0,1,0,1,0,0,0,0,0,1,0,0,0,0,1,1,0,0,0,0,0,0,0,0,0,0,0,0,0,0,0,0,1,0,0,1,1,1,0,0,0,,0101000020E61000005448BD03780A56C0C158BA15CD0E4540
173,Old Stover Trailhead,Crabtree Preserve,,activity area,,42.1100049270955,-88.1605143053909,yes,W Palatine Rd &amp; Stover Rd,"Cook County, IL 60010",,200,Northwest,,0,0,0,1,0,0,0,0,0,1,1,0,0,0,0,0,0,0,0,0,0,0,1,0,0,0,0,0,0,0,0,1,0,0,0,0,0,0,0,0,0,0,0,0,0,0,0,0,0,0,0,0,0,0,,0101000020E61000006F0CCBDD450A56C01A2336A4140E4540
283,Caldwell Woods,Clayton F. Smith,,activity area,yes,41.9985620366013,-87.7852861838492,yes,"W Devon Ave, west of N Milwaukee Ave","Chicago, IL 60646",,119,North Branch,,0,0,1,0,0,0,0,0,0,1,1,0,0,1,0,0,0,0,0,0,0,0,1,0,0,0,0,0,0,0,0,0,0,1,1,1,0,1,1,0,0,0,1,0,0,0,0,0,1,1,1,0,0,0,,0101000020E61000008568FB2042F255C06B1D7DE1D0FF4440
284,Whealan Pool Aquatic Center,Clayton F. Smith,,aquatic center,yes,41.9978882667258,-87.7828680645201,yes,6200 W Devon Ave,"Chicago, IL 60646",,241,North Branch,,0,0,0,0,0,0,0,0,0,0,0,0,0,0,0,0,0,0,0,0,0,0,0,0,0,0,0,0,0,0,0,0,0,0,0,0,0,0,0,0,1,0,0,0,0,0,0,0,1,1,1,0,0,0,,0101000020E6100000978CA7821AF255C027537FCDBAFF4440
53,Sidney Yates Flatwoods,Clayton F. Smith,,activity area,,42.0014652184513,-87.7783369338211,yes,,"Chicago, IL 60646",142,0,North Branch,,0,0,0,0,0,0,0,0,0,0,0,0,0,0,0,0,1,0,0,0,0,0,0,0,0,0,0,0,0,0,1,0,0,0,0,0,0,0,0,0,0,0,1,0,0,0,0,0,0,0,0,0,0,0,,0101000020E6100000F401B745D0F155C031AA240330004540
44,Cermak Family Aquatic Center,Cermak Pool,,aquatic center,yes,41.8189766941103,-87.8117771381533,yes,7600 W Ogden Ave,"Lyons, IL 60534",,336,Salt Creek,The Pool,0,0,0,0,0,0,0,0,0,0,0,0,0,0,0,0,0,0,0,0,0,0,0,0,0,0,0,0,0,0,0,0,0,0,0,0,0,0,0,0,1,0,0,0,0,0,0,0,1,1,1,0,0,0,0101000020E610000069AF878E22F455C082D3AF5BFCE84440,0101000020E610000091001928F4F355C0EAB1723AD4E84440
136,Camp Sullivan,Camp Falcon,,camp,,41.6254711238817,-87.7875399040598,yes,14630 Oak Park Ave,"Oak Forest, IL 60452",,181,Tinley Creek,,0,0,0,0,0,0,1,0,0,0,0,0,0,0,0,0,0,0,0,0,0,0,0,0,0,0,0,0,0,0,0,0,0,0,0,0,0,0,0,0,0,0,0,0,0,0,0,1,1,1,1,0,0,0,,0101000020E6100000D70EC50D67F255C009D512700FD04440
29,Ned Brown Meadow,Busse Woods,,activity area,,42.0477924214506,-88.0226419129759,yes,"Golf Rd, east of I-290/Hwy 53","Cook County, IL 60007",,143,Northwest,,0,0,0,0,0,0,0,0,0,1,1,0,0,1,0,1,0,0,0,0,0,0,1,0,0,1,0,0,0,0,0,0,0,0,0,1,0,1,0,1,0,0,1,0,0,1,0,0,1,1,0,0,0,0,,0101000020E610000008F010F7720156C04790E30F1E064540
196,Bode Lake,Arthur L. Janura Preserve,,activity area,,42.0426134084552,-88.1695492504473,yes,"E Bode Rd, east of Bartlett Rd","Hoffman Estates, IL 60107",,213,Northwest,,0,0,0,0,0,0,0,0,0,1,1,0,0,1,0,0,0,0,1,1,0,0,1,0,0,0,0,0,0,0,0,0,0,0,0,0,0,0,0,0,0,0,0,0,0,0,0,0,0,0,0,1,1,0,,0101000020E6100000DE6E19E5D90A56C0CED72D5B74054540
197,Barrington Road Pond,Arthur L. Janura Preserve,,activity area,yes,42.0568936109218,-88.1465392925414,yes,"S Barrington Rd, south of W Higgins Rd","Hoffman Estates, IL 60194",,160,Northwest,,0,0,0,0,0,0,0,0,0,1,1,0,0,1,0,0,1,0,1,0,0,0,1,0,0,0,0,0,0,1,0,0,0,0,0,1,1,0,0,0,0,0,0,0,0,0,0,0,0,1,1,0,1,0,,0101000020E6100000D94257E6600956C05421334A48074540
35,Bode East,Arthur L. Janura Preserve,,activity area,,42.0398829309904,-88.1507147384845,yes,"E Bode Rd, west of S Barrington Rd","Hoffman Estates, IL 60107",,333,Northwest,,0,0,0,0,0,0,0,0,0,1,1,0,0,1,0,0,0,0,0,0,0,0,1,0,0,0,0,0,0,0,0,0,0,0,0,0,0,1,0,0,0,0,0,0,0,0,0,0,0,0,0,1,0,0,,0101000020E61000003D346E4FA50956C0E02246E21A054540
