poi_info_id,point_type,public_access,latitude,longitude,web_poi,web_street_addr,web_muni_addr,parking_connection_id,parking_info_id,maintenance_div,maintenance_div_nickname,name,alt_name,alt2_name,ada,bike_parking,bike_rental,birding,boat_ramp,boat_rental,camping,canoe,comfortstation,cross_country,cycling,disc_golf,dog_friendly,dog_leash,drinkingwater,driving_range,drone,ecological,equestrian,fitness_stairs,fishing,ice_fishing,gas_powered,golf,hiking,indoor_rental,large_capacity,m_airplane,m_boat,nature_center,nature_preserve,natureplay,no_alcohol,no_dogs,no_fishing,no_parking,overlook,pavilion,public_building,picnic_grove,shelter,skating_ice,skating_inline,sledding,snowmobile,swimming,toboggan,volunteer,zip_line,bathroom_building_winter,bathroom_building_summer,bathroom_building_ada,bathroom_portable_summer,bathroom_portable_winter,bathroom_portable_ada,shower,dining_hall,sanitation_station,camp_store,accessible_shelter,web_map_geom,geom
2,nature preserve,,41.6784402784034,-87.8936629947387,yes,,"Cook County, IL 60464",61,0,Palos,,Cap Sauers Holding Nature Preserve,Palos,,0,0,0,0,0,0,0,0,0,1,1,0,0,0,0,0,0,1,0,0,0,0,0,0,1,0,0,0,0,0,1,0,0,0,0,1,0,0,0,0,0,0,0,0,0,0,0,1,0,0,0,0,0,0,0,0,0,0,0,0,,0101000020E6100000160346C631F955C013048C21D7D64440
3,nature preserve,,41.7093005567491,-87.8628168865171,yes,,"Cook County, IL 60480",67,0,Palos,,Cranberry Slough Nature Preserve,Palos,,0,0,0,0,0,0,0,0,0,1,1,0,0,0,0,0,0,1,0,0,0,0,0,0,1,0,0,0,0,0,1,0,0,0,1,1,0,0,0,0,0,0,0,0,0,0,0,1,0,0,0,0,0,0,0,0,0,0,0,0,,0101000020E6100000C381516438F755C0CC22535CCADA4440
12,golf course,,41.6001490639521,-87.7638582069222,yes,16310 S Central Ave,"Oak Forest, IL 60452",,280,Tinley Creek,,George W. Dunne National Golf Course,,,0,0,0,0,0,0,0,0,0,0,0,0,0,0,0,1,0,0,0,0,0,0,0,1,0,0,0,0,0,0,0,0,0,0,0,0,0,0,0,0,0,0,0,0,0,0,0,0,0,0,0,0,0,0,0,0,0,0,0,0,,0101000020E6100000C660880DE3F055C016333DAFD1CC4440
13,activity area,,41.7324336383051,-87.680722145691,yes,"S Western Ave, south of W 87th St","Chicago, IL 60620",,135,Calumet,,Dan Ryan Woods-South,,,0,0,0,0,0,0,0,0,0,0,0,0,0,0,0,0,0,1,0,0,0,0,0,0,0,0,0,0,0,0,0,0,1,0,0,0,0,0,0,1,1,0,0,0,0,0,0,1,0,0,0,0,1,0,0,0,0,0,0,0,,0101000020E6100000F4599EF390EB55C05A81AD62C0DD4440
15,aquatic center,yes,41.6026404371242,-87.5534210748,yes,1100 River Oaks Drive,"Calumet City, IL 60409",,90,Thorn Creek ,,Green Lake Family Aquatic Center,Green Lake Pool,,0,0,0,0,0,0,0,0,0,0,0,0,0,0,0,0,0,0,0,0,0,0,0,0,0,0,0,0,0,0,0,0,0,1,0,0,0,0,0,0,0,0,0,0,0,1,0,0,0,1,1,1,0,0,0,0,0,0,0,0,,0101000020E6100000B94B3A406BE355C00859645223CD4440
16,nature preserve,,41.6280980643747,-87.546222161368,yes,"","Calumet City, IL 60409",,0,Thorn Creek ,,Calumet City Prairie & Marsh Nature Preserve,,,0,0,0,0,0,0,0,0,0,0,0,0,0,0,0,0,0,1,0,0,0,0,0,0,0,0,0,0,0,0,1,0,0,1,0,1,0,0,0,0,0,0,0,0,0,0,0,0,0,0,0,0,0,0,0,0,0,0,0,0,,0101000020E610000041DBCB4DF5E255C0C595728465D04440
19,activity area,,41.6180913233709,-87.5458031363017,yes,,"Calumet City, IL 60409",,0,Thorn Creek ,,Wentworth Prairie,,,0,0,0,0,0,0,0,0,0,0,0,0,0,0,0,0,0,1,0,0,0,0,0,0,0,0,0,0,0,0,0,0,0,0,0,1,0,0,0,0,0,0,0,0,0,0,0,0,0,0,0,0,0,0,0,0,0,0,0,0,,0101000020E6100000141E4770EEE255C0DEE8D19D1DCF4440
20,activity area,,41.634736801691,-87.6592241700086,yes,"Wood St, south of Thornton Rd","Dixmoor, IL 60426",,323,Calumet,,Dixmoor Playfield,,,0,0,0,0,0,0,0,0,0,0,0,0,0,0,0,0,0,0,0,0,0,0,0,0,0,0,0,0,0,0,0,0,0,0,0,0,0,0,0,0,1,0,0,0,0,0,0,0,0,0,0,0,1,1,0,0,0,0,0,0,,0101000020E6100000D7BA92BA30EA55C0506A360E3FD14440
21,activity area,,41.500380708745,-87.6494012999376,yes,,"Chicago Heights, IL 60411",,0,Thorn Creek ,,Indian Hill Woods,,,0,0,0,0,0,0,0,0,0,0,0,0,0,0,0,0,0,1,0,0,0,0,0,0,0,0,0,0,0,0,0,0,0,0,0,1,0,0,0,0,0,0,0,0,0,0,0,0,0,0,0,0,0,0,0,0,0,0,0,0,,0101000020E6100000904D78CA8FE955C0F7CD9D790CC04440
22,activity area,,41.5715772006866,-87.5919974703954,yes,"Thornton-Lansing Rd, west of IL-394","Cook County, IL 60476",,113,Thorn Creek ,Wampum,Wampum Lake,,,0,0,0,0,0,0,0,0,0,0,0,0,0,0,0,0,0,0,0,0,1,1,0,0,0,0,0,0,0,0,0,0,0,0,0,0,0,0,0,1,1,0,0,0,0,0,0,1,0,0,0,0,1,1,0,0,0,0,0,0,,0101000020E61000006CAA5B49E3E555C0460B147129C94440
23,activity area,,42.0599441421809,-87.7123799219771,yes,Ewing Ave &amp; Grant St,"Evanston, IL 60201",,0,North Branch,,Perkins Woods,,,0,0,0,1,0,0,0,0,0,0,0,0,0,0,0,0,0,1,0,0,0,0,0,0,0,0,0,0,0,0,0,0,0,0,0,1,0,0,0,0,0,0,0,0,0,0,0,1,0,0,0,0,0,0,0,0,0,0,0,0,,0101000020E610000001CEF4A197ED55C07820E93FAC074540
27,activity area,,41.4947054229015,-87.5428955969307,yes,"Burnham Ave, south of E Sauk Trail","Cook County, IL 60411",,330,Thorn Creek ,,Michael J. O'Malley Preserve,O'Malley Ponds,,0,0,0,0,0,0,0,0,0,0,0,0,0,0,0,0,0,0,0,0,1,0,0,0,0,0,0,0,0,0,0,0,0,0,0,1,0,0,0,0,0,0,0,0,0,0,0,0,0,0,0,0,0,0,0,0,0,0,0,0,,0101000020E6100000697D2CCDBEE255C00942DE8152BF4440
28,activity area,,41.484630847409,-87.5337460697742,yes,"Burnham Ave, north of 223rd St","Cook County, IL 60411",,103,Thorn Creek ,Plum Creek,Plum Creek Meadow,,,0,0,0,0,0,0,0,0,0,1,1,0,0,1,0,0,1,1,0,0,0,0,0,0,1,0,1,0,0,0,0,0,0,0,0,0,0,0,0,0,1,0,0,0,0,0,0,0,0,0,1,1,0,0,0,0,0,0,0,1,,0101000020E61000001B8346E528E255C08B20346208BE4440
29,activity area,,42.0477924214506,-88.0226419129759,yes,"Golf Rd, east of I-290/Hwy 53","Cook County, IL 60007",,143,Northwest,,Ned Brown Meadow,Busse Woods,,0,0,0,0,0,0,0,0,0,1,1,0,0,1,0,0,1,0,0,0,0,0,0,0,1,0,0,1,0,0,0,0,0,0,1,0,0,0,0,0,1,0,1,0,1,0,0,1,0,1,1,0,0,0,0,0,0,0,0,0,,0101000020E610000006F010F7720156C04790E30F1E064540
30,nature preserve,,42.0451442772333,-88.0049375571208,yes,,"Cook County, IL 60007",316,0,Northwest,,Busse Forest Nature Preserve,Busse Woods,Ned Brown,0,0,0,1,0,0,0,0,0,0,0,0,0,0,0,0,0,0,0,0,0,0,0,0,0,0,0,0,0,0,1,0,1,1,1,1,0,0,0,0,0,0,0,0,0,0,0,1,0,0,0,0,0,0,0,0,0,0,0,0,,0101000020E6100000C3969DE5500056C0C328A549C7054540
31,activity area,,42.0248840654301,-87.9928974822813,yes,"E Higgins Rd/Rte 72, west of N Arlington Heights Rd","Cook County, IL 60007",,312,Northwest,,Busse Forest-South,Busse Woods,Ned Brown,0,0,0,0,0,0,0,0,0,1,1,0,0,1,0,0,0,1,0,0,1,1,0,0,1,0,1,0,0,0,0,0,0,0,0,0,0,0,0,1,1,0,1,0,0,0,0,1,0,0,1,0,0,0,0,0,0,0,0,0,,0101000020E610000073ABE1A18BFF55C05E9BAB662F034540
34,activity area,,42.0093927955306,-87.8573902373624,yes,"E Touhy Ave, east of Talcott Rd","Park Ridge, IL 60068",,21,Indian Boundary,,John E. Traeger Family Picnic Area,,,0,0,0,0,0,0,0,0,0,0,0,0,0,0,0,0,0,0,0,0,0,0,0,0,0,0,0,0,0,0,0,0,0,0,0,0,0,0,0,0,0,0,0,0,0,0,0,0,0,0,0,0,0,0,0,0,0,0,0,0,,0101000020E610000062584D7BDFF655C09BCF7AC833014540
35,activity area,,42.0398829309904,-88.1507147384845,yes,"E Bode Rd, west of S Barrington Rd","Hoffman Estates, IL 60107",,333,Northwest,,Bode East,Arthur L. Janura Preserve,,0,0,0,0,0,0,0,0,0,1,1,0,0,1,0,0,0,0,0,0,0,0,0,0,1,0,0,0,0,0,0,0,0,0,0,0,0,0,0,0,0,0,1,0,0,0,0,0,0,0,0,0,1,0,0,0,0,0,0,0,,0101000020E61000003C346E4FA50956C0DF2246E21A054540
39,activity area,,41.8834489126874,-87.8276994451372,yes,,"River Forest, IL 60305",,0,Indian Boundary,,G.A.R. Woods,Grand Army of the Republic Woods,,0,0,0,0,0,0,0,0,0,0,0,0,0,0,0,0,0,1,0,0,0,0,0,0,0,0,0,0,0,0,0,0,0,0,0,1,0,0,0,0,0,0,0,0,0,0,0,0,0,0,0,0,0,0,0,0,0,0,0,0,,0101000020E610000004F21707F9F455C0ECD69DDA14F14440
40,activity area,,41.8805970783322,-87.8266900165327,yes,,"River Forest, IL 60305",,0,Indian Boundary,,Thomas Jefferson Woods,,,0,0,0,0,0,0,0,0,0,0,0,0,0,0,0,0,0,1,0,0,0,0,0,0,0,0,0,0,0,0,0,0,0,0,0,1,0,0,0,0,0,0,0,0,0,0,0,0,0,0,0,0,0,0,0,0,0,0,0,0,,0101000020E6100000FF3B3E7DE8F455C0EF31B267B7F04440
41,special activity,,41.8328520584018,-87.8359964800038,yes,3300 Golf Rd,"Brookfield, IL 60513",,337,Salt Creek,,Brookfield Zoo,,,0,0,0,1,0,0,0,0,0,0,0,0,0,0,0,0,0,0,0,0,0,0,0,0,1,0,0,0,0,0,0,0,0,0,1,0,0,0,0,0,0,0,0,0,0,0,0,0,0,1,1,1,0,0,0,0,0,0,0,0,,0101000020E6100000FA4B61F780F555C0F99E70E59AEA4440
42,activity area,,41.8474524561742,-87.8690492912182,yes,"W Cermak Rd, east of S Manheim Rd/S La Grange Rd","Cook County, IL 60526",,11,Salt Creek,Westchester,Westchester Woods,,,0,0,0,0,0,0,0,0,0,0,0,0,0,0,0,0,0,0,0,0,0,0,0,0,0,0,0,0,0,0,0,0,0,0,0,0,0,0,0,1,0,0,0,1,0,0,0,0,0,0,0,0,1,1,0,0,0,0,0,0,,0101000020E61000003819EB809EF755C06F17745279EC4440
43,nature preserve,,41.8385172657,-87.9046266903584,yes,"31st St, west of Wolf Rd","Cook County, IL 60154",,251,Salt Creek,,Wolf Road Prairie Nature Preserve,,,0,0,0,1,0,0,0,0,0,0,0,0,0,0,0,0,0,1,0,0,0,0,0,0,0,0,0,0,0,0,1,0,0,1,0,0,0,0,0,0,0,0,0,0,0,0,0,1,0,0,0,0,0,0,0,0,0,0,0,0,,0101000020E6100000668B5867E5F955C00CA8A48854EB4440
44,aquatic center,yes,41.8189766941103,-87.8117771381533,yes,7600 W Ogden Ave,"Lyons, IL 60534",,336,Salt Creek,The Pool,Cermak Family Aquatic Center,Cermak Pool,,0,0,0,0,0,0,0,0,0,0,0,0,0,0,0,0,0,0,0,0,0,0,0,0,0,0,0,0,0,0,0,0,0,1,0,0,0,0,0,0,0,0,0,0,0,1,0,0,0,1,1,1,0,0,0,0,0,0,0,0,0101000020E610000069AF878E22F455C082D3AF5BFCE84440,0101000020E61000008F001928F4F355C0E9B1723AD4E84440
46,activity area,,42.1335743692229,-87.8051695640779,yes,,"Northbrook, IL 60062",,0,North Branch,,Chipilly Woods,,,0,0,0,0,0,0,0,0,0,0,0,0,0,0,0,0,0,0,0,0,0,0,0,0,0,0,0,0,0,0,0,0,0,0,0,1,0,0,0,0,0,0,0,0,0,0,0,0,0,0,0,0,0,0,0,0,0,0,0,0,,0101000020E6100000BA5CECE587F355C0BBB205F718114540
47,activity area,,42.1423442131049,-87.8299956210893,yes,,"Cook County, IL 60062",163,0,North Branch,,Somme Prairie Grove,Somme Woods,,0,0,0,0,0,0,0,0,0,0,0,0,0,0,0,0,0,1,0,0,0,0,0,0,0,0,0,0,0,0,0,0,0,0,0,1,0,0,0,0,0,0,0,0,0,0,0,1,0,0,0,0,0,0,0,0,0,0,0,0,,0101000020E6100000B119F4A51EF555C0BE07CE5538124540
49,activity area,,42.1504784215512,-87.7786838758566,yes,,"Glencoe, IL 60022",,0,North Branch,,Mary Mix McDonald Woods,William N. Erickson Preserves,Skokie Lagoons,0,0,0,0,0,0,0,0,0,0,0,0,0,0,0,0,0,1,0,0,0,0,0,0,0,0,0,0,0,0,0,0,0,0,0,1,0,0,0,0,0,0,0,0,0,0,0,0,0,0,0,0,0,0,0,0,0,0,0,0,,0101000020E61000007E2EE5F4D5F155C07DA87DE042134540
50,activity area,,42.092395994616,-87.7731923577862,yes,,"Cook County, IL 60093",,0,North Branch,,Watersmeet Woods,,,0,0,0,0,0,0,0,0,0,0,0,0,0,0,0,0,0,1,0,0,0,0,0,0,0,0,0,0,0,0,0,0,0,0,0,1,0,0,0,0,0,0,0,0,0,0,0,1,0,0,0,0,0,0,0,0,0,0,0,0,,0101000020E61000005B8DCCFB7BF155C02094C7A1D30B4540
51,golf course,,41.99296015882,-87.7705130130416,yes,6100 N Central Ave,"Chicago, IL 60646",,242,North Branch,,Edgebrook Golf Course,,,0,0,0,0,0,0,0,0,0,0,0,0,0,0,0,0,0,0,0,0,0,0,0,1,0,0,0,0,0,0,0,0,0,0,0,0,0,0,0,0,0,0,0,0,0,0,0,0,0,0,0,0,0,0,0,0,0,0,0,0,0101000020E6100000108C3D3909F155C0A3A2D0AAC7FE4440,0101000020E6100000F909D01550F155C0762E885119FF4440
52,activity area,,41.9890384355563,-87.7642791595145,yes,"N Central Ave, north of N Elston Ave","Chicago, IL 60646",,121,North Branch,,"Thaddeus S. ""Ted"" Lechowicz Woods",Indian Road Woods,,0,0,0,0,0,0,0,0,0,1,1,0,0,1,0,0,0,1,0,0,0,0,0,0,1,0,0,0,0,0,0,0,0,0,0,0,0,0,0,0,1,0,0,1,0,0,0,1,0,0,0,0,1,1,0,0,0,0,0,0,,0101000020E610000040C822F3E9F055C0BD99BBCF98FE4440
53,activity area,,42.0014652184513,-87.7783369338211,yes,,"Chicago, IL 60646",142,0,North Branch,,Sidney Yates Flatwoods,Clayton F. Smith,,0,0,0,0,0,0,0,0,0,0,0,0,0,0,0,0,0,1,0,0,0,0,0,0,0,0,0,0,0,0,0,0,0,0,0,1,0,0,0,0,0,0,0,0,0,0,0,0,0,0,0,0,0,0,0,0,0,0,0,0,,0101000020E6100000F201B745D0F155C030AA240330004540
55,activity area,,41.7210067295146,-87.8485448767528,yes,"S Kean Ave, north of W 95th St","Cook County, IL 60480",,320,Palos,,Hidden Pond Woods-East,Palos,,0,0,0,0,0,0,0,0,0,1,1,0,0,1,0,0,0,1,1,0,0,0,0,0,1,0,0,0,0,0,0,0,0,0,1,0,0,0,0,1,0,1,0,0,0,0,0,1,0,0,0,0,1,1,0,0,0,0,0,0,,0101000020E6100000DEB52B8F4EF655C001BBD1F249DC4440
56,activity area,,41.9766177219045,-87.745092424784,yes,"N Cicero Ave, north of W Foster Ave","Chicago, IL 60630",,124,North Branch,,LaBagh Woods,Sauganash Prairie,,0,0,0,1,0,0,0,0,0,1,1,0,0,1,0,0,0,1,0,0,0,0,0,0,1,0,0,0,0,0,0,0,1,0,0,0,0,0,0,0,1,0,0,0,0,0,0,1,0,0,1,1,1,1,1,0,0,0,0,1,,0101000020E6100000733C2398AFEF55C012233CCF01FD4440
58,activity area,yes,41.7094065907726,-87.8729945846752,yes,"Willow Springs Rd, south of 95th St","Cook County, IL 60480",,192,Palos,,Camp Kiwanis Equestrian Staging Area,Palos,,0,0,0,0,0,0,0,0,0,1,1,0,0,1,0,0,0,0,1,0,0,0,0,0,1,0,0,0,0,0,0,0,0,0,0,0,0,0,0,0,0,0,0,0,0,0,0,0,0,0,0,0,0,0,0,0,0,0,0,0,,0101000020E6100000F5B0AD24DFF755C0B877CDD5CDDA4440
60,activity area,,41.7023968536751,-87.8773735176755,yes,"S Willow Springs Rd/Flavin Rd, north of 107th St","Cook County, IL 60480",,311,Palos,,Joe's Pond,,,0,0,0,0,0,0,0,0,0,0,0,0,0,0,0,0,0,0,0,0,1,0,0,0,0,0,0,0,0,0,0,0,0,0,0,0,0,0,0,0,0,0,0,0,0,0,0,0,0,0,0,0,0,0,0,0,0,0,0,0,,0101000020E6100000B83241E326F855C084ACDD23E8D94440
61,activity area,,41.7043176456379,-87.8734602656414,yes,"S Willow Springs Rd/Flavin Rd, north of 107th St","Cook County, IL 60480",,419,Palos,,Tuma Lake,,,0,0,0,0,0,0,0,0,0,0,0,0,0,0,0,0,0,0,0,0,1,0,0,0,0,0,0,0,0,0,0,0,0,0,0,0,0,0,0,0,0,0,0,0,0,0,0,0,0,0,0,0,0,0,0,0,0,0,0,0,,0101000020E61000003ED2E2C5E6F755C05901A31427DA4440
64,activity area,,42.0560644867655,-87.877466131064,yes,,"Cook County, IL 60016",,0,Indian Boundary,,Kloempken Prairie,,,0,0,0,0,0,0,0,0,0,0,0,0,0,0,0,0,0,1,0,0,0,0,0,0,0,0,0,0,0,0,0,0,0,0,0,1,0,0,0,0,0,0,0,0,0,0,0,1,0,0,0,0,0,0,0,0,0,0,0,0,,0101000020E61000001E11B46728F855C0F88F001F2D074540
65,nature preserve,,42.1457695340063,-88.2155225046444,yes,,"Barrington Hills, IL 60010",347,0,Northwest,,Spring Lake Nature Preserve,,,0,0,0,0,0,0,0,0,0,1,1,0,0,0,0,0,0,1,0,0,0,0,0,0,1,0,0,0,0,0,1,0,0,0,0,1,0,0,0,0,0,0,0,0,0,0,0,1,0,0,0,0,0,0,0,0,0,0,0,0,,0101000020E6100000FA3FE71ECB0D56C0AEA77A93A8124540
68,activity area,,41.5671200238494,-87.7519826724247,yes,,"Cook County, IL 60477",,0,Tinley Creek,,Tryner's Pond,,,0,0,0,0,0,0,0,0,0,0,0,0,0,0,0,0,0,0,0,0,1,0,0,0,0,0,0,0,0,0,0,0,0,0,0,1,0,0,0,0,0,0,0,0,0,0,0,0,0,0,0,0,0,0,0,0,0,0,0,0,,0101000020E61000003E4EEE7B20F055C085AB916397C84440
70,nature preserve,,41.6462654258348,-87.5332752786501,yes,,"Chicago, IL 60633",149,0,Calumet,,Powderhorn Prairie and Marsh Nature Preserve,,,0,0,0,1,0,0,0,0,0,0,0,0,0,0,0,0,0,1,0,0,0,0,0,0,0,0,0,0,0,0,1,0,0,1,1,1,0,0,0,0,0,0,0,0,0,0,0,1,0,0,0,0,0,0,0,0,0,0,0,0,,0101000020E61000004F64A22E21E255C07A3F52D3B8D24440
74,activity area,,41.6591317588222,-87.9246980392589,yes,,"Cook County, IL 60439",297,0,Palos,,McGinty Slough,,,0,0,0,0,0,0,0,0,0,0,0,0,0,0,0,0,0,0,0,0,1,0,0,0,0,0,0,0,0,0,0,0,0,0,0,1,0,0,0,0,0,0,0,0,0,0,0,0,0,0,0,0,0,0,0,0,0,0,0,0,,0101000020E6100000B652AF402EFB55C0B4F2F16D5ED44440
76,nature preserve,,41.5370289657047,-87.7618932578595,yes,"Flossmoor Rd, west of Central Ave","Cook County, IL 60477",,310,Tinley Creek,,Bartel Grassland Land and Water Reserve,South Green Belt Preserves,,0,0,0,1,0,0,0,0,0,0,0,0,0,0,0,0,0,1,0,0,0,0,0,0,0,0,0,0,0,0,1,0,0,1,0,0,0,0,0,0,0,0,0,0,0,0,0,1,0,0,0,0,1,1,0,0,0,0,0,0,,0101000020E61000002963F0DBC2F055C0705A7A5DBDC44440
81,activity area,,42.036030482894,-88.2307713965283,yes,11N260 Rohrssen Rd,"Elgin, IL 60120",,188,Northwest,,Rolling Knolls,,,0,0,0,0,0,0,0,0,0,1,0,1,0,1,0,0,1,0,0,0,1,0,0,0,1,1,0,0,0,0,0,0,0,0,0,0,0,0,1,0,0,0,0,1,0,0,0,0,0,1,1,1,1,1,0,0,0,0,0,0,,0101000020E61000003F3C64F5C40E56C032D898A59C044540
82,activity area,,41.6340028311352,-87.5708694432508,yes,,"Calumet City, IL 60409",,0,Calumet,,Dolton Avenue Prairie,,,0,0,0,1,0,0,0,0,0,0,0,0,0,0,0,0,0,1,0,0,0,0,0,0,0,0,0,0,0,0,0,0,0,0,0,1,0,0,0,0,0,0,0,0,0,0,0,1,0,0,0,0,0,0,0,0,0,0,0,0,,0101000020E61000000D43FD1F89E455C00CA6380127D14440
84,nature preserve,,41.6136057653046,-87.5556691249524,yes,,"Calumet City, IL 60409",,0,Thorn Creek ,,Sand Ridge Nature Preserve,,,0,0,0,0,0,0,0,0,0,0,0,0,0,0,0,0,0,1,0,0,0,0,0,0,0,0,0,0,0,0,1,0,0,1,0,1,0,0,0,0,0,0,0,0,0,0,0,0,0,0,0,0,0,0,0,0,0,0,0,0,,0101000020E610000053C43B1590E355C0624F3BA28ACE4440
85,nature preserve,,41.5614590719372,-87.5911807082971,yes,,"Cook County, IL 60476",,0,Thorn Creek ,,Thornton-Lansing Road Nature Preserve,Zanders Woods,,0,0,0,0,0,0,0,0,0,0,0,0,0,0,0,0,0,1,0,0,0,0,0,0,0,0,0,0,0,0,1,0,0,1,0,1,0,0,0,0,0,0,0,0,0,0,0,0,0,0,0,0,0,0,0,0,0,0,0,0,,0101000020E61000005D0A9CE7D5E555C09D0110E4DDC74440
86,nature preserve,,42.0600302309336,-88.1996920619862,yes,,"Cook County, IL 60192",156,0,Northwest,,Shoe Factory Road Prairie Nature Preserve,Arthur L. Janura Preserve,,0,0,0,1,0,0,0,0,0,0,0,0,0,0,0,0,0,1,0,0,0,0,0,0,0,0,0,0,0,0,1,0,0,1,0,1,0,0,0,0,0,0,0,0,0,0,0,0,0,0,0,0,0,0,0,0,0,0,0,0,,0101000020E610000016E036C1C70C56C0C4501312AF074540
88,nature preserve,,41.7239625899084,-87.8869249334928,yes,,"Cook County, IL 60480",,0,Palos,,Paw Paw Woods Nature Preserve,Palos,,0,0,0,0,0,0,0,0,0,0,0,0,0,0,0,0,0,1,0,0,0,0,0,0,0,0,0,0,0,0,1,0,0,1,0,1,0,0,0,0,0,0,0,0,0,0,0,1,0,0,0,0,0,0,0,0,0,0,0,0,,0101000020E6100000F3D6CB60C3F855C088975FCEAADC4440
89,nature preserve,,41.6983424081041,-87.8414085910535,yes,,"Palos Hills, IL 60465",,0,Palos,,Palos Fen Nature Preserve,Palos,,0,0,0,0,0,0,0,0,0,0,0,0,0,0,0,0,0,1,0,0,0,0,0,0,0,0,0,0,0,0,1,0,0,1,0,1,0,0,0,0,0,0,0,0,0,0,0,0,0,0,0,0,0,0,0,0,0,0,0,0,,0101000020E61000007C496BA3D9F555C0C81BB64863D94440
91,nature preserve,,41.6386733260067,-87.5494566247011,yes,,"Burnham, IL 60633",300,0,Thorn Creek,,Burnham Prairie Nature Preserve,,,0,0,0,1,0,0,0,0,0,0,0,0,0,0,0,0,0,1,0,0,0,0,0,0,0,0,0,0,0,0,1,0,0,1,1,1,0,0,0,0,0,0,0,0,0,0,0,0,0,0,0,0,0,0,0,0,0,0,0,0,,0101000020E61000005B6A1E4C2AE355C060032C0CC0D14440
92,nature preserve,,41.8318805351405,-87.8893346687094,yes,,"La Grange Park, IL 60526",151,0,Salt Creek,,Salt Creek Woods Nature Preserve,,,0,0,0,1,0,0,0,0,0,1,1,0,0,0,0,0,0,1,0,0,0,0,0,0,1,0,0,0,0,0,1,0,0,0,0,1,0,0,0,0,0,0,0,0,0,0,0,1,0,0,0,0,0,0,0,0,0,0,0,0,,0101000020E61000009153F5DBEAF855C0BB4DB60F7BEA4440
93,nature preserve,,42.1418192736822,-87.8378815193573,yes,,"Cook County, IL 60062",163,0,North Branch,,Somme Prairie Nature Preserve,Somme Woods,,0,0,0,0,0,0,0,0,0,0,0,0,0,0,0,0,0,1,0,0,0,0,0,0,0,0,0,0,0,0,1,0,0,1,0,1,0,0,0,0,0,0,0,0,0,0,0,1,0,0,0,0,0,0,0,0,0,0,0,0,,0101000020E6100000FEE3CED99FF555C025344B2227124540
96,nature preserve,,41.6837383377182,-88.0250334973323,yes,,"Cook County, IL 60439",154,0,Palos,,Black Partridge Woods Nature Preserve,Goose Lake,,0,0,0,0,0,0,0,0,0,0,0,0,0,0,0,0,0,0,0,0,0,0,0,0,0,0,0,0,0,0,1,0,1,1,1,1,0,0,0,0,0,0,0,0,0,0,0,1,0,0,0,0,0,0,0,0,0,0,0,0,,0101000020E6100000321619269A0156C0B0C2E3BC84D74440
97,nature preserve,,41.6917372715712,-87.9224335796248,yes,,"Cook County, IL 60439",267,0,Palos,,Sagawau Canyon Nature Preserve,Palos,Sagawau Environmental Learning Center,0,0,0,1,0,0,0,0,0,0,0,0,0,0,0,0,0,0,0,0,0,0,0,0,0,0,0,0,0,0,1,0,0,1,1,1,0,0,0,0,0,0,0,0,0,0,0,1,0,0,0,0,0,0,0,0,0,0,0,0,,0101000020E61000001B4EDA2609FB55C04569CFD88AD84440
99,activity area,,41.6782487667657,-87.5295258210979,yes,,"Chicago, IL 60617",,0,Calumet,,Wolf Lake Overlook,,,0,0,0,1,0,0,0,0,0,0,0,0,0,0,0,0,0,1,0,0,0,0,0,0,0,0,0,0,0,0,0,0,0,0,1,1,1,0,0,0,0,0,0,0,0,0,0,0,0,0,0,0,0,0,0,0,0,0,0,0,,0101000020E61000002F0045C0E3E155C0C9E707DBD0D64440
100,camp,,41.7091219193714,-87.9031915070664,yes,9600 Wolf Rd,"Willow Springs, IL 60480",,334,Palos,,Camp Bullfrog Lake,Palos,,0,0,0,0,0,1,1,0,0,1,1,0,0,1,0,0,0,0,0,0,1,1,0,0,1,0,0,0,0,0,0,0,0,0,0,0,0,0,0,0,1,0,0,0,0,0,0,0,0,1,1,1,0,0,0,1,1,1,1,0,,0101000020E61000000238C0E3CDF955C0DD49CE81C4DA4440
101,nature preserve,,41.5553016910371,-87.5874930103787,yes,,"Cook County, IL 60476",162,0,Thorn Creek ,,Jurgensen Woods North Nature Preserve,,,0,0,0,1,0,0,0,0,0,1,1,0,0,0,0,0,0,0,0,0,0,0,0,0,1,0,0,0,0,0,1,0,0,0,0,1,0,0,0,0,0,0,0,0,0,0,0,0,0,0,0,0,0,0,0,0,0,0,0,0,,0101000020E61000001B8D487C99E555C07C35352014C74440
102,nature preserve,,41.6907763361242,-87.8648260077968,yes,,"Cook County, IL 60480",255,0,Palos,,McMahon Woods and Fen Nature Preserve,Palos,,0,0,0,1,0,0,0,0,0,0,0,0,0,0,0,0,0,1,0,0,0,0,0,0,0,0,0,0,0,0,1,0,0,1,0,1,0,0,0,0,0,0,0,0,0,0,0,1,0,0,0,0,0,0,0,0,0,0,0,0,,0101000020E6100000E90D2F4F59F755C08540E65B6BD84440
103,activity area,,42.0177071722708,-87.8713454711081,yes,,"Cook County, IL 60018",,0,Indian Boundary,Campground Woods,Algonquin Woods,,,0,0,0,0,0,0,0,0,0,0,0,0,0,0,0,0,0,0,0,0,0,0,0,0,0,0,0,0,0,0,0,0,0,0,0,1,0,0,0,0,0,0,0,0,0,0,0,0,0,0,0,0,0,0,0,0,0,0,0,0,,0101000020E6100000527BCB1FC4F755C065E7863A44024540
108,nature preserve,,42.1407745871045,-88.1170300567157,yes,,"Cook County, IL 60010",201,0,Northwest,,Baker's Lake Nature Preserve,,,0,0,0,1,0,0,0,0,0,0,0,0,0,0,0,0,0,1,0,0,0,0,0,0,1,0,0,0,0,0,1,0,0,1,1,1,0,0,0,0,0,0,0,0,0,0,0,1,0,0,0,0,0,0,0,0,0,0,0,0,,0101000020E61000008B8FA26B7D0756C05ADCD3E604124540
109,nature preserve,,42.0143295204857,-88.2543180820433,yes,,"Elgin, IL 60120",,0,Northwest,,Bluff Spring Fen Nature Preserve,,,0,0,0,1,0,0,0,0,0,0,0,0,0,0,0,0,0,1,0,0,0,0,0,0,1,0,0,0,0,0,1,0,0,1,1,0,0,0,0,0,0,0,0,0,0,0,0,1,0,0,0,0,0,0,0,0,0,0,0,0,,0101000020E6100000104A59BF461056C03DEDBA8CD5014540
111,activity area,,41.67470623347,-87.8719903566231,yes,"S Willow Springs Rd, north of McCarthy Rd","Cook County, IL 60464",,53,Palos,,Cherry Hill Woods,Edward M. Sneed Forest,Palos,0,0,0,0,0,0,0,0,0,0,0,0,0,0,0,0,0,1,0,0,0,0,0,0,0,0,0,0,0,0,0,0,0,0,0,0,0,0,0,0,1,0,0,0,0,0,0,0,0,0,0,0,1,0,0,0,0,0,0,0,,0101000020E6100000E807A4B0CEF755C0A0941BC65CD64440
112,activity area,,41.6845137493428,-87.8730180938895,yes,"S Willow Springs Rd, south of Calumet Sag Rd/Rte 83","Cook County, IL 60464",,61,Palos,,Teason's Woods,Edward M. Sneed Forest,Cap Sauers Holding Nature Preserve,0,0,0,0,0,0,0,0,0,1,1,0,0,1,0,0,0,1,0,0,0,0,0,0,1,0,0,0,0,0,0,0,0,0,0,0,0,0,0,0,1,0,0,0,0,0,0,0,0,0,0,0,1,1,0,0,0,0,0,0,,0101000020E610000091844887DFF755C0738B83259ED74440
113,camp,,41.605377793893,-87.5630372101531,yes,15810 S Torrence Ave,"South Holland, IL 60473",,92,Thorn Creek ,Shabbona,Camp Shabbona Woods,,,0,0,0,0,0,0,1,0,0,0,0,0,0,0,0,0,0,0,0,0,0,0,0,0,0,0,0,0,0,0,0,1,0,0,0,0,0,0,0,0,1,0,0,0,0,0,0,0,0,1,1,1,0,0,0,1,0,0,0,0,,0101000020E6100000760239CD08E455C0603F01057DCD4440
114,activity area,,42.1291200069135,-87.7905468027302,yes,,"Northbrook, IL 60062",,0,North Branch,,Sunset Ridge Woods,,,0,0,0,0,0,0,0,0,0,0,0,0,0,0,0,0,0,0,0,0,0,0,0,0,0,0,0,0,0,0,0,0,0,0,0,1,0,0,0,0,0,0,0,0,0,0,0,0,0,0,0,0,0,0,0,0,0,0,0,0,,0101000020E6100000BDEB9D5198F255C0F5791F0187104540
115,activity area,,41.6709962007357,-87.8707244550488,yes,"104th Ave, north of McCarthy Rd","Cook County, IL 60464",,269,Palos,,Horsetail Lake,Edward M. Sneed Forest,Palos,0,0,0,0,0,0,0,0,0,1,1,0,0,1,0,0,0,0,1,0,1,1,0,0,1,0,0,0,0,0,0,0,0,0,0,0,0,0,0,0,0,0,0,0,0,0,0,0,0,0,0,0,1,1,0,0,0,0,0,0,,0101000020E6100000C29010F3B9F755C02FF31834E3D54440
116,activity area,,41.6658101653624,-87.8622604736193,yes,"McCarthy Rd, west of S La Grange Rd","Cook County, IL 60464",,234,Palos,,Papoose Lake,Palos,,0,0,0,0,0,0,0,0,0,0,0,0,0,0,0,0,0,0,0,0,1,1,0,0,0,0,0,0,0,0,0,0,0,0,0,0,0,0,0,0,0,0,0,0,0,0,0,0,0,0,0,0,1,1,0,0,0,0,0,0,,0101000020E610000003B58D462FF755C0B9C97A4439D54440
117,activity area,,41.6758161324724,-87.8594651324699,yes,"S La Grange Rd, south of 119th St","Cook County, IL 60464",,55,Palos,,Swallow Cliff Woods-South,Edward M. Sneed Forest,Palos,0,0,0,1,0,0,0,0,0,1,1,0,0,1,0,0,0,1,0,0,0,0,0,0,1,0,0,0,0,0,0,0,0,0,0,0,0,0,0,0,1,0,0,0,0,0,0,1,0,0,0,0,1,1,0,0,0,0,0,0,,0101000020E6100000A7000B7A01F755C0FB899D2481D64440
118,activity area,,41.6738999668214,-87.8509470028646,yes,"119th St, east of S La Grange Rd","Cook County, IL 60464",,54,Palos,,Forty Acre Woods,Palos,,0,0,0,0,0,0,0,0,0,1,1,0,0,1,0,0,0,0,1,0,0,0,0,0,1,0,0,0,0,0,0,0,0,0,0,0,0,0,0,1,0,0,0,0,0,0,0,0,0,0,0,0,1,1,0,0,0,0,0,0,,0101000020E6100000B1FB6AEA75F655C00123A75A42D64440
119,activity area,,41.6762326725168,-87.8447902310204,yes,"Kean Ave, north of 119th St","Cook County, IL 60464",,56,Palos,,McClaughrey Springs Woods,Palos,,0,0,0,1,0,0,0,0,0,1,1,0,0,1,0,0,0,1,0,0,0,0,0,0,1,0,0,0,0,0,0,0,0,0,0,0,0,0,0,1,0,0,0,0,0,0,0,1,0,0,0,0,1,0,0,0,0,0,0,0,,0101000020E61000009E8D0B0B11F655C01E79CECA8ED64440
120,activity area,,41.675481552321,-87.8386415878421,yes,"119th St, west of S 86th Ave","Cook County, IL 60464",,58,Palos,Palos #2,Palos Park Woods-South,Palos,,0,0,0,0,0,0,0,0,0,1,1,0,0,1,0,0,0,1,0,0,0,0,0,0,1,0,0,0,0,0,0,0,0,0,0,0,0,0,0,0,1,0,0,0,0,0,0,0,0,0,0,0,1,0,0,0,0,0,0,0,,0101000020E61000003A36C44DACF555C08822F42D76D64440
121,activity area,,41.677996609199,-87.8315716970369,yes,"S 86th St, south of Calumet Sag Rd/Rte 83","Cook County, IL 60464",,57,Palos,,Paddock Woods,Palos,,0,0,0,0,0,0,0,0,0,1,1,0,0,1,0,0,0,1,0,0,0,0,0,0,1,0,0,0,0,0,0,0,0,0,0,0,0,0,0,1,0,0,0,0,0,0,0,1,0,0,0,0,1,0,0,0,0,0,0,0,,0101000020E610000061C37E7838F555C083A7C797C8D64440
122,activity area,,41.6807292844582,-87.8421150726465,yes,"Kean Ave, south of Calumet Sag Rd/Rte 83","Cook County, IL 60464",,59,Palos,Palos #1,Palos Park Woods-North,Palos,,0,0,0,0,0,0,0,0,0,1,1,0,0,1,0,0,0,1,1,0,0,0,0,0,1,0,0,0,0,0,0,0,0,0,0,0,0,0,0,0,1,0,0,0,0,0,0,0,0,0,0,0,1,0,1,0,0,0,0,1,,0101000020E61000000B1F9E36E5F555C0BB161F2322D74440
123,activity area,,41.6807903011482,-87.860885665096,yes,"Calumet Sag Rd/Rte 83, west of La Grange Rd/96th Ave","Cook County, IL 60464",,60,Palos,Swallow Stairs,Swallow Cliff Woods-North,Edward M. Sneed Forest,Palos,0,0,0,0,0,0,0,0,0,1,1,0,0,1,0,0,0,1,1,1,0,0,0,0,1,1,0,0,0,0,0,0,0,0,0,0,0,0,1,0,0,0,0,1,0,0,0,1,0,1,1,1,0,0,0,0,0,0,0,0,,0101000020E6100000B04B30C018F755C0C56EF72224D74440
124,activity area,,41.65025837728,-87.9094333632082,yes,"S Will Cook Rd, south of W 131st St","Cook County, IL 60467",,153,Palos,,Tampier Lake-West,John J. Duffy Preserve,,0,0,0,0,0,0,0,0,0,0,0,0,0,0,0,0,0,0,0,0,1,1,0,0,0,0,0,0,0,0,0,0,0,0,0,0,0,0,0,0,1,0,0,0,0,0,0,0,0,0,0,0,1,1,0,0,0,0,0,0,,0101000020E6100000B537FE2734FA55C0112FA0AA3BD34440
125,activity area,,41.6519603013629,-87.9032242461484,yes,W 131st St west of S Wolf Rd,"Cook County, IL 60464",,271,Palos,,Tampier Lake-North,John J. Duffy Preserve,Tampier Slough,0,0,0,1,0,0,0,0,0,0,0,0,0,0,0,0,0,0,0,0,0,0,0,0,0,0,0,0,0,0,0,0,0,0,1,0,0,0,0,0,0,0,0,0,0,0,0,0,0,0,0,0,0,0,0,0,0,0,0,0,,0101000020E6100000578A116DCEF955C06852666F73D34440
126,activity area,,41.6493150737309,-87.9006506263722,yes,W 131st St west of S Wolf Rd,"Cook County, IL 60467",,272,Palos,,Tampier Lake Boating Center,John J. Duffy Preserve,Tampier Slough,0,0,0,0,1,1,0,0,0,0,0,0,0,0,0,0,0,0,0,0,1,1,0,0,0,0,0,0,0,0,0,0,0,0,0,0,0,0,0,0,0,0,0,0,0,0,0,0,0,0,1,1,0,1,0,0,0,0,0,0,,0101000020E610000000598642A4F955C0AC3C9FC11CD34440
127,activity area,,41.6307531943034,-87.8655984789908,yes,"143rd St, west of Southwest Hwy","Orland Park, IL 60462",,274,Tinley Creek,,Orland Grove,,,0,0,0,0,0,0,0,0,0,0,0,0,0,0,0,0,0,0,0,0,0,0,0,0,0,0,0,0,0,0,0,0,0,0,0,0,0,0,0,0,0,0,0,0,0,0,0,0,0,0,0,0,0,0,0,0,0,0,0,0,,0101000020E6100000E8AE29F765F755C0B4B04A85BCD04440
128,activity area,,41.6490934875738,-87.7929001741509,yes,"W 135th St, east of Harlem Ave","Cook County, IL 60463",,48,Tinley Creek,,Arrowhead Lake,,,0,0,0,0,0,0,0,0,0,1,1,0,0,1,0,0,0,0,0,0,1,1,0,0,1,0,0,0,0,0,0,0,0,0,0,0,0,0,0,0,1,0,1,0,0,0,0,0,0,0,0,0,1,0,1,0,0,0,0,1,,0101000020E6100000213E5FE0BEF255C08C96D27E15D34440
129,activity area,,41.645631785357,-87.7709356179928,yes,"W 135th St, east of S Ridgeland Ave","Cook County, IL 60463",,87,Tinley Creek,,Cooper's Hawk Family Picnic Area,,,0,0,0,0,0,0,0,0,0,1,1,0,0,1,0,0,0,0,0,0,0,0,0,0,1,0,0,0,0,0,0,0,0,0,0,0,0,0,0,0,0,0,0,0,0,0,0,0,0,0,0,0,0,0,0,0,0,0,0,0,,0101000020E61000006EA6580257F155C0DFAEF50FA4D24440
130,activity area,,41.6507179743807,-87.7613509580493,yes,"Central Ave, north of W 135th St","Cook County, IL 60463",,50,Tinley Creek,,Elizabeth A. Conkey Forest-North,,,0,0,0,1,0,0,0,0,0,0,0,0,0,0,0,0,0,0,0,0,0,0,0,0,0,0,1,0,0,0,0,0,0,0,0,0,0,0,0,1,1,0,0,0,0,0,0,0,0,0,0,0,1,1,1,0,0,0,0,1,,0101000020E610000066665EF9B9F055C0387101BA4AD34440
131,activity area,,41.647981283509,-87.7631613291402,yes,"W 135th St, west of Central Ave","Cook County, IL 60463",,51,Tinley Creek,,Elizabeth A. Conkey Forest-South,,,0,0,0,1,0,0,0,0,0,0,0,0,0,0,0,0,0,0,0,0,0,0,0,0,0,0,1,0,0,0,0,0,0,0,0,0,0,0,0,1,1,0,0,0,0,0,0,0,0,0,0,0,1,0,1,0,0,0,0,1,,0101000020E6100000A58E9DA2D7F055C0A78BFA0CF1D24440
132,activity area,,41.6347141373996,-87.7657482919245,yes,"W Midlothian Turnpike/W 143rd St, west of S Ridgeland Ave","Cook County, IL 60445",,84,Tinley Creek,,Rubio Woods,,,0,0,0,0,0,0,0,0,0,1,1,0,0,1,0,0,0,0,0,0,0,0,0,0,1,0,0,0,0,0,0,0,0,0,0,0,0,0,0,1,1,0,1,0,0,0,0,0,0,0,0,0,1,1,1,0,0,0,0,1,,0101000020E610000023B21F0502F155C05C3817503ED14440
133,activity area,,41.6289977760962,-87.7772896823128,yes,"Ridgeland Ave, south of E 143rd St","Cook County, IL 60452",,182,Tinley Creek,,Goeselville Grove Family Picnic Area,,,0,0,0,0,0,0,0,0,0,1,1,0,0,1,0,0,0,0,0,0,0,0,0,0,1,0,0,0,0,0,0,0,0,0,0,0,0,0,0,0,0,0,1,0,0,0,0,0,0,0,0,0,0,0,0,0,0,0,0,0,,0101000020E61000004B43391DBFF155C07CCBC6FF82D04440
134,activity area,,41.6293639465236,-87.78408383794,yes,"Oak Park Ave, south of E 143rd St","Cook County, IL 60452",,86,Tinley Creek,,Carlson Springs Woods,,,0,0,0,0,0,0,0,0,0,0,0,0,0,0,0,0,0,0,0,0,0,0,0,0,0,0,0,0,0,0,0,0,0,0,0,0,0,0,0,0,1,0,0,0,0,0,0,0,0,0,0,0,1,0,0,0,0,0,0,0,,0101000020E61000008D51FA6D2EF255C0D9CC6FFF8ED04440
135,activity area,,41.6331265815848,-87.7857958334741,yes,"W 143rd St, west of Oak Park Ave","Cook County, IL 60463",,183,Tinley Creek,,Bachelor's Grove Woods,,,0,0,0,0,0,0,0,0,0,0,0,0,0,0,0,0,0,1,0,0,0,0,0,0,0,0,0,0,0,0,0,0,0,0,0,0,0,0,0,0,0,0,0,0,0,0,0,0,0,0,0,0,0,0,0,0,0,0,0,0,,0101000020E6100000AD869B7A4AF255C04411B54A0AD14440
136,camp,,41.6254711238817,-87.7875399040598,yes,14630 Oak Park Ave,"Oak Forest, IL 60452",,181,Tinley Creek,,Camp Sullivan,Camp Falcon,,0,0,0,0,0,0,1,0,0,0,0,0,0,0,0,0,0,0,0,0,0,0,0,0,0,0,0,0,0,0,0,0,0,0,0,0,0,0,0,0,1,0,0,0,0,0,0,0,0,1,1,1,0,0,0,1,1,0,1,0,,0101000020E6100000D60EC50D67F255C008D512700FD04440
137,activity area,,41.6175898948664,-87.8020838028555,yes,"151st St, west of Harlem Ave","Cook County, IL 60462",,279,Tinley Creek,,Catalina Grove Family Picnic Area,,,0,0,0,0,0,0,0,0,0,1,1,0,0,1,0,0,0,0,0,0,0,0,0,0,1,0,0,0,0,0,0,0,0,0,0,0,0,0,0,0,0,0,1,0,0,0,0,0,0,0,0,0,0,0,0,0,0,0,0,0,,0101000020E6100000967A4D5755F355C04E65882F0DCF4440
138,activity area,,41.6002202294361,-87.7844127859422,yes,"Oak Park Ave, south of 159th St","Cook County, IL 60477",,164,Tinley Creek,,Bremen Grove,,,0,0,0,0,0,0,0,0,0,1,1,0,1,1,0,0,0,0,0,0,0,0,0,0,1,0,0,0,0,0,0,0,0,0,0,0,0,0,0,0,1,0,1,0,0,0,0,0,0,1,1,1,0,0,0,0,0,0,0,0,,0101000020E6100000E38BAFD133F255C0B0E93704D4CC4440
140,activity area,,41.5921483824811,-87.7571073004078,yes,"Central Ave, north of 167th St","Cook County, IL 60477",,165,Tinley Creek,,Yankee Woods,,,0,0,0,0,0,0,0,0,0,1,1,0,0,1,0,0,0,1,0,0,0,0,0,0,1,0,0,0,0,0,0,0,0,0,0,0,0,0,0,1,1,0,1,0,0,0,0,1,0,0,0,0,1,1,0,0,0,0,0,0,,0101000020E610000019B42D7274F055C05C91A884CBCB4440
141,activity area,,41.6550125575091,-87.6398358425017,yes,"Forest View Ave, east of S Halsted St","Riverdale, IL 60827",,89,Calumet,,Whistler Woods,,,0,0,0,0,0,0,0,0,0,1,1,0,0,1,0,0,0,1,0,0,0,0,0,0,1,0,0,0,0,0,0,0,0,0,0,0,0,0,0,1,0,0,1,0,0,0,0,1,0,0,0,0,1,1,0,0,0,0,0,0,,0101000020E61000009E960812F3E855C0417C9473D7D34440
142,golf course,,41.6537129128625,-87.6440941140806,yes,13100 S Halsted St,"Riverdale, IL 60827",,266,Calumet,,"Joe Louis ""The Champ"" Golf Course",,,0,0,0,0,0,0,0,0,0,0,0,0,0,0,0,0,0,0,0,0,0,0,0,1,0,0,0,0,0,0,0,0,0,0,0,0,0,0,0,0,0,0,0,0,0,0,0,0,0,0,0,0,0,0,0,0,0,0,0,0,,0101000020E610000068E184D638E955C0CCDB5EDDACD34440
143,activity area,,41.650997616366,-87.6584663321192,yes,"Jackson St, east of S Ashland Ave","Cook County, IL 60827",,290,Calumet,,Little Calumet Boat Launch,,,0,0,0,0,1,0,0,0,0,0,0,0,0,0,0,0,0,0,0,0,0,0,1,0,0,0,0,0,0,0,0,0,0,0,0,0,0,0,0,0,0,0,0,0,0,0,0,0,0,0,0,0,0,0,0,0,0,0,0,0,,0101000020E6100000017EF84F24EA55C06A08D0E353D34440
144,activity area,,41.6454849544547,-87.6646258904096,yes,Ashland Ave &amp; Charles Dr,"Riverdale, IL 60827",,82,Calumet,,Calumet Woods,,,0,0,0,0,0,0,0,0,0,0,0,0,0,0,0,0,0,0,0,0,0,0,0,0,0,0,0,0,0,0,0,0,0,0,0,0,0,0,0,0,1,0,0,0,0,0,0,0,0,0,0,0,1,0,0,0,0,0,0,0,,0101000020E610000093D8073B89EA55C0B0B840409FD24440
145,activity area,,41.6312513498305,-87.6443048463573,yes,"Halsted St, south of W 144th St","Riverdale, IL 60827",,289,Calumet,,Kickapoo Woods,,,0,0,0,0,0,0,0,1,0,1,1,0,0,1,0,0,0,1,0,0,0,0,0,0,1,0,0,1,0,0,0,0,0,0,0,0,0,0,0,0,0,0,1,0,0,0,0,1,0,0,0,0,1,1,1,0,0,0,0,0,,0101000020E610000090F0644A3CE955C0F9891FD8CCD04440
146,activity area,,41.6539155287214,-87.5914699374949,yes,"E 132nd St, east of S Greenwood Ave","Chicago, IL 60827",,301,Calumet,,Beaubien Woods Boat Launch,Flatfoot Lake,,0,0,0,0,1,0,0,0,0,0,0,0,0,0,0,0,0,0,0,0,0,0,0,0,0,0,0,0,0,0,0,0,0,0,0,0,0,0,0,0,0,0,0,0,0,0,0,1,0,0,0,0,1,0,0,0,0,0,0,0,,0101000020E6100000E286B9A4DAE555C03E1A0981B3D34440
147,activity area,,41.6505190858175,-87.5823529207047,yes,"W Doty Ave S, southeast of E 130th St &amp; S Ellis Ave","Chicago, IL 60827",,321,Calumet,Flatfoot,Beaubien Woods,Flatfoot Lake,,0,0,0,0,0,0,0,0,0,0,0,0,0,0,0,0,0,1,0,0,1,1,0,0,0,0,0,0,0,0,0,0,0,0,0,0,0,0,0,0,1,0,0,0,0,0,0,1,0,0,0,0,1,1,0,0,0,0,0,0,,0101000020E61000000A4A2F4545E555C04D819B3544D34440
148,golf course,,41.6356994124558,-87.5349333248425,yes,14201 S Burnham Ave,"Burnham, IL 60633",,299,Calumet,,Burnham Woods Golf Course,,,0,0,0,0,0,0,0,0,0,0,0,0,0,0,0,0,0,0,0,0,0,0,0,1,0,0,0,0,0,0,0,0,0,0,0,0,0,0,0,0,0,0,0,0,0,0,0,0,0,0,0,0,0,0,0,0,0,0,0,0,,0101000020E61000004EEFFB583CE255C0C94A2D995ED14440
149,activity area,,41.6427377599386,-87.5346152812891,yes,"S Brainard Ave, east of S Burnham Ave/S Ave O","Burnham, IL 60633",,298,Calumet,,Powderhorn Lake,,,0,0,0,1,1,0,0,0,0,0,0,0,0,0,0,0,0,1,0,0,1,1,0,0,0,0,0,0,0,0,0,0,0,0,0,0,0,0,0,0,0,0,0,0,0,0,0,1,0,0,0,0,1,1,0,0,0,0,0,0,,0101000020E61000000445032337E255C0976B1D3B45D24440
150,nature center,yes,41.6059330105459,-87.5657494562067,yes,15891 Paxton Ave,"South Holland, IL 60473",,303,Thorn Creek ,Nature Center,Sand Ridge Nature Center,,,0,0,0,1,0,0,0,0,0,0,0,0,0,0,0,0,0,1,0,0,0,0,0,0,1,0,0,0,0,1,0,1,0,1,1,0,0,0,0,0,0,0,0,0,0,0,0,0,0,1,1,1,0,0,0,0,0,0,0,0,,0101000020E6100000CC08353D35E455C047EE7F368FCD4440
152,activity area,,41.6036367462182,-87.5576080899236,yes,"Torrence Ave, north of 159th St/River Oaks Dr","Calumet City, IL 60409",,91,Thorn Creek ,Clayhole,Clayhole Woods,Green Lake Woods,,0,0,0,0,0,0,0,0,0,0,0,0,0,0,0,0,0,0,0,0,0,0,0,0,0,0,1,0,0,0,0,0,0,0,0,0,0,0,0,0,1,0,0,0,0,0,0,0,0,0,0,0,1,0,0,0,0,0,0,0,,0101000020E61000003A8DD7D9AFE355C0E9D509F843CD4440
153,activity area,,41.6042830636646,-87.5563066701709,yes,"Torrence Ave, north of 159th St/River Oaks Dr","Calumet City, IL 60409",,93,Thorn Creek ,Green Lake,Green Lake Woods,,,0,0,0,0,0,0,0,0,0,1,1,0,0,1,0,0,0,0,0,0,1,1,0,0,1,0,1,0,0,0,0,0,0,0,0,0,0,0,0,1,0,0,1,0,0,0,0,0,0,0,1,0,0,1,0,0,0,0,0,0,,0101000020E610000092BB4A879AE355C0B0FBBD2559CD4440
154,activity area,,41.6074573111872,-87.5345571792198,yes,Freeland Ave &amp; Warren St,"Calumet City, IL 60409",,302,Thorn Creek ,Playfield,Calumet City Playfield,,,0,0,0,0,0,0,0,0,0,0,0,0,0,0,0,0,0,0,0,0,0,0,0,0,0,0,0,0,0,0,0,0,0,0,0,0,0,0,0,0,0,0,0,0,0,0,0,0,0,0,0,0,0,0,0,0,0,0,0,0,,0101000020E6100000D1A5502F36E255C0F3A14229C1CD4440
156,golf course,,41.5991916877367,-87.5757276386905,yes,1 Park Avenue,"Calumet City, IL 60409",,304,Thorn Creek ,,River Oaks Golf Course,,,0,0,0,0,0,0,0,0,0,0,0,0,0,0,0,0,0,0,0,0,0,0,0,1,0,0,0,0,0,0,0,0,0,0,0,0,0,0,0,0,0,0,0,0,0,0,0,0,0,0,0,0,0,0,0,0,0,0,0,0,,0101000020E61000000AE5BCB8D8E455C09C6E2F50B2CC4440
158,activity area,,41.562039218838,-87.6096847806159,yes,"S Hunter St, south of E Margret St","Thornton, IL 60476",,110,Thorn Creek ,Brownell,Brownell Woods,,,0,0,0,0,0,0,0,0,0,0,0,0,0,0,0,0,0,0,0,0,0,0,0,0,0,0,0,0,0,0,0,0,1,0,0,0,0,0,0,1,0,0,0,0,0,0,0,0,0,0,0,0,1,0,0,0,0,0,0,0,,0101000020E61000004E67501305E755C03FFDAFE6F0C74440
159,activity area,,41.5559127305837,-87.5994268520931,yes,"Cottage Grove Ave, north of Glenwood Lansing Rd","Cook County, IL 60476",,112,Thorn Creek ,,Sweet Woods,,,0,0,0,0,0,0,0,0,0,1,1,0,0,1,0,0,0,0,0,0,0,0,0,0,1,0,0,0,0,0,0,0,0,0,0,0,0,0,0,0,1,0,1,0,0,0,0,0,0,0,0,0,1,1,1,0,0,0,0,1,,0101000020E6100000628571025DE655C0BFA4FA2528C74440
160,activity area,,41.5486782054084,-87.622305025752,yes,"Chicago Heights Glenwood Rd, west of S William St","Glenwood, IL 60425",,108,Thorn Creek ,Glenwood North,Glenwood Woods-North,,,0,0,0,0,0,0,0,0,0,1,1,0,0,1,0,0,0,0,0,0,0,0,0,0,1,0,0,0,0,0,0,0,0,0,0,0,0,0,0,0,1,0,0,0,0,0,0,0,0,0,0,0,1,1,0,0,0,0,0,0,,0101000020E61000006F6F75D8D3E755C0DF2062163BC64440
161,activity area,,41.5468326067123,-87.6195062007884,yes,"Chicago Heights Glenwood Rd, west of S William St","Glenwood, IL 60425",,196,Thorn Creek ,Glenwood South,Glenwood Woods-South,,,0,0,0,0,0,0,0,0,0,1,1,0,0,1,0,0,0,0,0,0,0,0,0,0,1,0,0,0,0,0,0,0,0,0,0,0,0,0,0,0,1,0,1,0,0,0,0,0,0,0,0,0,1,0,0,0,0,0,0,0,,0101000020E61000008C0356FDA5E755C0971B619CFEC54440
162,activity area,,41.5537014141214,-87.593549708892,yes,"183rd St, east of Cottage Grove Ave","Cook County, IL 60476",,111,Thorn Creek ,Jurgensen,Jurgensen Woods,,,0,0,0,0,0,0,0,0,0,1,1,0,0,1,0,0,0,1,0,0,0,0,0,0,1,0,0,0,0,0,0,0,0,0,0,0,0,0,0,0,1,0,0,0,0,0,0,0,0,0,0,0,1,0,0,0,0,0,0,0,,0101000020E6100000720FEBB7FCE555C03AB31CB0DFC64440
163,activity area,,41.5530212348503,-87.5749150615737,yes,"Stoney Island Ave, south of 186th St","Cook County, IL 60411",,264,Thorn Creek ,Flying Field,Thorn Creek Model Airplane Flying Field,,,0,0,0,0,0,0,0,0,0,0,0,0,0,0,0,0,1,0,0,0,0,0,0,0,0,0,0,1,0,0,0,0,0,0,0,0,0,0,0,0,0,0,0,0,0,0,0,0,0,0,0,0,1,1,0,0,0,0,0,0,,0101000020E6100000F6DB8A68CBE455C072D65A66C9C64440
164,activity area,,41.543726979593,-87.5601878416241,yes,"Glenwood Lansing Rd, west of Torrence Ave","Cook County, IL 60411",,102,Thorn Creek ,North Creek,North Creek Meadow,,,0,0,0,0,0,0,0,0,0,1,1,0,0,1,0,0,0,0,0,0,0,0,0,0,1,0,1,0,0,0,0,0,0,0,0,0,0,0,0,0,1,0,1,0,1,0,0,0,0,0,1,1,1,1,0,0,0,0,0,0,,0101000020E610000017D91A1EDAE355C0FDA67DD898C54440
165,activity area,,41.5562677951184,-87.5508426857174,yes,"186th St, east of Torrence Ave","Cook County, IL 60438",,322,Thorn Creek ,Lansing,Lansing Woods,,,0,0,0,0,0,0,0,0,0,1,1,0,0,1,0,0,0,0,0,0,0,0,0,0,1,0,0,0,0,0,0,0,0,0,0,0,0,0,0,1,0,0,1,0,0,0,0,0,0,0,0,0,1,1,0,0,0,0,0,0,,0101000020E61000006819AE0141E355C000ED79C833C74440
166,activity area,,41.5190176635927,-87.6299692448016,yes,"E Joe Orr Rd, east of S Halsted St","Chicago Heights, IL 60411",,101,Thorn Creek ,Joe Orr,Joe Orr Woods,,,0,0,0,0,0,0,0,0,0,1,1,0,0,1,0,0,0,0,0,0,0,0,0,0,1,0,0,0,0,0,0,0,0,0,0,0,0,0,0,0,1,0,1,0,0,0,0,0,0,0,0,0,1,1,0,0,0,0,0,0,,0101000020E610000027FA856A51E855C0A096B92B6FC24440
167,activity area,,41.4870646520479,-87.6463941603431,yes,"Forest Preserve Dr, south of W 26th St","South Chicago Heights, IL 60411",,105,Thorn Creek ,Sauk 1 & 2,Sauk Trail Woods-East,Sauk Lake Woods,,0,0,0,0,0,0,0,0,0,1,1,0,0,1,0,0,0,0,0,0,0,0,0,0,1,0,0,0,0,0,0,0,1,0,0,0,0,0,0,1,1,0,0,0,0,0,0,0,0,0,0,0,1,0,0,0,0,0,0,0,,0101000020E6100000F0BF9C855EE955C0ACCA6F2258BE4440
168,activity area,,41.4872207944093,-87.653045458077,yes,"Forest Preserve Dr, south of W 26th St","South Chicago Heights, IL 60411",,107,Thorn Creek ,Sauk 5,Sauk Trail Woods-Central,Sauk Lake Woods,,0,0,0,0,0,0,0,0,0,1,1,0,0,1,0,0,0,0,0,0,1,0,0,0,1,0,0,0,0,0,0,0,1,0,0,0,0,0,0,0,1,0,1,0,0,0,0,0,0,0,0,0,1,1,0,0,0,0,0,0,,0101000020E61000007E4F2D7FCBE955C0A0F540405DBE4440
169,activity area,,41.4896107902365,-87.6509888283019,yes,"W 26th St, west of Euclid Ave","South Chicago Heights, IL 60411",,106,Thorn Creek ,Sauk 3 & 4,Sauk Trail Woods-North,Sauk Lake Woods,,0,0,0,0,0,0,0,0,0,1,1,0,0,1,0,0,0,0,0,0,1,0,0,0,1,0,0,0,0,0,0,0,1,0,0,0,0,0,0,1,1,0,1,0,0,0,0,0,0,0,0,0,1,1,0,0,0,0,0,0,,0101000020E61000008FE70BCDA9E955C0CFEAFD90ABBE4440
170,activity area,,41.4850464504352,-87.6541072052978,yes,"Forest Preserve Dr, north of W Sauk Trail","South Chicago Heights, IL 60411",,104,Thorn Creek ,Sauk 6,Sauk Trail Woods-South,Sauk Lake Woods,,0,0,0,0,0,0,0,0,0,1,1,0,0,1,0,0,0,0,0,0,1,0,0,0,1,0,0,0,0,0,0,0,1,0,0,0,0,0,0,1,0,0,1,0,0,0,0,0,0,0,0,0,1,0,0,0,0,0,0,0,,0101000020E610000040B577E4DCE955C081D4880016BE4440
171,activity area,,41.4819627837178,-87.6591791127108,yes,"Sauk Trail, west of Ashland Ave","Cook County, IL 60475",,17,Thorn Creek ,Schuberts,Schubert's Woods,Sauk Trail Woods,,0,0,0,0,0,0,0,0,0,1,1,0,0,1,0,0,0,0,0,0,0,0,0,0,1,0,0,0,0,0,0,0,1,0,0,0,0,0,0,0,1,0,1,0,0,0,0,0,0,0,0,0,1,1,0,0,0,0,0,0,,0101000020E610000022D396FD2FEA55C085FADCF4B0BD4440
172,activity area,,41.4746083515162,-87.65734094751,yes,"Ashland Ave, south of Sauk Trail","Cook County, IL 60475",,16,Thorn Creek ,Kings,King's Grove,Steger Woods,,0,0,0,0,0,0,0,0,0,0,0,0,0,0,0,0,0,0,0,0,0,0,0,0,0,0,0,0,0,0,0,0,0,0,0,0,0,0,0,0,1,0,0,0,0,0,0,0,0,0,0,0,1,0,0,0,0,0,0,0,,0101000020E610000021F8C3DF11EA55C0D5156AF7BFBC4440
173,activity area,,42.1100049270955,-88.1605143053909,yes,W Palatine Rd &amp; Stover Rd,"Cook County, IL 60010",,200,Northwest,,Old Stover Trailhead,Crabtree Preserve,,0,0,0,1,0,0,0,0,0,1,1,0,0,0,0,0,0,0,0,0,0,0,0,0,1,0,0,0,0,0,0,0,0,0,0,0,1,0,0,0,0,0,0,0,0,0,0,0,0,0,0,0,0,0,0,0,0,0,0,0,,0101000020E61000006E0CCBDD450A56C0182336A4140E4540
174,activity area,,41.717368706338,-87.8319407589554,yes,"W 95th St, east of S 88th Ave","Cook County, IL 60465",,62,Palos,,Hickory Hills Woods,Walnut Grove,,0,0,0,0,0,0,0,0,0,0,0,0,0,0,0,0,0,0,0,0,0,0,0,0,0,0,0,0,0,0,0,0,0,0,0,0,0,0,0,1,0,0,0,0,0,0,0,0,0,0,0,0,1,0,0,0,0,0,0,0,,0101000020E61000000FFB73843EF555C0A472DEBCD2DB4440
175,activity area,,41.6435414162526,-87.8008654818298,yes,"Harlem Ave, south of W 135th St","Cook County, IL 60462",,47,Tinley Creek,,Turtlehead Lake,,,0,0,0,0,0,0,0,0,0,1,1,0,0,1,0,0,0,0,0,0,1,1,0,0,1,0,0,0,0,0,0,0,0,0,0,0,0,0,0,0,1,0,1,0,1,0,0,0,0,0,0,0,1,1,0,0,0,0,0,0,,0101000020E6100000113D4B6141F355C09B36AC905FD24440
176,activity area,,41.634113112403,-87.7931189573635,yes,"Harlem Ave, north of W 143rd St","Cook County, IL 60483",,52,Tinley Creek,,Tinley Creek Woods,,,0,0,0,0,0,0,0,0,0,0,0,0,0,0,0,0,0,1,0,0,0,0,0,0,0,0,0,0,0,0,0,0,1,0,0,0,0,0,0,0,1,0,0,0,0,0,0,0,0,0,0,0,1,0,0,0,0,0,0,0,,0101000020E6100000B2ED0376C2F255C02ADE539E2AD14440
177,activity area,,41.6423594279017,-87.7935023869444,yes,"Harlem Ave, south of W 135th St","Cook County, IL 60463",,49,Tinley Creek,,Bur Oak Woods,,,0,0,0,0,0,0,0,0,0,0,0,0,0,0,0,0,0,1,0,0,0,0,0,0,0,0,0,0,0,0,0,0,0,0,0,0,0,0,0,1,1,0,0,0,0,0,0,0,0,0,0,0,1,0,0,0,0,0,0,0,,0101000020E6100000544E3CBEC8F255C0BC8E6FD538D24440
178,activity area,,42.1374055223405,-88.077615691903,yes,"Dundee Rd, west of N Quentin Rd","Cook County, IL 60010",,204,Northwest,,Camp Alphonse,,,0,0,0,0,0,0,0,0,0,1,1,0,0,0,0,0,0,0,0,0,0,0,0,0,1,0,0,0,0,0,0,0,0,0,0,0,0,0,0,0,0,0,0,0,0,0,0,0,0,0,0,0,1,1,0,0,0,0,0,0,,0101000020E61000005098CEA7F70456C0FD5E108196114540
179,camp,,42.1425331418669,-88.0615282760851,yes,1801 N Quentin Rd,"Palatine, IL 60074",,186,Northwest,,Camp Reinberg,,,0,0,0,0,0,0,1,0,0,1,1,0,0,1,0,0,0,1,0,0,0,0,0,0,1,0,0,0,0,0,0,1,0,0,0,0,0,0,0,0,1,0,1,0,0,0,0,0,0,1,1,1,0,0,0,1,1,0,1,0,,0101000020E610000023644B14F00356C00775A7863E124540
180,activity area,,42.1458084260176,-88.0675454846772,yes,"N Quentin Rd, north of W Dundee Rd","Cook County, IL 60074",,157,Northwest,Deer Grove Main,Deer Grove,Jens Jensen Grasslands & Woods Land & Water Reserve,,0,0,0,1,0,0,0,0,0,1,1,0,0,1,0,0,0,1,1,0,1,0,0,0,1,0,0,0,0,0,0,0,0,0,0,0,0,0,0,1,1,1,1,1,0,0,0,1,0,0,0,0,1,1,1,0,0,0,0,0,,0101000020E610000095EB4BAA520456C0039DBAD9A9124540
181,activity area,,42.1453926852336,-88.0455975774742,yes,"W Dundee Rd, west of N Hicks Rd","Cook County, IL 60074",,117,Northwest,,Deer Grove-East,Jens Jensen Grasslands & Woods Land & Water Reserve,,0,0,0,0,0,0,0,0,0,1,1,0,0,1,0,0,1,1,0,0,0,0,0,0,1,0,0,1,0,0,0,0,0,0,0,0,0,0,0,0,1,0,1,0,0,0,0,1,0,1,1,0,1,1,1,0,0,0,0,0,,0101000020E6100000D4011A12EB0256C0F2133E3A9C124540
182,golf course,,42.074728525977,-88.0829431596197,yes,2775 Ela Rd,"Hoffman Estates, IL 60192",,208,Northwest,,Highland Woods Golf Course,,,0,0,0,0,0,0,0,0,0,0,0,0,0,0,0,1,0,0,0,0,0,0,0,1,0,0,0,0,0,0,0,0,0,0,0,0,0,0,0,0,0,0,0,0,0,0,0,0,0,0,0,0,0,0,0,0,0,0,0,0,,0101000020E6100000957FD3F04E0556C027934FB490094540
183,activity area,,42.0688220869794,-88.1127113082096,yes,"W Central Ave, east of Huntington Blvd/Freeman Rd","Hoffman Estates, IL 60195",,146,Northwest,,Grassy Ridge Meadow,Paul Douglas,,0,0,0,1,0,0,0,0,0,1,1,0,0,0,0,0,0,0,0,0,0,0,0,0,1,0,0,0,0,0,0,0,0,0,1,0,0,0,0,0,0,0,0,0,0,0,0,0,0,0,0,0,1,1,0,0,0,0,0,0,,0101000020E61000008EA97DA9360756C0DA688229CF084540
184,activity area,,42.0318774933133,-87.9988438073437,yes,"E Higgins Rd/Rte 72, west of N Arlington Heights Rd","Cook County, IL 60007",,316,Northwest,,Busse Forest-North,Busse Forest Nature Preserve,Ned Brown,0,0,0,0,0,0,0,0,0,0,0,0,0,0,0,0,0,1,0,0,0,0,0,0,0,0,0,0,0,0,0,0,0,0,0,0,0,0,0,1,1,0,0,0,0,0,0,1,0,0,1,0,0,0,0,0,0,0,0,0,,0101000020E61000009B96930EEDFF55C027A1CB8F14044540
185,activity area,,42.0300801794296,-87.9884122721545,yes,"N Arlington Heights Rd, north of E Higgins Rd","Cook County, IL 60007",,166,Northwest,,Busse Forest Elk Pasture,Busse Woods,Ned Brown,0,0,0,0,0,0,0,0,0,1,1,0,0,1,0,0,0,0,0,0,0,0,0,0,1,0,0,0,0,0,0,0,0,0,0,0,1,0,0,0,0,0,1,0,0,0,0,1,0,1,1,0,0,0,0,0,0,0,0,0,,0101000020E610000099F78B2542FF55C03D74D5AAD9034540
186,activity area,,42.0177965855163,-87.9994657006448,yes,"S Arlington Heights Rd, south of Landmeier Rd","Elk Grove Village, IL 60007",,145,Northwest,Main Dam,Busse Forest Main Dam,Busse Woods,Ned Brown,0,0,0,0,0,0,0,0,0,1,1,0,0,1,0,0,0,0,0,0,1,1,0,0,1,0,0,0,0,0,0,0,0,0,0,0,0,0,0,0,1,0,1,0,0,0,0,1,0,1,1,0,0,0,0,0,0,0,0,0,,0101000020E61000008B6FFC3EF7FF55C0F662942847024540
187,activity area,,42.0092281366655,-88.0188273950553,yes,"Beisner Rd, north of Biesterfield Rd","Cook County, IL 60007",,144,Northwest,Cosman,Busse Lake Beisner Road Access,Busse Woods,Ned Brown,0,0,0,0,0,0,0,0,0,1,1,0,0,1,0,0,0,0,0,0,1,1,0,0,1,0,0,0,0,0,0,0,0,0,0,0,0,0,0,0,1,0,1,0,0,0,0,1,0,0,1,0,0,0,0,0,0,0,0,0,,0101000020E61000000382D177340156C02F9738632E014540
188,activity area,,42.0075658021447,-88.0308113776329,yes,"Rohlwing Rd, north of Biesterfield Rd","Elk Grove Village, IL 60007",,309,Northwest,Soccer Field,Woodland Meadow,,,0,0,0,0,0,0,0,0,0,1,1,0,0,1,0,0,0,0,0,0,0,0,0,0,1,0,0,0,0,0,0,0,0,0,0,0,0,0,0,0,0,0,1,0,0,0,0,0,0,0,0,0,1,0,0,0,0,0,0,0,,0101000020E6100000CCD148D0F80156C0C0638CEAF7004540
189,activity area,,42.0284943718204,-88.0223865681845,yes,"E Higgins Rd/Rte 72, east of I-290/Hwy 53","Cook County, IL 60007",,313,Northwest,Busse Res / Reservoir,Busse Lake Boating Center,Busse Woods,Ned Brown,0,0,0,0,1,1,0,0,0,1,1,0,0,1,0,0,0,0,0,0,1,1,0,0,1,0,0,0,0,0,0,0,0,0,0,0,0,0,0,1,1,1,0,0,0,0,0,1,0,1,1,1,1,1,1,0,0,0,0,1,,0101000020E6100000378E12C86E0156C05D8B1DB4A5034540
190,activity area,,42.0335152900432,-88.0152910948815,yes,"E Higgins Rd/Rte 72, east of I-290/Hwy 53","Cook County, IL 60007",,314,Northwest,Busse 31,Busse Forest-West,Busse Woods,Ned Brown,0,0,0,0,0,0,0,0,0,1,1,0,0,1,0,0,0,0,0,0,1,0,0,0,1,0,0,0,0,0,0,0,0,0,0,0,0,0,0,0,1,0,1,0,0,0,0,1,0,0,1,0,0,1,0,0,0,0,0,0,,0101000020E6100000E61B8087FA0056C06A53A13A4A044540
191,activity area,,42.0322870992945,-88.0081935813047,yes,"E Higgins Rd/Rte 72, west of N Arlington Heights Rd","Cook County, IL 60007",,315,Northwest,Busse 4,Busse Forest-Central,Busse Woods,Ned Brown,0,0,0,0,0,0,0,0,0,1,1,0,0,1,0,0,0,1,0,0,0,0,0,0,1,0,0,0,0,0,0,0,1,0,0,0,0,0,0,0,1,0,1,0,0,0,0,1,0,0,1,0,0,0,0,0,0,0,0,0,,0101000020E610000068EF5E3E860056C0B9C6D1FB21044540
192,camp,,42.1502767028373,-87.8977787641521,yes,200 Portwine Rd,"Northbrook, IL 60062",,171,Indian Boundary,,Camp Dan Beard,,,0,0,0,0,0,0,1,0,0,0,0,0,0,0,0,0,0,0,0,0,0,0,0,0,0,0,0,0,0,0,0,0,0,0,0,0,0,0,0,0,0,0,0,0,0,0,0,0,0,1,1,1,0,0,0,1,0,0,0,0,,0101000020E6100000E6C40F3575F955C0B9045A443C134540
193,activity area,,41.7409734968597,-87.6800029915432,yes,"S Western Ave, south of W 83rd St","Chicago, IL 60620",,131,Calumet,Circle,Dan Ryan Woods-Central,,,0,0,0,0,0,0,0,0,0,1,1,0,0,1,0,0,0,0,0,0,0,0,0,0,1,0,0,0,0,0,0,0,0,0,0,0,0,0,0,0,1,0,1,0,0,0,0,1,0,1,1,1,0,1,0,0,0,0,0,1,,0101000020E61000000F77442B85EB55C0891B3438D8DE4440
194,activity area,,42.0513364233059,-88.1952007789561,yes,"Sutton Rd/Rte 59, south of Shoe Factory Rd","Cook County, IL 60192",,156,Northwest,Hansen Woods,Carl R. Hansen Woods,Poplar Creek Prairie,Arthur L. Janura Preserve,0,0,0,0,0,0,0,0,0,1,1,0,0,1,0,0,0,1,0,0,0,0,0,0,1,0,0,0,0,0,0,0,0,0,0,0,0,0,0,0,1,0,0,0,0,0,0,1,0,0,0,0,1,1,0,0,0,0,0,0,,0101000020E61000004971682B7E0C56C09D98213192064540
195,activity area,yes,42.031413036835,-88.2141887750807,yes,"Schaumburg Rd, east of W Irving Park Rd","Cook County, IL 60120",,214,Northwest,Horse Lot,Poplar Creek Equestrian Parking,Arthur L. Janura Preserve,Schaumburg Road Grasslands,0,0,0,1,0,0,0,0,0,1,1,0,0,1,0,0,0,1,1,0,0,0,0,0,1,0,0,0,0,0,0,0,0,0,0,0,0,0,0,0,0,0,0,0,0,0,0,1,0,0,0,0,1,1,0,0,0,0,0,0,,0101000020E61000001409D644B50D56C0F1EFA65705044540
196,activity area,,42.0426134084552,-88.1695492504473,yes,"E Bode Rd, east of Bartlett Rd","Hoffman Estates, IL 60107",,213,Northwest,,Bode Lake,Arthur L. Janura Preserve,,0,0,0,0,0,0,0,0,0,1,1,0,0,1,0,0,0,0,0,0,1,1,0,0,1,0,0,0,0,0,0,0,0,0,0,0,0,0,0,0,0,0,0,0,0,0,0,0,0,0,0,0,1,1,0,0,0,0,0,0,,0101000020E6100000DD6E19E5D90A56C0CDD72D5B74054540
197,activity area,yes,42.0568936109218,-88.1465392925414,yes,"S Barrington Rd, south of W Higgins Rd","Hoffman Estates, IL 60194",,160,Northwest,,Barrington Road Pond,Arthur L. Janura Preserve,,0,0,0,0,0,0,0,0,0,1,1,0,0,1,0,0,0,1,0,0,1,0,0,0,1,0,0,0,0,0,0,0,1,0,0,0,0,0,0,0,1,1,0,0,0,0,0,0,0,0,1,1,0,1,0,0,0,0,0,0,,0101000020E6100000D74257E6600956C05321334A48074540
198,activity area,,42.0619916007737,-88.150544255709,yes,"Shoe Factory Rd, south of W Higgins Rd","Cook County, IL 60194",,209,Northwest,Shoe Factory Bike Lot,Poplar Creek Bicycle Lot,Arthur L. Janura Preserve,,0,1,0,0,0,0,0,0,0,1,1,0,0,1,0,0,0,0,0,0,0,0,0,0,1,0,0,0,0,0,0,0,0,0,0,0,0,0,0,0,0,0,1,0,0,0,0,0,0,0,0,0,1,0,0,0,0,0,0,0,,0101000020E6100000B8B75F84A20956C089F93C57EF074540
199,activity area,,42.060703970069,-88.1600166649565,yes,"Shoe Factory Rd, east of Bartlett Rd","Hoffman Estates, IL 60010",,210,Northwest,,Poplar Creek Model Airplane Flying Field,Arthur L. Janura Preserve,,0,0,0,0,0,0,0,0,0,0,0,0,0,0,0,0,1,0,0,0,0,0,0,0,0,0,0,1,0,0,0,0,0,0,0,0,0,0,0,0,0,0,0,0,0,0,0,0,0,0,0,0,1,1,1,0,0,0,0,0,,0101000020E610000068B389B63D0A56C08117CF25C5074540
200,activity area,,42.0612461697558,-88.1914161022755,yes,"Shoe Factory Rd, east of Rte 59","Hoffman Estates, IL 60010",,211,Northwest,Shoe Factory Roadside,Great Egret Family Picnic Area,Arthur L. Janura Preserve,,0,0,0,1,0,0,0,0,0,1,1,0,0,1,0,0,0,1,0,0,0,0,0,0,1,0,0,0,0,0,0,0,0,0,0,0,0,0,0,0,0,0,0,0,0,0,0,0,0,0,0,0,1,0,0,0,0,0,0,0,,0101000020E6100000DFCC5229400C56C0A10D1CEAD6074540
202,activity area,,42.083002804393,-88.2294442003051,yes,"W Higgins Rd/Rte 72, west of Beverly Rd","Cook County, IL 60010",,206,Northwest,,Beverly Lake,,,0,0,0,0,0,0,0,0,0,1,1,0,0,1,0,0,0,1,0,0,1,0,0,0,1,0,0,0,1,0,0,0,0,0,0,0,0,0,0,0,0,0,0,0,0,0,0,1,0,0,0,0,0,0,0,0,0,0,0,0,,0101000020E61000004B24BA36AF0E56C0152CFDD59F0A4540
203,activity area,,42.0976440338268,-88.2063243387835,yes,"East Penny Rd, west of Old Sutton Rd","Barrington Hills, IL 60010",,329,Northwest,,Penny Road Pond,Spring Lake,,0,0,0,0,0,0,0,0,0,0,0,0,0,0,0,0,0,1,0,0,1,0,0,0,0,0,0,0,0,0,0,0,0,0,0,0,0,0,0,0,0,0,0,0,0,0,0,1,0,0,0,0,1,1,0,0,0,0,0,0,,0101000020E61000006BDCFF6A340D56C0C4F785997F0C4540
204,activity area,,42.0526526341169,-87.8858638086948,yes,"S River Rd, south of E Golf Rd","Des Plaines, IL 60016",,149,Indian Boundary,,Lions Woods,,,0,0,0,0,0,0,0,0,0,0,0,0,0,0,0,0,0,0,0,0,0,0,0,0,0,0,0,0,0,0,0,0,0,0,0,0,0,0,0,0,1,0,0,0,0,0,0,0,0,0,0,0,1,0,1,0,0,0,0,1,,0101000020E610000075C31DFEB1F855C048CA4E52BD064540
205,activity area,,42.036501684567,-87.8812411215376,yes,"Joseph Schwab Rd, south of Minor St","Des Plaines, IL 60016",,324,Indian Boundary,,Northwestern Woods,,,0,0,0,0,0,0,0,1,0,0,0,0,0,0,0,0,0,0,0,0,0,0,0,0,0,0,0,0,0,0,0,0,1,0,0,0,0,0,0,0,0,0,0,0,0,0,0,0,0,0,0,0,0,0,0,0,0,0,0,0,,0101000020E61000003A39294166F855C065BB5216AC044540
206,activity area,,42.1409296692582,-87.9011610905799,yes,"E Dundee Rd, east of N Milwaukee Ave","Cook County, IL 60062",,158,Indian Boundary,,Potawatomi Woods,,,0,0,0,0,0,0,0,0,0,1,1,0,0,1,0,0,0,1,0,0,1,0,0,0,1,0,0,0,1,0,0,0,1,0,0,0,0,0,0,0,1,0,0,0,0,0,0,0,0,0,0,0,1,0,1,0,0,0,0,0,,0101000020E6100000F81D919FACF955C00640C0FB09124540
207,activity area,,42.0298695309527,-87.8738567885706,yes,E Algonquin Rd &amp; Joseph Schwab Rd,"Des Plaines, IL 60016",,148,Indian Boundary,,Camp Ground Road Woods,,,0,0,0,0,0,0,0,0,0,1,1,0,0,1,0,0,0,0,0,0,0,0,0,0,1,0,0,0,0,0,0,0,0,0,0,0,0,0,0,0,1,0,0,0,0,0,0,0,0,0,0,0,1,0,0,0,0,0,0,0,,0101000020E610000016130645EDF755C05B4BC9C3D2034540
208,activity area,,42.0111744870281,-87.8641605932528,yes,"E Touhy Ave, west of Talcott Rd","Cook County, IL 60018",,292,Indian Boundary,,Iroquois Woods,,,0,0,0,0,0,0,0,0,0,0,0,0,0,0,0,0,0,0,0,0,0,0,0,0,0,0,0,0,0,0,0,0,0,0,0,0,0,0,0,1,0,0,0,0,0,0,0,0,0,0,0,0,1,0,0,0,0,0,0,0,,0101000020E6100000D1A03B684EF755C0E62A642A6E014540
210,activity area,,42.0058625057575,-87.8655728150426,yes,"S River Rd, south of W Touhy Ave","Cook County, IL 60018",,291,Indian Boundary,,Chippewa Woods,Axehead Lake,,0,0,0,0,0,0,0,0,0,0,0,0,0,0,0,0,0,0,0,0,1,1,0,0,0,0,0,0,0,0,0,0,1,0,0,0,0,0,0,0,1,0,0,0,0,0,0,0,0,0,0,0,0,0,0,0,0,0,0,0,,0101000020E6100000843A858B65F755C02840431AC0004540
211,activity area,,41.9988368882166,-87.8619941160048,yes,"S River Road, north of E Devon Ave","Cook County, IL 60018",,169,Indian Boundary,,Blandings Grove Family Picnic Area,,,0,0,0,0,0,0,0,0,0,0,0,0,0,0,0,0,0,0,0,0,0,0,0,0,0,0,0,0,0,0,0,0,0,0,0,0,0,0,0,0,0,0,0,0,0,0,0,0,0,0,0,0,0,0,0,0,0,0,0,0,,0101000020E61000006F655EE92AF755C0DF761CE3D9FF4440
212,activity area,,41.9989636280111,-87.8583119832991,yes,"S Dee Rd, north of Devon Ave","Park Ridge, IL 60068",,4,Indian Boundary,,Dam No. 4 Woods-East,Dam #4,Dam Number 4,0,0,0,0,0,0,0,0,0,1,1,0,0,1,0,0,0,1,0,0,0,0,0,0,1,0,0,0,0,0,0,0,0,0,0,0,0,0,0,0,1,0,0,0,0,0,0,0,0,0,0,0,1,0,1,0,0,0,0,0,,0101000020E610000035826295EEF655C0C419480ADEFF4440
213,activity area,,41.9945458737548,-87.8606197771279,yes,"S River Road, south of E Devon Ave","Cook County, IL 60018",,167,Indian Boundary,,Blue Beech Family Picnic Area,,,0,0,0,0,0,0,0,0,0,0,0,0,0,0,0,0,0,0,0,0,0,0,0,0,0,0,0,0,0,0,0,0,0,0,0,0,0,0,0,0,0,0,0,0,0,0,0,0,0,0,0,0,0,0,0,0,0,0,0,0,,0101000020E61000008643F96414F755C0FF1279474DFF4440
214,activity area,,41.9804593064387,-87.847738518705,yes,"N East River Rd, north of W Foster Ave","Chicago, IL 60656",,140,Indian Boundary,,Catherine Chevalier Woods,,,0,0,0,0,0,0,0,0,0,1,1,0,0,1,0,0,0,0,0,0,0,0,0,0,1,0,0,0,0,0,0,0,0,0,0,0,0,0,0,0,1,0,0,0,0,0,0,0,0,0,0,0,1,1,0,0,0,0,0,0,,0101000020E610000070590F5941F655C0411BC8B07FFD4440
215,activity area,,41.9719675552726,-87.861447788095,yes,"Des Plaines River Rd, north of Lawrence Ave","Schiller Park, IL 60176",,222,Indian Boundary,,River Bend Family Picnic Area,,,0,0,0,0,0,0,0,0,0,0,0,0,0,0,0,0,0,0,0,0,0,0,0,0,0,0,0,0,0,0,0,0,0,0,0,0,0,0,0,0,0,0,0,0,0,0,0,0,0,0,0,0,0,0,0,0,0,0,0,0,,0101000020E61000001545E7F521F755C0A255CF6E69FC4440
216,activity area,,41.9648813538556,-87.8540106231084,yes,"Lawrence Ave, west of N East River Rd","Chicago, IL 60656",,141,Indian Boundary,,Robinson Woods-South,,,0,0,0,0,0,0,0,0,0,1,1,0,0,1,0,0,0,1,0,0,0,0,0,0,1,0,0,0,0,0,0,0,0,0,0,0,0,0,0,0,1,0,0,0,0,0,0,1,0,0,0,0,1,0,1,0,0,0,0,0,,0101000020E6100000F62B2C1CA8F655C039AA713B81FB4440
217,activity area,,41.954007076439,-87.8565739467665,yes,"Des Plaines River Rd, north of Irving Park Rd","Schiller Park, IL 60176",,25,Indian Boundary,Canoe Launch,Irving Park Road Canoe Landing,,,0,0,0,0,0,0,0,1,0,0,0,0,0,0,0,0,0,0,0,0,0,0,0,0,0,0,0,0,0,0,0,0,0,0,0,0,0,0,0,0,0,0,0,0,0,0,0,0,0,0,0,0,0,0,0,0,0,0,0,0,,0101000020E6100000EBFD871BD2F655C09EBA64E71CFA4440
218,activity area,,41.9555767610468,-87.8518596767565,yes,"W Irving Park Rd, east of Des Plaines River Rd","Schiller Park, IL 60634",,129,Indian Boundary,Schiller 1-8,Schiller Woods-West,,,0,0,0,0,0,0,0,0,0,1,1,0,0,1,0,0,0,1,0,0,0,0,0,0,1,0,0,0,0,0,0,0,0,0,0,0,0,0,0,1,1,0,0,0,0,0,0,1,0,0,0,0,1,0,1,0,0,0,0,1,,0101000020E6100000D01C73DE84F655C0BFC1DC5650FA4440
219,activity area,,41.9520062574735,-87.8527092454165,yes,"W Irving Park Rd, east of Des Plaines River Rd","Schiller Park, IL 60634",,130,Indian Boundary,Schiller 15,Schiller Woods-South,,,0,0,0,0,0,0,0,0,0,1,1,0,0,1,0,0,0,1,0,0,0,0,0,0,1,0,0,0,0,0,0,0,0,0,0,0,0,0,0,0,0,0,0,0,0,0,0,1,0,0,0,0,0,0,0,0,0,0,0,0,,0101000020E6100000E283CCC992F655C0D6B74E57DBF94440
220,activity area,,41.9576718946953,-87.8343224881557,yes,"W Montrose Ave, east of N Cumberland Ave","Chicago, IL 60706",,125,Indian Boundary,,Schiller Playfield,,,0,0,0,0,0,0,0,0,0,0,0,0,0,0,0,0,0,0,0,0,0,0,0,0,0,0,0,0,0,0,0,0,0,0,0,0,0,0,0,0,0,0,0,0,0,0,0,1,0,0,0,0,0,0,0,0,0,0,0,0,,0101000020E61000008F3C268A65F555C0E1011EFE94FA4440
221,activity area,,41.9546211978789,-87.8438668394212,yes,"W Irving Park Rd, west of N Cumberland Ave","Chicago, IL 60634",,128,Indian Boundary,Schiller 9-14,Schiller Woods-East,Schiller Pond,,0,0,0,0,0,0,0,0,0,1,1,0,0,1,0,0,0,1,0,0,1,0,0,0,1,0,0,0,0,0,0,0,0,0,0,0,0,0,0,0,1,0,0,1,0,0,0,1,0,0,1,1,1,1,1,0,0,0,0,1,,0101000020E61000008B5F0FEA01F655C0AB7A040731FA4440
222,activity area,,41.9511220417671,-87.841470474353,yes,"W Irving Park Rd, west of N Cumberland Ave","Chicago, IL 60634",,223,Indian Boundary,,Schiller Model Airplane Flying Field,,,0,0,0,0,0,0,0,0,0,0,0,0,0,0,0,0,0,0,0,0,0,0,0,0,0,0,0,1,0,0,0,0,0,0,0,0,0,0,0,0,0,0,0,0,0,0,0,1,0,0,0,0,1,1,1,0,0,0,0,0,,0101000020E610000055F9F9A6DAF555C078F2F75DBEF94440
223,activity area,,41.9511168909135,-87.8462614966239,yes,"W Irving Park Ave, west of N Cumberland Ave","Chicago, IL 60634",,127,Indian Boundary,,Che Che Pin Qua Woods,Schiller Woods,,0,0,0,0,0,0,0,0,0,0,0,0,0,0,0,0,0,0,0,0,0,0,0,0,0,0,0,0,0,0,0,0,0,0,0,0,0,0,0,1,0,0,0,0,0,0,0,1,0,0,0,0,1,0,0,0,0,0,0,0,,0101000020E610000047F7FA2529F655C0CB92C232BEF94440
224,activity area,,41.9460935077436,-87.8548410436145,yes,"Des Plaines River Rd, south of Irving Park Ave","Cook County, IL 60176",,224,Indian Boundary,,Indian Boundary Family Picnic Area,,,0,0,0,0,0,0,0,0,0,0,0,0,0,0,0,0,0,0,0,0,0,0,0,0,0,0,0,0,0,0,0,0,0,0,0,0,0,0,0,0,0,0,0,0,0,0,0,0,0,0,0,0,0,0,0,0,0,0,0,0,,0101000020E61000008F6635B7B5F655C0BA5B919719F94440
225,golf course,,41.9416931694623,-87.8439361524096,yes,8600 W Forest Preserve Dr,"Chicago, IL 60634",,225,Indian Boundary,,Indian Boundary Golf Course,,,0,0,0,0,0,0,0,0,0,0,0,0,0,0,0,0,0,0,0,0,0,0,0,1,0,0,0,0,0,0,0,0,0,0,0,0,0,0,0,0,0,0,0,0,0,0,0,0,0,0,0,0,0,0,0,0,0,0,0,0,,0101000020E6100000B8A0C70C03F655C082DADA6689F84440
227,activity area,,41.9221597277621,-87.8372456391827,yes,"W Fullerton Ave, west of N 1st Ave","River Grove, IL 60171",,20,Indian Boundary,,Fullerton Woods,La Framboise Woods,,0,0,0,0,0,0,0,0,0,1,1,0,0,1,0,0,0,0,0,0,0,0,0,0,1,0,0,0,0,0,0,0,0,0,0,0,0,0,0,0,1,0,0,0,0,0,0,0,0,0,0,0,1,0,0,0,0,0,0,0,,0101000020E610000087C0BB6E95F555C09636785409F64440
228,activity area,,41.9209089495726,-87.8336038538782,yes,"N Thatcher Ave, south of W Fullerton Ave","River Grove, IL 60171",,305,Indian Boundary,,Jerome Huppert Woods,,,0,0,0,0,0,0,0,0,0,1,1,0,0,1,0,0,0,0,0,0,0,0,0,0,1,0,0,0,0,0,0,0,0,0,0,0,0,0,0,0,1,0,0,0,0,0,0,0,0,0,0,0,1,0,1,0,0,0,0,0,,0101000020E61000007D8EFAC359F555C008812E58E0F54440
229,activity area,,41.9131317474418,-87.8266771574922,yes,W Bloomingdale Ave & Thatcher Ave,"River Grove, IL 60171",,19,Indian Boundary,,Evans Field,,,0,0,0,0,0,0,0,0,0,1,1,0,0,1,0,0,0,0,0,0,0,0,0,0,1,0,0,0,0,0,0,0,0,0,0,0,0,0,0,0,1,0,0,0,0,0,0,0,0,0,1,0,0,0,0,0,0,0,0,0,,0101000020E6100000E0F14E47E8F455C0D3194880E1F44440
230,activity area,,41.909217855042,-87.8307008681009,yes,"North Ave, east of N 1st Ave","River Grove, IL 60171",,23,Indian Boundary,,Sunset Bridge Meadow,,,0,0,0,0,0,0,0,0,0,1,1,0,0,1,0,0,0,0,0,0,0,0,0,0,1,0,0,0,0,0,0,0,0,0,0,0,0,0,0,0,1,0,0,0,0,0,0,0,0,0,1,1,0,0,0,0,0,0,0,1,,0101000020E61000001F50F9332AF555C01D2C2C4061F44440
231,activity area,,41.9006040669426,-87.8344277818416,yes,"N 1st Ave, north of Chicago Ave","Melrose Park, IL 60160",,18,Indian Boundary,,Silver Creek Family Picnic Area,,,0,0,0,0,0,0,0,0,0,0,0,0,0,0,0,0,0,1,0,0,0,0,0,0,0,0,0,0,0,0,0,0,0,0,0,0,0,0,0,0,0,0,0,0,0,0,0,0,0,0,0,0,0,0,0,0,0,0,0,0,,0101000020E61000008A78C84367F555C0E5147BFE46F34440
232,activity area,,41.8958578810614,-87.8308902275866,yes,"Chicago Ave, west of Thatcher Ave","River Forest, IL 60305",,27,Indian Boundary,,Thatcher Woods,,,0,0,0,1,0,0,0,0,0,0,0,0,0,1,0,0,1,1,0,0,0,0,0,0,1,1,0,0,0,0,0,0,0,0,0,0,0,1,1,1,1,0,0,0,0,0,0,1,0,1,1,1,1,1,1,0,0,0,0,0,,0101000020E61000003583344E2DF555C0DC829678ABF24440
233,nature center,yes,41.8932453500739,-87.8263054594213,yes,738 Thatcher Ave,"River Forest, IL 60305",,172,Indian Boundary,,Trailside Museum of Natural History,Hal Tyrell Trailside Museum,,0,0,0,1,0,0,0,0,0,0,0,0,0,0,0,0,0,1,0,0,1,0,0,0,1,0,0,0,0,1,0,1,0,1,0,0,0,0,0,0,0,0,0,0,0,0,0,1,0,1,1,1,0,0,0,0,0,0,0,0,0101000020E610000056E780F1EFF455C0345A024D68F24440,0101000020E61000001F2E4B30E2F455C08FEF16DD55F24440
234,activity area,,41.8907348183977,-87.8324307583225,yes,Ohio St & Des Plaines Ave,"Maywood, IL 60153",,8,Indian Boundary,,Maywood Grove,,,0,0,0,0,0,0,0,1,0,0,0,0,0,0,0,0,0,0,0,0,0,0,0,0,0,0,0,0,0,0,0,0,0,0,0,0,0,0,0,0,1,0,0,0,0,0,0,0,0,0,0,0,1,0,1,0,0,0,0,1,,0101000020E610000080CBA88B46F555C09D36399903F24440
235,activity area,,41.8842302444341,-87.8334088118885,yes,"1st Ave, north of Washington Blvd","Cook County, IL 60153",,228,Indian Boundary,,Quercus Woods Family Picnic Area,,,0,0,0,0,0,0,0,0,0,0,0,0,0,0,0,0,0,0,0,0,0,0,0,0,0,0,0,0,0,0,0,0,0,0,0,0,0,0,0,0,0,0,0,0,0,0,0,0,0,0,0,0,0,0,0,0,0,0,0,0,,0101000020E610000097D0E99156F555C044FDE6742EF14440
236,activity area,,41.8631474158894,-87.8296127043071,yes,"Roosevelt Rd, east of 1st Ave","Cook County, IL 60130",,5,Salt Creek,,Miller Meadow-North,George A. Miller Meadow,,0,0,0,0,0,0,0,0,0,0,0,0,0,0,0,0,0,1,0,0,0,0,0,0,0,0,1,0,0,0,0,0,0,0,0,0,0,0,0,1,1,0,0,0,0,0,0,0,0,0,0,0,1,1,1,0,0,0,0,1,,0101000020E61000001656E25F18F555C0936F519D7BEE4440
237,activity area,,41.8579385993794,-87.8296783779469,yes,"1st Ave, south of Roosevelt Rd","Cook County, IL 60130",,7,Salt Creek,,Miller Meadow-South,George A. Miller Meadow,,0,0,0,1,0,0,0,0,0,1,1,0,1,1,0,0,0,1,0,0,0,0,0,0,1,0,1,0,0,0,0,0,0,0,0,0,0,0,0,1,1,0,1,0,0,0,0,0,0,0,0,0,1,0,1,0,0,0,0,1,,0101000020E6100000B8DE567319F555C0BB2799EED0ED4440
238,activity area,,41.8510950088303,-87.8235663229637,yes,"W Cermak Rd, west of Des Plaines Ave","Cook County, IL 60546",,44,Salt Creek,,Schuth's Grove,,,0,0,0,0,0,0,0,0,0,0,0,0,0,0,0,0,0,0,0,0,0,0,0,0,0,0,0,0,0,0,0,0,0,0,0,0,0,0,0,1,1,0,0,0,0,0,0,0,0,0,0,0,1,0,0,0,0,0,0,0,,0101000020E6100000D1CD854FB5F455C0805B66AEF0EC4440
239,activity area,,41.8491340439372,-87.8240729452461,yes,"W Cermak Rd, west of Des Plaines Ave","North Riverside, IL 60546",,173,Salt Creek,Callahan,Callahan Grove,,,0,0,0,0,0,0,0,0,0,0,0,0,0,0,0,0,0,0,0,0,0,0,0,0,0,0,0,0,0,0,0,0,0,0,0,0,0,0,0,0,0,0,0,0,0,0,0,0,0,0,0,0,0,0,0,0,0,0,0,0,,0101000020E61000006E56739CBDF455C0B050A26CB0EC4440
240,activity area,,41.8360866824027,-87.8289621001369,yes,"1st Ave, north of 31st St","North Riverside, IL 60546",,42,Salt Creek,McCormick,McCormick Woods,,,0,0,0,0,0,0,0,0,0,0,0,0,0,0,0,0,0,1,0,0,0,0,0,0,0,0,0,0,0,0,0,0,0,0,0,0,0,0,0,0,1,0,0,0,0,0,0,1,0,0,0,0,1,0,0,0,0,0,0,0,,0101000020E6100000876D0DB70DF555C03BC56EE304EB4440
241,activity area,,41.8389220614475,-87.8262254319534,yes,"Groveland Ave, north of 31st St","North Riverside, IL 60546",,318,Salt Creek,,National Grove-South,,,0,0,0,0,0,0,0,0,0,0,0,0,0,0,0,0,0,0,0,0,0,0,0,0,0,0,0,0,0,0,0,0,0,0,0,0,0,0,0,1,1,0,0,0,0,0,0,0,0,0,1,0,1,0,0,0,0,0,0,0,,0101000020E61000004257A2E0E0F455C0ADE750CC61EB4440
242,activity area,,41.8322140755827,-87.827851841014,yes,"1st Ave, south of 31st Ave","Riverside, IL 60546",,319,Salt Creek,,Zoo Woods,,,0,0,0,0,0,0,0,0,0,0,0,0,0,0,0,0,0,1,0,0,0,0,0,0,0,0,0,0,0,0,0,0,0,0,0,0,0,0,0,0,0,0,0,0,0,0,0,0,0,0,0,0,1,0,0,0,0,0,0,0,,0101000020E6100000A7C54986FBF455C001F3A6FD85EA4440
243,activity area,,41.8361021891075,-87.8390820642009,yes,"31st St, west of 1st Ave","Brookfield, IL 60513",,28,Salt Creek,Brookfield,Brookfield Woods,,,0,0,0,0,0,0,0,0,0,1,1,0,0,1,0,0,0,1,0,0,0,0,0,0,1,0,0,0,0,0,0,0,0,0,0,0,0,0,0,0,1,0,1,0,0,0,0,1,0,0,0,0,1,1,1,0,0,0,0,1,,0101000020E6100000CA194285B3F555C05A2A836505EB4440
245,activity area,,41.8424268771931,-87.852965424569,yes,"26th St, west of Maple Ave","Cook County, IL 60526",,307,Salt Creek,Twenty-six East,Twenty-Sixth Street Woods-East,,,0,0,0,0,0,0,0,0,0,0,0,0,0,0,0,0,0,0,0,0,0,0,0,0,0,0,0,0,0,0,0,0,0,0,0,0,0,0,0,1,0,0,0,0,0,0,0,0,0,0,0,0,1,0,0,0,0,0,0,0,,0101000020E61000001CC94AFC96F655C06968D7A4D4EB4440
246,activity area,,41.8424214399353,-87.8571287943641,yes,"26th St, east of S 25th Ave","Cook County, IL 60526",,306,Salt Creek,Twenty-six West,Twenty-Sixth Street Woods-West,,,0,0,0,0,0,0,0,1,0,1,1,0,0,1,0,0,0,0,0,0,0,0,0,0,1,0,0,0,0,0,0,0,0,0,0,0,0,0,0,0,1,0,1,0,0,0,0,0,0,0,0,0,1,0,0,0,0,0,0,0,,0101000020E61000003D10BB32DBF655C057FC3A77D4EB4440
247,activity area,,41.8439995223743,-87.8737399389314,yes,"N La Grange Rd, south of W Cermak Rd","Cook County, IL 60526",,29,Salt Creek,,Brezina Woods,,,0,0,0,0,0,0,0,0,0,1,1,0,0,1,0,0,0,1,0,0,0,0,0,0,1,0,0,0,0,0,0,0,0,0,0,0,0,0,0,1,1,0,1,0,0,0,0,0,0,0,0,0,1,0,1,0,0,0,0,1,,0101000020E6100000D5BAEB5AEBF755C0FA37252D08EC4440
248,activity area,,41.8358203522537,-87.878901042921,yes,"W 31st St, west of S La Grange Rd","Cook County, IL 60526",,10,Salt Creek,Possum,Possum Hollow Woods,,,0,0,0,0,0,0,0,0,0,0,0,0,0,0,0,0,0,1,0,0,0,0,0,0,0,0,0,0,0,0,0,0,0,0,0,0,0,0,0,1,1,0,0,0,0,0,0,1,0,0,0,0,1,0,0,0,0,0,0,0,,0101000020E610000002F128EA3FF855C063214B29FCEA4440
249,activity area,,41.8333334802784,-87.8747941580405,yes,"W 31st St, west of S La Grange Rd","La Grange Park, IL 60526",,30,Salt Creek,LaGrange,LaGrange Park Woods,,,0,0,0,0,0,0,0,0,0,0,0,0,0,0,0,0,0,0,0,0,0,0,0,0,0,0,0,0,0,0,0,0,0,0,0,0,0,0,0,1,0,0,0,0,0,0,0,0,0,0,0,0,1,0,0,0,0,0,0,0,,0101000020E610000003E1A2A0FCF755C08C3AE6ABAAEA4440
250,activity area,,41.8221740811255,-87.909560995167,yes,"Ogden Ave, west of Wolf Rd","Cook County, IL 60558",,46,Salt Creek,,Bemis Woods-South,,,0,0,0,1,0,0,0,0,0,1,1,0,0,1,0,0,0,1,0,0,0,0,0,0,1,0,0,0,0,0,0,0,0,0,0,0,0,0,0,0,1,0,1,0,0,0,0,1,1,1,1,0,1,1,1,0,0,0,0,1,,0101000020E610000065FD513F36FA55C0C50613003DE94440
252,golf course,,41.8324828476081,-87.9111610319634,yes,11599 31st St,"Hinsdale, IL 60523",,249,Salt Creek,,Meadowlark Golf Course,,,0,0,0,0,0,0,0,0,0,0,0,0,0,0,0,0,0,0,0,0,0,0,0,1,0,0,0,0,0,0,0,0,0,0,0,0,0,0,0,0,0,0,0,0,0,0,0,0,0,0,0,0,0,0,0,0,0,0,0,0,,0101000020E6100000046B5C7650FA55C0977A46CC8EEA4440
253,activity area,,41.8170188897751,-87.8320019005662,yes,"Ogden Ave, east of 1st Ave","Riverside, IL 60534",,34,Salt Creek,Plank,Plank Road Meadow Boat Launch,,,0,0,0,0,1,0,0,1,0,0,0,0,0,0,0,0,0,0,0,0,0,0,1,0,0,0,0,0,0,0,0,0,0,0,0,0,0,0,0,0,0,0,0,0,0,0,0,0,0,0,0,0,1,0,0,0,0,0,0,0,,0101000020E61000001249E6843FF555C031E6311394E84440
254,activity area,,41.8198402291496,-87.8112201802962,yes,7600 W Ogden Ave,"Lyons, IL 60534",,336,Salt Creek,Cermak,Cermak Woods,,,0,0,0,0,0,0,0,0,0,1,1,0,0,1,0,0,0,1,0,0,1,0,0,0,1,0,0,0,0,0,0,0,0,0,0,0,0,0,0,0,1,0,0,0,0,0,0,0,0,0,0,0,1,0,1,0,0,0,0,1,0101000020E61000000B114D1B1AF455C0C389D13CFEE84440,0101000020E61000008F0E0C08EBF355C048124E86F0E84440
255,activity area,,41.8194552655581,-87.8075184070441,yes,Haas Ave &amp; Oakwood Ave,"Lyons, IL 60534",,38,Salt Creek,White Eagle 1,White Eagle Woods-North,,,0,0,0,0,0,0,0,0,0,0,0,0,0,0,0,0,0,0,0,0,0,0,0,0,0,0,0,0,0,0,0,0,1,0,0,0,0,0,0,0,1,0,0,0,0,0,0,0,0,0,0,0,1,0,0,0,0,0,0,0,,0101000020E6100000054BAF61AEF355C0B90DFFE8E3E84440
256,activity area,,41.816782346205,-87.8051573041227,yes,"40th St, west of S Harlem Ave","Lyons, IL 60534",,39,Salt Creek,White Eagle2 or @ grove 3,White Eagle Woods-South,,,0,0,0,0,0,0,0,0,0,0,0,0,0,0,0,0,0,0,0,0,0,0,0,0,0,0,0,0,0,0,0,0,1,0,0,0,0,0,0,0,1,0,0,0,0,0,0,0,0,0,0,0,1,0,0,0,0,0,0,0,,0101000020E6100000EB5580B287F355C04A73EC528CE84440
257,activity area,,41.815199615385,-87.8049194397712,yes,"Joliet Ave, west of S Harlem Ave","Lyons, IL 60534",,308,Salt Creek,Ottawa 3,Ottawa Trail Woods-North,Laughton Trading Post and Ford,,0,0,0,0,0,0,0,0,0,0,0,0,0,0,0,0,0,0,0,0,0,0,0,0,0,0,0,0,0,0,0,0,1,0,0,0,0,0,0,1,0,0,0,0,0,0,0,0,0,0,0,0,1,0,0,0,0,0,0,0,,0101000020E6100000DA6ED3CC83F355C02FE5037658E84440
258,activity area,,41.8104318048915,-87.8045734564459,yes,"47th St, west of S Harlem Ave","Lyons, IL 60534",,36,Salt Creek,,Ottawa Trail Woods-South,Laughton Trading Post and Ford,,0,0,0,1,0,0,0,0,0,0,0,0,0,0,0,0,0,1,0,0,0,0,0,0,0,0,0,0,0,0,0,0,1,0,0,0,0,0,0,1,1,0,0,0,0,0,0,0,0,0,0,0,1,0,0,0,0,0,0,0,,0101000020E61000008BAAAA217EF355C0DCD2B83ABCE74440
259,activity area,,41.8126940268703,-87.8103620455888,yes,"Joliet Ave/43rd St, west of S Harlem Ave","Lyons, IL 60534",,244,Salt Creek,Stony,Stony Ford Canoe Landing,,,0,0,0,0,0,0,0,1,0,1,1,0,0,1,0,0,0,0,0,0,0,0,0,0,1,0,0,0,0,0,0,0,0,0,0,0,0,0,0,0,0,0,0,0,0,0,0,0,0,0,0,0,0,0,0,0,0,0,0,0,,0101000020E610000051EEC4F8DCF355C0FB879D5B06E84440
260,activity area,,41.8053117330451,-87.8025320640396,yes,"S Harlem Ave, south of 47th St","Lyons, IL 60402",,245,Salt Creek,Portage,Chicago Portage National Historic Site,,,0,0,0,0,0,0,0,0,0,1,1,0,0,1,0,0,0,1,0,0,0,0,0,0,1,0,0,0,0,0,0,0,0,0,0,0,1,0,0,0,0,0,1,0,0,0,0,1,0,0,0,0,1,1,0,0,0,0,0,0,,0101000020E6100000A54272AF5CF355C0BF41727414E74440
261,activity area,,42.1398415653921,-87.8239718636403,yes,"Dundee Rd, east of S Waukegan Ave","Northbrook, IL 60062",,163,North Branch,,Somme Woods,Somme Prairie Grove,Somme Prairie Nature Preserve,0,0,0,0,0,0,0,0,0,1,1,0,0,1,0,0,0,1,0,0,0,0,0,0,1,0,0,0,0,0,0,0,1,0,0,0,0,0,0,0,1,0,0,0,0,0,0,1,0,0,0,0,1,1,0,0,0,0,0,0,,0101000020E61000002FCA7BF4BBF455C085FD1254E6114540
262,activity area,,42.1497254851173,-87.7745249659741,yes,"Green Bay Rd, south of Lake Cook Rd","Glencoe, IL 60022",,95,North Branch,,Turnbull Woods,William N. Erickson Preserves,,0,0,0,0,0,0,0,0,0,0,0,0,0,0,0,0,0,0,0,0,0,0,0,0,0,0,0,0,0,0,0,0,0,0,0,0,0,0,0,0,1,0,0,0,0,0,0,1,0,0,0,0,0,1,1,0,0,0,0,0,,0101000020E6100000D3B229D191F155C06DFA66342A134540
263,special activity,,42.1503333831494,-87.7884428645228,yes,1000 Lake Cook Rd,"Glencoe, IL 60022",,229,North Branch,,Chicago Botanic Garden,,,0,0,0,1,0,0,0,0,0,0,1,0,0,0,0,0,0,0,0,0,0,0,0,0,1,0,0,0,0,0,0,0,0,0,1,0,0,0,0,0,0,0,0,0,0,0,0,0,0,1,1,1,0,0,0,0,0,0,0,0,,0101000020E6100000F2780FD975F255C0D30FD21F3E134540
265,activity area,,42.1284467797275,-87.7753242898305,yes,"Forest Way Dr, south of Dundee Rd","Cook County, IL 60022",,94,North Branch,Strawberry Hill,Forest Way Grove,Skokie Lagoons,,0,0,0,0,0,0,0,0,0,1,1,0,0,1,0,0,0,0,0,0,1,0,0,0,1,0,0,0,0,0,0,0,0,0,0,0,0,0,0,0,0,0,1,0,0,0,0,1,0,0,0,0,1,1,0,0,0,0,0,0,,0101000020E61000006E27C5E99EF155C05A1AAFF170104540
266,activity area,,42.1152537666697,-87.7735161995319,yes,"Tower Rd, west of Forestway Dr","Cook County, IL 60093",,232,North Branch,,Tower Road,Skokie Lagoons,,0,0,0,1,0,1,0,0,0,1,1,0,0,1,0,0,0,1,0,0,1,0,0,0,1,0,0,0,0,0,0,0,0,0,0,0,0,0,0,0,0,0,1,0,0,0,0,1,0,0,0,0,1,0,0,0,0,0,0,0,,0101000020E61000009AFA164A81F155C0224BABA2C00E4540
267,activity area,yes,42.1147199116429,-87.7756590165728,yes,"Tower Rd, west of Forestway Dr","Cook County, IL 60093",,233,North Branch,,Tower Road Boat Launch,Skokie Lagoons,,0,0,0,1,1,0,0,0,0,1,1,0,0,1,0,0,0,0,1,0,1,0,0,0,1,0,0,0,0,0,0,0,0,0,0,0,0,0,0,0,0,0,1,0,0,0,0,1,0,0,0,0,1,1,0,0,0,0,0,0,,0101000020E6100000C341B765A4F155C0615A5E24AF0E4540
268,activity area,,42.1026157818614,-87.7650482342287,yes,"Willow Rd, east of I-94/Edens Expy","Cook County, IL 60093",,99,North Branch,,Erickson Woods,,,0,0,0,1,0,0,0,0,0,1,1,0,0,1,0,0,0,1,0,0,1,0,0,0,1,0,0,0,0,0,0,0,0,0,0,0,0,0,0,0,1,0,1,0,0,0,0,1,0,0,0,0,1,1,0,0,0,0,0,0,,0101000020E6100000FE77DE8CF6F055C0FB929183220D4540
269,activity area,,42.0790179616355,-87.7751659641333,yes,"E Lake Ave, east of Wagner Rd","Glenview, IL 60025",,14,North Branch,,Blue Star Memorial Woods,,,0,0,0,0,0,0,0,0,0,1,1,0,0,1,0,0,1,1,0,0,0,0,0,0,1,0,0,0,0,0,0,0,0,0,0,0,0,0,0,0,1,0,1,0,0,0,0,1,0,0,0,0,1,0,1,0,0,0,0,0,,0101000020E61000002F3BB4519CF155C0AF82B4421D0A4540
270,activity area,,42.0675220471221,-87.7728795963381,yes,"Harms Rd, south of Glenview Rd","Glenview, IL 60025",,236,North Branch,,Glenview Woods,Harms Woods,,0,0,0,0,0,0,0,0,0,1,1,0,0,1,0,0,0,0,0,0,0,0,0,0,1,0,0,0,0,0,0,0,0,0,0,0,0,0,0,0,0,0,1,0,0,0,0,0,0,0,0,0,1,1,0,0,0,0,0,0,,0101000020E61000002081FBDB76F155C00313FC8FA4084540
271,activity area,,42.0625555240933,-87.7720086521144,yes,Harms Rd & Old Orchard Rd,"Cook County, IL 60077",,97,North Branch,,Harms Woods-North,George F. Nixon Forest,,0,0,0,1,0,0,0,0,0,1,1,0,0,1,0,0,0,1,0,0,0,0,0,0,1,0,0,0,0,0,0,0,0,0,0,0,0,0,0,1,1,0,1,0,0,0,0,1,0,0,1,1,0,1,1,0,0,0,0,1,,0101000020E6100000DF43FA9668F155C02015C5D101084540
272,activity area,,42.0596404099222,-87.769829966248,yes,"Harms Rd, south of Old Orchard Rd","Cook County, IL 60077",,96,North Branch,,Harms Woods-Central,George F. Nixon Forest,,0,0,0,0,0,0,0,0,0,1,1,0,0,1,0,0,0,1,0,0,0,0,0,0,1,0,0,0,0,0,0,0,0,0,0,0,0,0,0,1,1,0,1,0,0,0,0,1,0,0,0,0,1,0,0,0,0,0,0,0,,0101000020E61000000121E8E444F155C06811054CA2074540
273,activity area,,42.0574509110928,-87.769401809467,yes,"Harms Rd, north of Golf Rd","Cook County, IL 60077",,98,North Branch,,Harms Woods-South,George F. Nixon Forest,,0,0,0,0,0,0,0,0,0,1,1,0,0,1,0,0,0,1,0,0,0,0,0,0,1,0,0,0,0,0,0,0,0,0,0,0,0,0,0,1,1,0,0,0,0,0,0,1,0,0,0,0,1,0,0,0,0,0,0,0,,0101000020E6100000354916E13DF155C069222C8D5A074540
274,activity area,yes,42.0540985289108,-87.764427220155,yes,9453 Harms Rd,"Morton Grove, IL 60053",,238,North Branch,,Glen Grove Equestrian Center,,,0,0,0,0,0,0,0,0,0,0,0,0,0,0,0,0,0,0,1,0,0,0,0,0,0,0,0,0,0,0,0,0,0,0,0,0,0,0,0,0,0,0,0,0,0,0,0,0,0,0,0,0,0,0,0,0,0,0,0,0,,0101000020E610000037AF2560ECF055C07B375AB3EC064540
275,activity area,,42.0555643937833,-87.7620691444573,yes,"Woods Dr, north of Golf Rd","Skokie, IL 60077",,237,North Branch,,Calvin R. Sutker Grove,George F. Nixon Forest,Harms Flatwoods Nature Preserve,0,0,0,0,0,0,0,0,0,1,1,0,0,1,0,0,0,1,0,0,0,0,0,0,1,0,0,0,0,0,0,0,0,0,0,0,0,0,0,0,0,0,0,0,0,0,0,0,0,0,0,0,0,0,0,0,0,0,0,0,,0101000020E6100000022FA9BDC5F055C0830FEBBB1C074540
276,golf course,,42.0540237158687,-87.7790764934414,yes,6145 Golf Rd,"Morton Grove, IL 60053",,239,North Branch,,Chick Evans Golf Course,,,0,0,0,0,0,0,0,0,0,0,0,0,0,0,0,0,0,0,0,0,0,0,0,1,0,0,0,0,0,0,0,0,0,0,0,0,0,0,0,0,0,0,0,0,0,0,0,0,0,0,0,0,0,0,0,0,0,0,0,0,,0101000020E6100000721AA763DCF155C0A86EC63FEA064540
277,activity area,,42.0431798236324,-87.7854703159286,yes,"W Dempster St, east of Lehigh Ave","Morton Grove, IL 60053",,293,North Branch,,Linne Woods,,,0,0,0,0,0,0,0,1,0,1,1,0,0,1,0,0,0,1,1,0,0,0,0,0,1,0,0,0,0,0,0,0,0,0,0,0,0,0,0,0,1,0,1,0,0,0,0,1,0,0,1,0,0,1,1,0,0,0,0,0,,0101000020E610000018B9492545F255C0972C9DEA86054540
278,activity area,,42.0424283847892,-87.7912467881798,yes,"Lehigh Ave, north of W Dempster Ave","Morton Grove, IL 60053",,2,North Branch,,Wayside Woods,,,0,0,0,0,0,0,0,0,0,0,0,0,0,0,0,0,0,1,0,0,0,0,0,0,0,0,0,0,0,0,0,0,1,0,0,0,0,0,0,0,1,0,0,0,0,0,0,1,0,0,0,0,1,1,0,0,0,0,0,0,,0101000020E6100000059391C9A3F255C0B78B164B6E054540
279,activity area,,42.0339879054924,-87.7907158709224,yes,"Lincoln Ave, south of W Dempster St","Morton Grove, IL 60053",,1,North Branch,,St. Paul Woods,Frank Bobrytzke,,0,0,0,0,0,0,0,0,0,0,0,0,0,0,0,0,0,1,0,0,0,0,0,0,0,0,1,0,0,0,0,0,0,0,0,0,0,0,0,0,1,0,0,0,0,0,0,1,0,0,0,0,1,1,0,0,0,0,0,0,,0101000020E61000008E82BD169BF255C0564637B759044540
280,activity area,,42.0279997101757,-87.7933246412127,yes,"N Caldwell Ave, north of Oakton St","Morton Grove, IL 60053",,295,North Branch,,Miami Woods,Frank Bobrytzke,,0,0,0,1,0,0,0,0,0,1,1,0,0,1,0,0,0,1,0,0,0,0,0,0,1,0,0,0,0,0,0,0,0,0,0,0,0,0,0,0,1,0,1,0,0,0,0,1,0,0,0,0,1,1,0,0,0,0,0,0,,0101000020E6100000A347B7D4C5F255C04BC0977E95034540
282,activity area,,42.0055128772443,-87.787642659723,yes,"W Harts Rd, southwest of W Touhy Ave","Niles, IL 60714",,142,North Branch,,Bunker Hill,Clayton F. Smith,Oxbow Prairie,0,0,0,1,0,0,0,0,0,1,1,0,0,1,0,0,0,1,0,0,0,0,0,0,1,0,0,0,0,0,0,0,0,0,0,0,0,0,0,0,1,0,1,0,0,0,0,1,0,0,1,1,0,0,0,0,0,0,0,1,,0101000020E6100000771CC2BC68F255C051BC5DA5B4004540
283,activity area,yes,41.9985620366013,-87.7852861838492,yes,W Devon Ave & N Nagle Ave,"Chicago, IL 60646",,119,North Branch,,Caldwell Woods,Clayton F. Smith,,0,0,0,0,0,0,0,0,0,1,1,0,0,1,0,0,0,0,0,0,0,0,0,0,1,0,0,0,0,0,0,0,1,0,0,0,0,0,1,1,1,0,1,1,0,0,0,1,0,1,1,1,0,0,0,0,0,0,0,0,,0101000020E61000008368FB2042F255C06A1D7DE1D0FF4440
284,aquatic center,yes,41.9978882667258,-87.7828680645201,yes,6200 W Devon Ave,"Chicago, IL 60646",,241,North Branch,,Whealan Pool Aquatic Center,Clayton F. Smith,,0,0,0,0,0,0,0,0,0,0,0,0,0,0,0,0,0,0,0,0,0,0,0,0,0,0,0,0,0,0,0,0,0,1,0,0,0,0,0,0,0,0,0,0,0,1,0,0,0,1,1,1,0,0,0,0,0,0,0,0,,0101000020E6100000958CA7821AF255C026537FCDBAFF4440
286,golf course,,41.9901761840252,-87.7596773224012,yes,6150 Caldwell Ave,"Chicago, IL 60646",,243,North Branch,,Billy Caldwell Golf Course,,,0,0,0,0,0,0,0,0,0,0,0,0,0,0,0,0,0,0,0,0,0,0,0,1,0,0,0,0,0,0,0,0,0,0,0,0,0,0,0,0,0,0,0,0,0,0,0,0,0,0,0,0,0,0,0,0,0,0,0,0,,0101000020E610000073CEA18D9EF055C049D5DB17BEFE4440
287,activity area,,41.9918752576627,-87.7648014527619,yes,"Central Ave, south of N Lehigh Ave","Chicago, IL 60646",,120,North Branch,,Edgebrook Woods,Willow Road Woods,Sam Stewart Shelter,0,0,0,0,0,0,0,0,0,0,0,0,0,0,0,0,0,1,0,0,0,0,0,0,0,0,0,0,0,0,0,0,0,0,0,0,0,0,0,0,1,0,0,0,0,0,0,0,0,0,0,0,1,0,1,0,0,0,0,0,,0101000020E6100000EBE2CA81F2F055C0B9AFB8C4F5FE4440
288,activity area,,41.9815003035327,-87.7558766594084,yes,"N Forest Glen Ave, north of N Elston Ave","Chicago, IL 60630",,122,North Branch,,Forest Glen Woods,,,0,0,0,0,0,0,0,0,0,1,1,0,0,1,0,0,0,0,0,0,0,0,0,0,1,0,0,0,0,0,0,0,0,0,0,0,0,0,0,0,1,0,0,0,0,0,0,1,0,0,1,0,1,1,1,0,0,0,0,1,,0101000020E610000002FE7E4860F055C0EE574CCDA1FD4440
289,activity area,,41.7695573676384,-87.8665835577705,yes,"67th St, east of S La Grange Rd","Hodgkins, IL 60525",,80,Salt Creek,,Theodore Stone Forest,Ted Stone Forest,,0,0,0,0,0,0,0,0,0,0,0,0,0,0,0,0,0,1,0,0,0,0,0,0,0,0,0,0,0,0,0,0,1,0,0,0,0,0,0,1,1,0,0,0,0,0,0,1,0,0,0,0,1,1,0,0,0,0,0,0,,0101000020E61000000CF8E11A76F755C08E3317DB80E24440
290,activity area,,41.7683244161522,-87.8688827332963,yes,"S LaGrange Rd, north of 67th St","Countryside, IL 60525",,81,Salt Creek,,Sundown Meadow,Ida Lake,,0,0,0,0,0,0,0,0,0,1,1,0,0,1,0,0,0,1,0,0,1,1,0,0,1,0,0,0,1,0,0,0,0,0,0,0,0,0,0,1,1,0,0,0,0,0,0,1,0,0,0,0,1,1,0,0,0,0,0,0,,0101000020E610000044E452C69BF755C0C20B587458E24440
291,activity area,,41.7396726342183,-87.8484401598881,yes,"S Kean Ave, north of W 87th St","Cook County, IL 60480",,174,Palos,Buffalo #1,Buffalo Woods Family Picnic Area,Palos,,0,0,0,0,0,0,0,0,0,0,0,0,0,0,0,0,0,0,0,0,0,0,0,0,0,0,0,0,0,0,0,0,0,0,0,0,0,0,0,0,0,0,0,0,0,0,0,0,0,0,0,0,0,0,0,0,0,0,0,0,,0101000020E610000047D5F4D74CF655C05ADBC697ADDE4440
292,activity area,,41.7381124964692,-87.8491747148589,yes,"S Kean Ave, north of W 87th St","Cook County, IL 60480",,63,Palos,Buffalo #2,Buffalo Woods-North,Palos,,0,0,0,0,0,0,0,0,0,1,1,0,0,1,0,0,0,0,0,0,0,0,0,0,1,0,0,0,0,0,0,0,0,0,0,0,0,0,0,0,1,0,0,0,0,0,0,0,0,0,0,0,1,0,0,0,0,0,0,0,,0101000020E61000002A3AE7E058F655C0538D64787ADE4440
293,activity area,,41.7362014764295,-87.8496783422963,yes,"S Kean Ave, north of W 87th St","Cook County, IL 60480",,64,Palos,Buffalo #3,Buffalo Woods-Central,Palos,,0,0,0,0,0,0,0,0,0,1,1,0,0,1,0,0,0,0,0,0,0,0,0,0,1,0,0,0,0,0,0,0,1,0,1,0,0,0,0,0,1,1,0,0,0,0,0,0,0,0,0,0,1,1,0,0,0,0,0,0,,0101000020E61000000F12452161F655C0114498D93BDE4440
294,activity area,,41.7335443585481,-87.8488160009683,yes,"W 87th St, west of S Kean Ave","Cook County, IL 60480",,65,Palos,Buffalo #4,Buffalo Woods-South,Palos,,0,0,0,0,0,0,0,0,0,1,1,0,0,1,0,0,0,0,0,0,0,0,0,0,1,0,0,0,0,0,0,0,0,0,0,0,0,0,0,0,1,0,0,0,0,0,0,0,0,0,0,0,1,0,0,0,0,0,0,0,,0101000020E6100000BF1E590053F655C08C1013C8E4DD4440
295,activity area,,41.726616018507,-87.8529737668643,yes,"96th Ave, south of W 87th St","Cook County, IL 60480",,74,Palos,,Spears Woods,Palos,Hogwash Slough,0,0,0,0,0,0,0,0,0,1,1,0,0,1,0,0,0,1,0,0,0,0,0,0,1,0,0,0,0,0,0,0,0,0,0,0,0,0,0,1,0,0,0,0,0,0,0,1,0,0,0,0,1,0,0,0,0,0,0,0,,0101000020E6100000CC41481F97F655C05D1EF2C001DD4440
296,activity area,,41.7279399632104,-87.8730851816077,yes,"Willow Springs Rd, southeast of S Archer Ave","Cook County, IL 60480",,76,Palos,,Willow Springs Woods,Palos,,0,0,0,0,0,0,0,0,0,1,1,0,0,1,0,0,0,1,0,0,0,0,0,0,1,0,0,0,0,0,0,0,0,0,0,0,0,0,0,0,1,0,0,0,0,0,0,1,0,0,0,0,1,0,0,0,0,0,0,0,,0101000020E61000002468ABA0E0F755C050B8FF222DDD4440
297,activity area,yes,41.7333126271734,-87.8803606216549,yes,"Willow Blvd, north of Archer Ave","Willow Springs, IL 60480",,175,Palos,,John Husar I&M Canal Bicycle Trail Parking Lot,Palos,,0,1,0,0,0,0,0,0,0,1,1,0,0,1,0,0,0,0,0,0,0,0,0,0,1,0,0,0,0,0,0,0,0,0,0,0,0,0,0,0,0,0,1,0,0,0,0,0,0,1,1,0,0,0,0,0,0,0,0,0,,0101000020E610000066AC13D457F855C009BA2B30DDDD4440
298,activity area,,41.7221746623397,-87.850046771483,yes,"96th Ave, north of W 95th St","Cook County, IL 60480",,252,Palos,,Hidden Pond Woods-West,Palos,,0,0,0,0,0,0,0,0,0,1,1,0,0,1,0,0,0,1,1,0,0,0,0,0,1,0,0,0,0,0,0,0,0,0,1,0,0,0,0,0,0,1,0,0,0,0,0,1,0,0,0,0,0,0,0,0,0,0,0,0,,0101000020E6100000BEE5922A67F655C0D35F263870DC4440
299,activity area,,41.7160829681673,-87.8634634737676,yes,"95th St, east of Flavin Rd/Willow Springs Rd","Cook County, IL 60480",,67,Palos,,Country Lane Woods,Palos,Cranberry Slough Nature Preserve,0,0,0,1,0,0,0,0,0,1,1,0,0,1,0,0,0,1,1,0,0,0,0,0,1,0,0,0,0,0,0,0,0,0,0,0,0,0,0,1,1,0,0,0,0,0,0,1,0,0,0,0,1,1,0,0,0,0,0,0,,0101000020E6100000D2474DFC42F755C022C0509BA8DB4440
300,activity area,,41.7093908550081,-87.8517825897335,yes,"96th Ave, south of W 95th St","Cook County, IL 60480",,253,Palos,,Belly Deep Slough,Palos,,0,0,0,0,0,0,0,0,0,0,0,0,0,0,0,0,0,0,0,0,1,0,0,0,0,0,0,0,0,0,0,0,0,0,0,0,0,0,0,0,0,0,0,0,0,0,0,0,0,0,0,0,0,0,0,0,0,0,0,0,,0101000020E6100000468D1F9B83F655C0B22BCD51CDDA4440
301,activity area,,41.7037039276171,-87.8549072084018,yes,"96th Ave, north of 107th St","Cook County, IL 60480",,75,Palos,,White Oak Woods,Palos,,0,0,0,0,0,0,0,0,0,0,0,0,0,0,0,0,0,0,0,0,0,0,0,0,0,0,0,0,0,0,0,0,0,0,0,0,0,0,0,1,0,0,0,0,0,0,0,0,0,0,0,0,1,0,0,0,0,0,0,0,,0101000020E6100000D54CB9CCB6F655C0589765F812DA4440
302,activity area,,41.7003826080701,-87.8508787299965,yes,"S La Grange Rd, north of 107th St","Cook County, IL 60480",,69,Palos,,Crooked Creek Woods,Palos,,0,0,0,0,0,0,0,0,0,0,0,0,0,0,0,0,0,0,0,0,0,0,0,0,0,0,0,0,0,0,0,0,0,0,0,0,0,0,0,1,1,0,0,0,0,0,0,0,0,0,0,0,1,0,0,0,0,0,0,0,,0101000020E6100000998C0FCC74F655C08C2C2623A6D94440
303,activity area,,41.6944142736088,-87.8592549226164,yes,"107th St, west of LaGrange Rd","Cook County, IL 60480",,254,Palos,Airplane/Snowmobile Field,Morrill Meadow,Palos,,0,0,0,0,0,0,0,0,0,0,0,0,0,0,0,0,0,0,0,0,0,0,0,0,0,0,0,1,0,0,0,0,0,0,0,0,0,0,0,0,0,0,0,0,1,0,0,0,0,0,0,0,1,1,1,0,0,0,0,0,,0101000020E61000001BE45B08FEF655C045832191E2D84440
304,activity area,,41.6940961708834,-87.8654216213523,yes,"107th St, west of 96th Ave","Cook County, IL 60480",,255,Palos,,Dan McMahon Woods,Palos,McMahon Woods and Fen Nature Preserve,0,0,0,0,0,0,0,0,0,1,1,0,0,1,0,0,0,1,1,0,0,0,0,0,1,0,0,0,0,0,0,0,0,0,0,0,0,0,0,0,0,0,0,0,0,0,0,1,0,0,0,0,0,0,0,0,0,0,0,0,,0101000020E6100000673D5E1163F755C0911CB124D8D84440
305,activity area,,41.5922955339364,-87.7385941714513,yes,"167th St, west of Cicero Ave","Oak Forest, IL 60452",,282,Tinley Creek,Twin Lakes,Midlothian Reservoir,,,0,0,0,0,0,0,0,0,0,1,1,0,0,1,0,0,0,0,0,0,1,0,0,0,1,0,0,0,1,0,0,0,0,0,0,0,0,0,0,0,0,0,1,0,0,0,0,0,0,0,0,0,1,0,0,0,0,0,0,0,,0101000020E61000008FD97C2045EF55C072E90D57D0CB4440
306,activity area,,41.6102983743372,-87.7213583545988,yes,"Crawford Ave, north of W 159th St","Cook County, IL 60428",,83,Tinley Creek,,Midlothian Meadows,,,0,0,0,0,0,0,0,0,0,1,1,0,0,1,0,0,1,0,0,0,0,0,0,0,1,0,1,0,0,0,0,0,0,0,0,0,0,0,0,0,1,0,1,0,0,0,0,0,0,0,0,0,1,1,1,0,0,0,0,1,,0101000020E6100000AB6C3BBC2AEE55C0404AD3411ECE4440
307,activity area,,41.5493483564578,-87.7502665004989,yes,"Central Ave, north of Flossmoor Rd","Cook County, IL 60477",,284,Tinley Creek,,Bobolink Family Picnic Area,South Green Belt Preserves,Bobolink Meadow Land & Water Reserve,0,0,0,0,0,0,0,0,0,0,0,0,0,0,0,0,0,1,0,0,0,0,0,0,0,0,0,0,0,0,0,0,0,0,0,0,0,0,0,0,0,0,0,0,0,0,0,0,0,0,0,0,0,0,0,0,0,0,0,0,,0101000020E610000053BBC85D04F055C0818C040C51C64440
308,activity area,,41.5367887384284,-87.7376719791109,yes,"Cicero Ave, south Flossmoor Rd","Cook County, IL 60478",,286,Tinley Creek,,Tinley Creek Model Airplane Flying Field,South Green Belt Preserves,,0,0,0,0,0,0,0,0,0,0,0,0,0,0,0,0,1,0,0,0,0,0,0,0,0,0,0,1,0,0,0,0,0,0,0,0,0,0,0,0,0,0,0,0,0,0,0,0,0,0,0,0,1,1,1,0,0,0,0,0,,0101000020E6100000395D880436EF55C0A2344E7EB5C44440
309,activity area,,41.5285137711588,-87.7191628657529,yes,"Vollmer Rd, west of Crawford Ave","Cook County, IL 60478",,114,Tinley Creek,,Vollmer Road Grove,South Green Belt Preserves,,0,0,0,0,0,0,0,0,0,1,1,0,0,1,0,0,0,0,0,0,0,0,0,0,1,0,0,0,0,0,0,0,0,0,0,0,0,0,0,0,1,0,1,0,0,0,0,0,0,0,0,0,1,1,1,0,0,0,0,1,,0101000020E6100000023AAFC306EE55C0704ED956A6C34440
310,activity area,yes,41.5420255245424,-87.720044273656,yes,"Flossmoor Rd, west of Crawford Ave","Cook County, IL 60478",,287,Tinley Creek,,Flossmoor Road Bicycle Lot,South Green Belt Preserves,,0,1,0,0,0,0,0,0,0,1,1,0,0,1,0,0,0,0,0,0,0,0,0,0,1,0,0,0,0,0,0,0,0,0,0,0,0,0,0,0,0,0,0,0,0,0,0,0,0,0,0,0,1,1,0,0,0,0,0,0,,0101000020E610000091C1933415EE55C0E4C0A61761C54440
311,activity area,,41.7434783850339,-87.6804028881989,yes,"W 83rd St, east of S Western Ave","Chicago, IL 60620",,134,Calumet,Dan Ryan 15 & 16,Dan Ryan Woods-North,,,0,0,0,0,0,0,0,0,0,1,1,0,0,1,0,0,0,0,0,0,0,0,0,0,1,0,0,0,0,0,0,0,0,0,0,0,0,0,0,0,1,0,1,0,0,0,0,1,0,0,1,0,0,0,0,0,0,0,0,0,,0101000020E6100000C53A8EB88BEB55C07680BA4C2ADF4440
312,activity area,,41.7363865597619,-87.6762222823148,yes,"W 87th St, west of S Damen Ave","Chicago, IL 60620",,132,Calumet,,Dan Ryan Woods-East,,,0,0,0,0,0,0,0,0,0,0,0,0,0,0,0,0,0,0,0,0,0,0,0,0,0,0,0,0,0,0,0,0,0,0,0,0,0,0,0,1,0,0,0,0,0,0,0,1,0,1,1,0,1,0,0,0,0,0,0,0,,0101000020E610000092D7D23947EB55C00FB22FEA41DE4440
313,activity area,,41.7376618343069,-87.681137067012,yes,S Western Ave & W 87th St,"Chicago, IL 60620",,137,Calumet,Upstairs,Dan Ryan Woods Visitor Center,,,0,0,0,0,0,0,0,0,0,0,0,0,0,0,0,0,0,0,0,1,0,0,0,0,0,1,0,0,0,0,0,1,0,0,0,0,0,1,1,1,0,0,0,1,0,0,0,1,0,1,1,1,0,0,0,0,0,0,0,0,,0101000020E61000003ABAECBF97EB55C082EDF6B36BDE4440
314,activity area,,41.7287839027294,-87.6676634793654,yes,W 91st St &amp; S Hermitage Ave,"Chicago, IL 60620",,138,Calumet,Downstairs,Dan Ryan Woods-91st Street,,,0,0,0,0,0,0,0,0,0,0,0,0,0,0,0,0,0,0,0,0,0,0,0,0,0,0,0,0,0,0,0,0,0,0,0,0,0,0,0,1,0,0,0,0,0,0,0,1,0,0,0,0,1,1,0,0,0,0,0,0,,0101000020E6100000E6269AFFBAEA55C07C097ACA48DD4440
315,activity area,,41.6896544838695,-87.5277253266566,yes,E 112th St &amp; S Ave E,"Chicago, IL 60617",,139,Calumet,,Eggers Grove,,,0,0,0,1,0,0,0,0,0,1,1,0,0,1,0,0,0,1,0,0,0,0,0,0,1,0,0,0,0,0,0,0,0,0,0,0,0,0,0,1,1,0,1,0,0,0,0,1,0,0,1,1,1,1,1,0,0,0,0,0,,0101000020E6100000B2D07240C6E155C029E11E9946D84440
316,activity area,,41.6981493582912,-87.869489100447,yes,"107th St, east of S Willow Springs Rd/Flavin Rd","Cook County, IL 60480",,72,Palos,,Pioneer Woods,Palos,,0,0,0,0,0,0,0,0,0,1,1,0,0,1,0,0,0,1,0,0,0,0,0,0,1,0,1,0,0,0,0,0,0,0,0,0,0,0,0,1,1,0,0,1,0,0,0,1,0,0,0,0,1,1,0,0,0,0,0,0,,0101000020E61000007CA99CB5A5F755C0BDCA4AF55CD94440
317,activity area,,42.1333326053107,-87.899549404036,yes,"Dundee Rd, east of Milwaukee Ave","Wheeling, IL 60090",,159,Indian Boundary,,Dam No. 1 Woods-East,Dam #1,Dam Number 1,0,0,0,0,0,0,0,0,0,1,1,0,0,1,0,0,0,0,1,0,0,0,0,0,1,0,0,0,0,0,0,0,0,0,0,0,0,0,0,0,1,0,0,0,0,0,0,0,0,0,0,0,1,1,0,0,0,0,0,0,,0101000020E610000024DEA93792F955C064A6F50A11114540
319,nature center,yes,41.7089674264739,-87.8771527225817,yes,9800 Willow Springs Rd,"Willow Springs, IL 60480",,190,Palos,,Little Red Schoolhouse Nature Center,Palos,Longjohn Slough,0,0,0,1,0,0,0,0,0,0,0,0,0,0,0,0,0,1,0,0,0,0,0,0,1,0,0,0,0,1,0,1,0,1,1,0,0,0,0,0,0,0,0,0,0,0,0,1,0,1,1,1,0,0,0,0,0,0,0,0,,0101000020E610000079452C4523F855C03A51D371BFDA4440
320,activity area,,41.7035559728427,-87.8965693928194,yes,"Wolf Rd, south of 95th St","Cook County, IL 60480",,77,Palos,,Wolf Road Woods,Palos,,0,0,0,0,0,0,0,0,0,1,1,0,0,1,0,0,0,0,0,0,0,0,0,0,1,0,0,0,0,0,0,0,0,0,1,0,0,0,0,1,1,0,0,0,0,0,0,0,0,0,0,0,1,0,0,0,0,0,0,0,,0101000020E61000003B30976461F955C0E821431F0EDA4440
321,activity area,,41.7082132911898,-87.8992090679155,yes,"Wolf Rd, south of 95th St","Cook County, IL 60480",,73,Palos,Pulaski West,Pulaski Woods,Palos,,0,0,0,0,0,0,0,0,0,0,0,0,0,0,0,0,0,0,0,0,0,0,0,0,0,0,0,0,0,0,0,0,0,0,0,0,0,0,0,0,1,0,0,0,0,0,0,0,0,0,0,0,1,0,0,0,0,0,0,0,,0101000020E6100000AABD30A48CF955C05B20AEBBA6DA4440
322,activity area,,41.6959257681344,-87.8986982354032,yes,"107th St, west of S Willow Springs Rd/104th Ave","Cook County, IL 60480",,260,Palos,,Saganashkee Slough-Central,Palos,,0,0,0,0,0,0,0,0,0,0,0,0,0,0,0,0,0,0,0,0,1,1,0,0,0,0,0,0,0,0,0,0,0,0,0,0,0,0,0,0,0,0,0,0,0,0,0,0,0,0,0,0,0,0,0,0,0,0,0,0,,0101000020E6100000E8819A4584F955C0584A771814D94440
323,activity area,,41.6897510714639,-87.8763267927038,yes,"S Willow Springs Rd/104th Ave, north of Calumet Sag Rd/Rte 83","Cook County, IL 60480",,256,Palos,Sag Dam,Saganashkee Slough-East,Palos,,0,0,0,0,0,0,0,0,0,1,1,0,0,1,0,0,0,0,0,0,1,1,0,0,1,0,0,0,0,0,0,0,0,0,0,0,0,0,0,0,0,0,0,0,0,0,0,0,0,0,0,0,0,0,0,0,0,0,0,0,,0101000020E61000005CD1F8BC15F855C0C5285BC349D84440
324,activity area,,41.6965185903913,-87.9057957346235,yes,"107th St, west of S Willow Springs Rd/104th Ave","Cook County, IL 60480",,261,Palos,,Saganashkee Slough Boat Launch,Palos,,0,0,0,0,1,0,0,0,0,0,0,0,0,0,0,0,0,0,0,0,1,1,0,0,0,0,0,0,0,0,0,0,0,0,0,0,0,0,0,0,0,0,0,0,0,0,0,0,0,0,0,0,1,1,0,0,0,0,0,0,,0101000020E61000001D44AC8EF8F955C0A9646B8527D94440
325,activity area,,41.7108447407821,-87.8982229756888,yes,"Wolf Rd, south of 95th St","Cook County, IL 60480",,178,Palos,,Bullfrog Lake,,,0,0,0,0,0,0,0,0,0,1,1,0,0,1,0,0,0,0,0,0,1,1,0,0,1,0,0,0,0,0,0,0,0,0,0,0,0,0,0,0,0,0,0,0,0,0,0,0,0,0,0,0,1,1,0,0,0,0,0,0,,0101000020E61000005846387C7CF955C0AB18E1F5FCDA4440
326,activity area,,41.7092809279629,-87.9117194734348,yes,"S Archer Ave, northeast of 107th St","Cook County, IL 60480",,155,Palos,,Red Gate Woods,Palos,,0,0,0,0,0,0,0,0,0,1,1,0,0,1,0,0,0,1,0,0,0,0,0,0,1,0,0,0,0,0,0,0,0,0,0,0,0,0,0,1,0,0,0,0,0,0,0,0,0,0,0,0,1,0,0,0,0,0,0,0,,0101000020E6100000D861A29C59FA55C07AA3AAB7C9DA4440
327,activity area,,41.7133199401121,-87.9116200872062,yes,"S Archer Ave, northeast of 107th St","Cook County, IL 60480",,259,Palos,,Henry De Tonty Woods,Palos,,0,0,0,0,0,0,0,0,0,1,1,0,0,1,0,0,0,0,0,0,0,0,0,0,1,0,0,0,0,0,0,0,0,0,0,0,0,0,0,0,0,0,1,0,0,0,0,0,0,0,0,0,0,0,0,0,0,0,0,0,,0101000020E6100000593BC7FB57FA55C0D92E5B114EDB4440
328,activity area,,41.7084014700751,-87.8943652309316,yes,"Wolf Rd, south of 95th St","Cook County, IL 60480",,176,Palos,,Pulaski Woods-South,Palos,,0,0,0,0,0,0,0,0,0,1,1,0,0,1,0,0,0,0,0,0,0,0,0,0,1,0,0,0,0,0,0,0,0,0,0,0,0,0,0,0,0,0,0,0,0,0,0,0,0,0,0,0,1,0,0,0,0,0,0,0,,0101000020E6100000F561AA473DF955C099343DE6ACDA4440
329,activity area,,41.709947873965,-87.8945197461508,yes,"Wolf Rd, south of 95th St","Cook County, IL 60480",,179,Palos,,Pulaski Woods-East,Palos,,0,0,0,0,0,0,0,0,0,0,0,0,0,0,0,0,0,0,0,0,0,0,0,0,0,0,0,0,0,0,0,0,0,0,0,0,0,0,0,0,0,0,0,0,0,0,0,0,0,0,0,0,0,0,0,0,0,0,0,0,,0101000020E610000002D6BFCF3FF955C0B0456A92DFDA4440
330,activity area,,41.715946682716,-87.8922922339976,yes,"95th St, southeast of S Archer Ave","Cook County, IL 60480",,258,Palos,,Maple Lake Overlook,Palos,,0,0,0,0,0,0,0,0,0,0,0,0,0,0,0,0,0,1,0,0,1,1,0,0,0,0,0,0,0,0,0,0,0,0,0,0,1,0,0,0,0,0,0,0,0,0,0,0,0,0,0,0,0,0,0,0,0,0,0,0,,0101000020E6100000A6DFE2501BF955C0ECF81124A4DB4440
331,activity area,yes,41.7155325651302,-87.8842461677674,yes,"95th St, west of Willow Springs Rd/Flavin Rd","Cook County, IL 60480",,71,Palos,,Maple Lake-East - Mountain Bike Staging Area,Palos,Mountain Bike Staging Area,0,1,0,0,0,0,0,0,0,1,1,0,0,1,0,0,0,0,0,0,1,1,0,0,1,0,0,0,0,0,0,0,0,0,0,0,0,0,0,1,0,0,0,0,0,0,0,0,0,0,0,0,1,1,1,0,0,0,0,0,,0101000020E6100000270B3D7D97F855C07E3A339296DB4440
332,activity area,,41.6810084712761,-88.0281641389724,yes,"Bluff Rd, east of I-355","Cook County, IL 60439",,154,Palos,,Black Partridge Woods,Goose Lake,Black Partridge Woods Nature Preserve,0,0,0,0,0,0,0,0,0,0,0,0,0,0,0,0,0,1,0,0,0,0,0,0,0,0,0,0,0,0,0,0,1,1,1,0,0,0,0,0,0,0,0,0,0,0,0,1,0,0,0,0,1,0,0,0,0,0,0,0,,0101000020E61000009BF3F570CD0156C009371C492BD74440
333,activity area,,41.6911388811017,-87.9324710049621,yes,Archer Ave &amp; Old Archer Ave,"Cook County, IL 60439",,262,Palos,,Sag Quarries,Palos,,0,0,0,0,0,0,0,0,0,1,1,0,0,1,0,0,0,0,0,0,1,1,0,0,1,0,0,0,0,0,0,0,0,0,0,0,0,0,0,0,0,0,0,0,0,0,0,0,0,0,0,0,1,1,0,0,0,0,0,0,,0101000020E6100000EEB1DD9AADFB55C0B9A9253D77D84440
334,nature center,yes,41.6892667702031,-87.9257142696801,yes,12545 West 111th St,"Lemont, IL 60439",,267,Palos,Camp Sagawau,Sagawau Environmental Learning Center,Palos,Sagawau Canyon Nature Preserve,0,0,0,1,0,0,0,0,0,1,0,0,0,0,0,0,0,1,0,0,0,0,0,0,1,0,0,0,0,1,0,1,0,1,0,0,0,0,0,0,0,0,0,0,0,0,0,1,0,1,1,1,0,0,0,0,0,0,0,0,,0101000020E6100000D76D10E73EFB55C0F41EBEE439D84440
335,activity area,,42.124673338001,-87.8964555068817,yes,E Hintz Rd &amp; Milwaukee Ave,"Wheeling, IL 60090",,325,Indian Boundary,,Dam No. 1 Woods-West,Dam #1,Dam Number 2,0,0,0,0,0,0,0,0,0,0,0,0,0,0,0,0,0,0,0,0,0,0,0,0,0,0,0,0,0,0,0,0,0,0,0,0,0,0,0,0,0,0,0,0,0,0,0,0,0,0,0,0,0,0,0,0,0,0,0,0,,0101000020E61000001118EB865FF955C0E2B2C24BF50F4540
336,activity area,,42.1180183922337,-87.8941782218279,yes,"Milwaukee Ave, south of E Hintz Rd","Cook County, IL 60090",,217,Indian Boundary,,Massasauga Family Picnic Area,,,0,0,0,0,0,0,0,0,0,0,0,0,0,0,0,0,0,0,0,0,0,0,0,0,0,0,0,0,0,0,0,0,0,0,0,0,0,0,0,0,0,0,0,0,0,0,0,0,0,0,0,0,0,0,0,0,0,0,0,0,,0101000020E6100000F7E24A373AF955C02C7C073A1B0F4540
337,activity area,,42.1004159121073,-87.8848414425994,yes,Milwaukee Ave &amp; Winkleman Rd,"Cook County, IL 60062",,161,Indian Boundary,,Allison Woods,,,0,0,0,0,0,0,0,1,0,1,1,0,0,1,0,0,0,0,0,0,0,0,0,0,1,0,0,0,0,0,0,0,0,0,0,0,0,0,0,0,1,0,0,0,0,0,0,0,0,0,0,0,1,0,1,0,0,0,0,1,,0101000020E61000000887003EA1F855C0DA3FB96DDA0C4540
338,nature center,yes,42.0950110492162,-87.8848452803943,yes,3120 Milwaukee Ave,"Northbrook, IL 60062",,195,Indian Boundary,,River Trail Nature Center,,,0,0,0,1,0,0,0,0,0,0,0,0,0,0,0,0,0,1,0,0,0,0,0,0,1,0,0,0,0,1,0,1,0,1,0,0,0,0,0,0,0,0,0,0,0,0,0,1,0,1,1,1,0,0,0,0,0,0,0,0,,0101000020E61000001154194EA1F855C035927252290C4540
339,activity area,,42.0893008779797,-87.8840091744789,yes,"W Lake Ave/E Eucilid Ave, east of N Des Plaines River Rd","Cook County, IL 60062",,162,Indian Boundary,,Lake Avenue Woods-East,,,0,0,0,1,0,0,0,0,0,1,1,0,0,1,0,0,0,0,0,0,0,0,0,0,1,0,0,0,0,0,0,0,0,0,0,0,0,0,0,0,1,0,0,0,0,0,0,0,0,0,0,0,1,0,0,0,0,0,0,0,,0101000020E61000000C70379B93F855C0A4360F366E0B4540
340,activity area,,42.0886793575426,-87.8908761566271,yes,"N Des Plaines River Rd, north of W Lake Ave/E Euclid Ave","Cook County, IL 60056",,13,Indian Boundary,,Lake Avenue Woods-West,,,0,0,0,0,0,0,0,0,0,0,0,0,0,0,0,0,0,0,0,0,0,0,0,0,0,0,0,0,0,0,0,0,0,0,0,0,0,0,0,0,1,0,0,0,0,0,0,0,0,0,0,0,1,1,1,0,0,0,0,0,,0101000020E6100000FA5F6D1D04F955C0E83C5ED8590B4540
341,activity area,,42.0835203753743,-87.8918400816184,yes,"E Des Plaines River Rd, south of E Euclid Ave/W Lake Ave","Cook County, IL 60056",,12,Indian Boundary,,Dam No. 2 Woods,Dam #2,Dam Number 2,0,0,0,0,0,0,0,1,0,0,0,0,0,0,0,0,0,0,0,0,0,0,0,0,0,0,0,0,0,0,0,0,0,0,0,0,0,0,0,0,1,0,0,0,0,0,0,0,0,0,0,0,1,0,0,0,0,0,0,0,,0101000020E610000003F46BE813F955C01A64B0CBB00A4540
342,activity area,,42.0846061245928,-87.8882174285681,yes,"W Lake Ave/E Eucilid Ave, east of N Des Plaines River Rd","Cook County, IL 60056",,15,Indian Boundary,,Camp Pine Woods,,,0,0,0,0,0,0,0,0,0,1,1,0,0,1,0,0,0,0,0,0,0,0,0,0,1,0,0,0,0,0,0,0,0,0,0,0,0,0,0,1,0,0,0,0,0,0,0,1,0,0,0,0,1,0,0,0,0,0,0,0,,0101000020E6100000F7DBE98DD8F855C06A159D5FD40A4540
343,activity area,yes,42.0724184979931,-87.8757112419312,yes,East River Rd &amp; Central Road,"Cook County, IL 60016",,219,Indian Boundary,,Beck Lake,,,0,0,0,0,1,0,0,0,0,1,1,0,1,1,0,0,0,0,0,0,1,1,0,0,1,0,0,0,0,0,0,0,0,0,0,0,0,0,0,0,0,0,0,0,0,0,0,0,0,0,0,0,1,1,1,0,0,0,0,0,,0101000020E610000062352AA70BF855C0C440640245094540
344,golf driving range,,42.0554751065745,-87.8967359616538,yes,1150 E Golf Rd,"Des Plaines, IL 60016",,194,Indian Boundary,,Harry H. Semrow Driving Range,,,0,0,0,0,0,0,0,0,0,0,0,0,0,0,0,1,0,0,0,0,0,0,0,0,0,0,0,0,0,0,0,0,0,0,0,0,0,0,0,0,0,0,0,0,0,0,0,0,0,0,0,0,0,0,0,0,0,0,0,0,,0101000020E6100000CB1C3B1F64F955C05C3DECCE19074540
346,activity area,,42.0320951827991,-87.8676954904954,yes,"Busse Hwy, northwest of Oakton St","Park Ridge, IL 60068",,220,Indian Boundary,,Belleau Lake,,,0,0,0,0,0,0,0,0,0,0,0,0,0,0,0,0,0,0,0,0,1,1,0,0,0,0,0,0,0,0,0,0,0,0,0,0,0,0,0,0,0,0,0,0,0,0,0,0,0,0,0,0,1,1,0,0,0,0,0,0,,0101000020E61000001BA4AA5288F755C09C3DE8B11B044540
347,activity area,yes,42.1370094555283,-88.2203580523533,yes,"Bateman Rd, north of Algonquin Rd","Barrington Hills, IL 60010",,197,Northwest,,Spring Lake Equestrian Parking,,,0,0,0,0,0,0,0,0,0,1,1,0,0,1,0,0,0,1,1,0,0,0,0,0,1,0,0,0,0,0,0,0,0,0,0,0,0,0,0,0,0,0,0,0,0,0,0,1,0,0,0,0,0,0,0,0,0,0,0,0,,0101000020E61000002411A9581A0E56C04C5E9D8689114540
348,nature center,yes,42.1156336936851,-88.1635751102888,yes,3 Stover Rd,"Barrington Hills, IL 60010",,199,Northwest,,Crabtree Nature Center,Crabtree Preserve,,0,0,0,1,0,0,0,0,0,0,0,0,0,0,1,0,0,1,0,0,0,0,0,0,1,0,0,0,0,1,0,1,0,1,1,0,0,0,0,0,0,0,0,0,0,0,0,0,0,1,1,1,0,0,0,0,0,0,0,0,,0101000020E61000005348BD03780A56C0C158BA15CD0E4540
349,activity area,,42.1469511550157,-88.1213830055851,yes,E Hillside Ave &amp; S Eastern Ave,"Barrington, IL 60010",,201,Northwest,,Baker's Lake Overlook,Baker's Lake Nature Preserve,,0,0,0,1,0,0,0,0,0,0,0,0,0,0,0,0,0,1,0,0,0,0,0,0,1,0,0,0,0,0,0,0,0,0,1,0,1,0,0,0,0,0,0,0,0,0,0,1,0,0,0,0,0,0,0,0,0,0,0,0,,0101000020E6100000CCD139BDC40756C07573A24BCF124540
350,activity area,,42.1359810038832,-88.1185190133831,yes,"E Dundee Rd, west of Glencrest Dr","Cook County, IL 60010",,202,Northwest,Bakers Lake,Baker's Lake Younghusband Prairie,,,0,0,0,1,0,0,0,0,0,0,0,0,0,0,0,0,0,0,0,0,0,0,0,0,1,0,0,0,0,0,0,0,0,0,1,0,0,0,0,0,0,0,0,0,0,0,0,1,0,0,0,0,0,0,0,0,0,0,0,0,,0101000020E6100000CB9BC5D0950756C0194756D367114540
351,activity area,,42.1353119335369,-88.0901406479088,yes,"W Dundee Rd, east of Northwest Hwy","Cook County, IL 60010",,203,Northwest,,Deer Grove-West,Jens Jensen Grasslands & Woods Land & Water Reserve,,0,0,0,0,0,0,0,0,0,1,1,0,0,1,0,0,0,1,0,0,0,0,0,0,1,0,0,0,0,0,0,0,0,0,0,0,0,0,0,0,0,0,0,0,0,0,0,1,0,0,0,0,1,1,0,0,0,0,0,0,,0101000020E6100000C0B347DDC40556C055A6C4E651114540
352,activity area,,41.9625497285638,-87.8604100972815,yes,"Des Plaines River Rd, south of Lawrence Ave","Schiller Park, IL 60176",,24,Indian Boundary,,Robinson Homestead Family Picnic Area,,,0,0,0,0,0,0,0,0,0,0,0,0,0,0,0,0,0,1,0,0,0,0,0,0,0,0,0,0,0,0,0,0,0,0,0,0,0,0,0,0,0,0,0,0,0,0,0,0,0,0,0,0,0,0,0,0,0,0,0,0,,0101000020E6100000383E83F510F755C0437A5AD434FB4440
353,activity area,,41.8407613196239,-87.8295872578066,yes,"W 26th St, east of 1st Ave","North Riverside, IL 60546",,43,Salt Creek,National 3,National Grove-North,,,0,0,0,0,0,0,0,0,0,0,0,0,0,0,0,0,0,0,0,0,0,0,0,0,0,0,0,0,0,0,0,0,0,0,0,0,0,0,0,0,1,0,0,0,0,0,0,0,0,0,0,0,1,0,1,0,0,0,0,1,,0101000020E6100000495D27F517F555C05FC321119EEB4440
364,activity area,,42.0519230686842,-87.8718923683243,yes,"Bender Rd, south of Golf Rd","Des Plaines, IL 60016",,147,Indian Boundary,,Big Bend Lake,,,0,0,0,0,1,0,0,0,0,1,1,0,0,1,0,0,0,0,1,0,1,1,0,0,1,0,0,0,0,0,0,0,0,0,0,0,0,0,0,0,1,0,0,0,0,0,0,0,0,0,0,0,1,1,0,0,0,0,0,0,,0101000020E610000069E5A515CDF755C007F4446AA5064540
365,activity area,,41.5996815252359,-87.7202872455026,yes,"Fieldcrest Dr, southwest of Crawford Ave","Oak Forest, IL 60452",,283,Tinley Creek,,Oak Forest Heritage Preserve-East,,,0,0,0,1,0,0,0,0,0,1,1,0,0,1,0,0,0,0,0,0,0,0,0,0,1,0,0,0,0,0,0,0,0,0,1,0,0,0,0,0,0,0,0,0,0,0,0,0,0,0,0,0,0,0,0,0,0,0,0,0,,0101000020E610000032CAAC2F19EE55C0A8733D5DC2CC4440
366,activity area,,41.6434592557743,-87.8914425372713,yes,"135th St, east of S Wolf Rd","Cook County, IL 60467",,152,Palos,,Tampier Greenway Family Picnic Area,,,0,0,0,0,0,0,0,0,0,0,0,0,0,0,0,0,1,0,0,0,0,0,0,0,0,0,0,0,0,0,0,0,0,0,0,0,0,0,0,0,1,0,0,0,0,0,0,0,0,0,0,0,1,0,0,0,0,0,0,0,,0101000020E6100000F9F5FF640DF955C0F6ED75DF5CD24440
