"poi_info_id","point_type","public_access","latitude","longitude","web_poi","web_street_addr","web_muni_addr","parking_connection_id","parking_info_id","maintenance_div","maintenance_div_nickname","name","alt_name","alt2_name","accessible","bike_parking","bike_rental","birding","boat_ramp","boat_rental","camping","canoe","comfortstation","cross_country","cycling","disc_golf","dog_friendly","dog_leash","drinkingwater","driving_range","drone","ecological","equestrian","fitness_stairs","fishing","ice_fishing","gas_powered","golf","hiking","indoor_rental","large_capacity","m_airplane","m_boat","nature_center","nature_preserve","natureplay","no_alcohol","no_dogs","no_fishing","no_parking","overlook","pavilion","public_building","picnic_grove","shelter","skating_ice","skating_inline","sledding","snowmobile","swimming","toboggan","volunteer","zip_line","bathroom_building_winter","bathroom_building_summer","bathroom_building_ada","bathroom_portable_summer","bathroom_portable_winter","bathroom_portable_ada","shower","dining_hall","sanitation_station","camp_store","accessible_shelter","accessible_canoe","accessible_boat","accessible_fishing","accessible_campsite","fall_color","web_map_geom","geom"
2,nature preserve,,41.6784402784059,-87.8936629947387,yes,,"Cook County, IL 60464",61,0,Palos,,Cap Sauers Holding Nature Preserve,Palos,,0,0,0,0,0,0,0,0,0,1,1,0,0,0,0,0,0,1,0,0,0,0,0,0,1,0,0,0,0,0,1,0,0,0,0,1,0,0,0,0,0,0,0,0,0,0,0,1,0,0,0,0,0,0,0,0,0,0,0,0,0,0,0,0,0,,POINT (-87.89366299473869 41.67844027840586)
3,nature preserve,,41.7093005567515,-87.8628168865171,yes,,"Cook County, IL 60480",67,0,Palos,,Cranberry Slough Nature Preserve,Palos,,0,0,0,0,0,0,0,0,0,1,1,0,0,0,0,0,0,1,0,0,0,0,0,0,1,0,0,0,0,0,1,0,0,0,1,1,0,0,0,0,0,0,0,0,0,0,0,1,0,0,0,0,0,0,0,0,0,0,0,0,0,0,0,0,0,,POINT (-87.86281688651705 41.70930055675152)
12,golf course,,41.6001490639545,-87.7638582069222,yes,"16310 S Central Ave","Oak Forest, IL 60452",,280,Tinley Creek,,George W. Dunne National Golf Course,,,0,0,0,0,0,0,0,0,0,0,0,0,0,0,0,1,0,0,0,0,0,0,0,1,0,0,0,0,0,0,0,0,0,0,0,0,0,0,0,0,0,0,0,0,0,0,0,0,0,0,0,0,0,0,0,0,0,0,0,0,0,0,0,0,0,,POINT (-87.76385820692215 41.60014906395447)
13,activity area,,41.7324336383075,-87.6807221456909,yes,"S Western Ave, south of W 87th St","Chicago, IL 60620",,135,Calumet,,Dan Ryan Woods-South,,,0,0,0,0,0,0,0,0,0,0,0,0,0,0,0,0,0,1,0,0,0,0,0,0,0,0,0,0,0,0,0,0,1,0,0,0,0,0,0,1,1,0,0,0,0,0,0,1,0,0,0,0,1,0,0,0,0,0,0,0,0,0,0,0,0,,POINT (-87.6807221456909 41.73243363830754)
15,aquatic center,yes,41.6026404371266,-87.5534210747999,yes,"1100 River Oaks Drive","Calumet City, IL 60409",,90,Thorn Creek ,,Green Lake Family Aquatic Center,Green Lake Pool,,0,0,0,0,0,0,0,0,0,0,0,0,0,0,0,0,0,0,0,0,0,0,0,0,0,0,0,0,0,0,0,0,0,1,0,0,0,0,0,0,0,0,0,0,0,1,0,0,0,1,1,1,0,0,0,0,0,0,0,0,0,0,0,0,0,,POINT (-87.55342107479994 41.60264043712662)
16,nature preserve,,41.6280980643771,-87.5462221613679,yes,"","Calumet City, IL 60409",,0,Thorn Creek ,,Calumet City Prairie & Marsh Nature Preserve,,,0,0,0,0,0,0,0,0,0,0,0,0,0,0,0,0,0,1,0,0,0,0,0,0,0,0,0,0,0,0,1,0,0,1,0,1,0,0,0,0,0,0,0,0,0,0,0,0,0,0,0,0,0,0,0,0,0,0,0,0,0,0,0,0,0,,POINT (-87.54622216136791 41.6280980643771)
19,activity area,,41.6180913233733,-87.5458031363016,yes,,"Calumet City, IL 60409",,0,Thorn Creek ,,Wentworth Prairie,,,0,0,0,0,0,0,0,0,0,0,0,0,0,0,0,0,0,1,0,0,0,0,0,0,0,0,0,0,0,0,0,0,0,0,0,1,0,0,0,0,0,0,0,0,0,0,0,0,0,0,0,0,0,0,0,0,0,0,0,0,0,0,0,0,0,,POINT (-87.54580313630163 41.61809132337329)
20,activity area,,41.6347368016934,-87.6592241700085,yes,"Wood St, south of Thornton Rd","Dixmoor, IL 60426",,323,Calumet,,Dixmoor Playfield,,,0,0,0,0,0,0,0,0,0,0,0,0,0,0,0,0,0,0,0,0,0,0,0,0,0,0,0,0,0,0,0,0,0,0,0,0,0,0,0,0,1,0,0,0,0,0,0,0,0,0,0,0,1,1,0,0,0,0,0,0,0,0,0,0,0,,POINT (-87.65922417000846 41.634736801693435)
21,activity area,,41.5003807087473,-87.6494012999376,yes,,"Chicago Heights, IL 60411",,0,Thorn Creek ,,Indian Hill Woods,,,0,0,0,0,0,0,0,0,0,0,0,0,0,0,0,0,0,1,0,0,0,0,0,0,0,0,0,0,0,0,0,0,0,0,0,1,0,0,0,0,0,0,0,0,0,0,0,0,0,0,0,0,0,0,0,0,0,0,0,0,0,0,0,0,0,,POINT (-87.64940129993755 41.50038070874734)
22,activity area,,41.571577200689,-87.5919974703953,yes,"Thornton-Lansing Rd, west of IL-394","Cook County, IL 60476",,113,Thorn Creek ,Wampum,Wampum Lake,,,1,0,0,0,0,0,0,0,0,0,0,0,0,0,0,0,0,0,0,0,1,1,0,0,0,0,0,0,0,0,0,0,0,0,0,0,0,0,0,1,1,0,0,0,0,0,0,1,0,0,0,0,1,1,1,0,0,0,0,1,0,0,0,0,0,,POINT (-87.59199747039531 41.571577200688964)
23,activity area,,42.0599441421836,-87.7123799219771,yes,Ewing Ave &amp; Grant St,"Evanston, IL 60201",,0,North Branch,,Perkins Woods,,,0,0,0,1,0,0,0,0,0,0,0,0,0,0,0,0,0,1,0,0,0,0,0,0,0,0,0,0,0,0,0,0,0,0,0,1,0,0,0,0,0,0,0,0,0,0,0,1,0,0,0,0,0,0,0,0,0,0,0,0,0,0,0,0,0,,POINT (-87.71237992197707 42.05994414218359)
27,activity area,,41.4947054229039,-87.5428955969306,yes,"Burnham Ave, south of E Sauk Trail","Cook County, IL 60411",,330,Thorn Creek ,,Michael J. O'Malley Preserve,O'Malley Ponds,,0,0,0,0,0,0,0,0,0,0,0,0,0,0,0,0,0,0,0,0,1,0,0,0,0,0,0,0,0,0,0,0,0,0,0,1,0,0,0,0,0,0,0,0,0,0,0,0,0,0,0,0,0,0,0,0,0,0,0,0,0,0,0,0,0,,POINT (-87.54289559693058 41.49470542290388)
28,activity area,,41.4846308474113,-87.5337460697741,yes,"Burnham Ave, north of 223rd St","Cook County, IL 60411",,103,Thorn Creek ,Plum Creek,Plum Creek Meadow,,,1,0,0,0,0,0,0,0,0,1,1,0,0,1,0,0,1,1,0,0,0,0,0,0,1,0,1,0,0,0,0,0,0,0,0,0,0,0,0,0,1,0,0,0,0,0,0,0,0,0,1,1,0,1,0,0,0,0,0,1,0,0,0,0,0,,POINT (-87.53374606977408 41.48463084741129)
29,activity area,,42.0477924214533,-88.0226419129759,yes,"Golf Rd, east of I-290/Hwy 53","Cook County, IL 60007",,143,Northwest,,Ned Brown Meadow,Busse Woods,,0,0,0,0,0,0,0,0,0,1,1,0,0,1,0,0,1,0,0,0,0,0,0,0,1,0,0,1,0,0,0,0,0,0,1,0,0,0,0,0,1,0,1,0,1,0,0,1,0,1,1,0,1,0,0,0,0,0,0,0,0,0,0,0,0,,POINT (-88.02264191297586 42.04779242145334)
30,nature preserve,,42.045144277236,-88.0049375571207,yes,,"Cook County, IL 60007",316,0,Northwest,,Busse Forest Nature Preserve,Busse Woods,Ned Brown,0,0,0,1,0,0,0,0,0,0,0,0,0,0,0,0,0,0,0,0,0,0,0,0,0,0,0,0,0,0,1,0,1,1,1,1,0,0,0,0,0,0,0,0,0,0,0,1,0,0,0,0,0,0,0,0,0,0,0,0,0,0,0,0,0,,POINT (-88.00493755712068 42.04514427723596)
31,activity area,,42.0248840654328,-87.9928974822813,yes,"E Higgins Rd/Rte 72, west of N Arlington Heights Rd","Cook County, IL 60007",,312,Northwest,,Busse Forest-South,Busse Woods,Ned Brown,1,0,0,0,0,0,0,0,0,1,1,0,0,1,0,0,0,1,0,0,1,1,0,0,1,0,1,0,0,0,0,0,0,0,0,0,0,0,0,1,1,0,1,0,0,0,0,1,0,0,1,1,1,0,0,0,0,0,0,1,0,0,0,0,0,,POINT (-87.99289748228125 42.02488406543277)
34,activity area,,42.0093927955333,-87.8573902373623,yes,"E Touhy Ave, east of Talcott Rd","Park Ridge, IL 60068",,21,Indian Boundary,,John E. Traeger Family Picnic Area,,,0,0,0,0,0,0,0,0,0,0,0,0,0,0,0,0,0,0,0,0,0,0,0,0,0,0,0,0,0,0,0,0,0,0,0,0,0,0,0,0,0,0,0,0,0,0,0,0,0,0,0,0,0,0,0,0,0,0,0,0,0,0,0,0,0,,POINT (-87.85739023736232 42.00939279553327)
35,activity area,,42.0398829309931,-88.1507147384845,yes,"E Bode Rd, west of S Barrington Rd","Hoffman Estates, IL 60107",,333,Northwest,,Bode East,Arthur L. Janura Preserve,,0,0,0,0,0,0,0,0,0,1,1,0,0,1,0,0,0,0,0,0,0,0,0,0,1,0,0,0,0,0,0,0,0,0,0,0,0,0,0,0,0,0,1,0,0,0,0,0,0,0,0,0,1,0,0,0,0,0,0,0,0,0,0,0,0,,POINT (-88.15071473848447 42.039882930993095)
39,activity area,,41.88344891269,-87.8276994451371,yes,,"River Forest, IL 60305",,0,Indian Boundary,,G.A.R. Woods,Grand Army of the Republic Woods,,0,0,0,0,0,0,0,0,0,0,0,0,0,0,0,0,0,1,0,0,0,0,0,0,0,0,0,0,0,0,0,0,0,0,0,1,0,0,0,0,0,0,0,0,0,0,0,0,0,0,0,0,0,0,0,0,0,0,0,0,0,0,0,0,0,,POINT (-87.82769944513711 41.88344891268996)
40,activity area,,41.8805970783348,-87.8266900165326,yes,,"River Forest, IL 60305",,0,Indian Boundary,,Thomas Jefferson Woods,,,0,0,0,0,0,0,0,0,0,0,0,0,0,0,0,0,0,1,0,0,0,0,0,0,0,0,0,0,0,0,0,0,0,0,0,1,0,0,0,0,0,0,0,0,0,0,0,0,0,0,0,0,0,0,0,0,0,0,0,0,0,0,0,0,0,,POINT (-87.82669001653261 41.88059707833482)
41,special activity,,41.8328520584043,-87.8359964800037,yes,"3300 Golf Rd","Brookfield, IL 60513",,337,Salt Creek,,Brookfield Zoo Chicago,,,0,0,0,1,0,0,0,0,0,0,0,0,0,0,0,0,0,0,0,0,0,0,0,0,1,0,0,0,0,0,0,0,0,0,1,0,0,0,0,0,0,0,0,0,0,0,0,0,0,1,1,1,0,0,0,0,0,0,0,0,0,0,0,0,0,,POINT (-87.83599648000367 41.83285205840433)
42,activity area,,41.8474524561768,-87.8690492912181,yes,"W Cermak Rd, east of S Manheim Rd/S La Grange Rd","Cook County, IL 60526",,11,Salt Creek,Westchester,Westchester Woods,,,0,0,0,0,0,0,0,0,0,0,0,0,0,0,0,0,0,0,0,0,0,0,0,0,0,0,0,0,0,0,0,0,0,0,0,0,0,0,0,1,0,0,0,1,0,0,0,0,0,0,0,0,0,1,0,0,0,0,0,0,0,0,0,0,0,,POINT (-87.86904929121813 41.847452456176754)
43,nature preserve,,41.8385172657026,-87.9046266903584,yes,"31st St, west of Wolf Rd","Cook County, IL 60154",,251,Salt Creek,,Wolf Road Prairie Nature Preserve,,,0,0,0,1,0,0,0,0,0,0,0,0,0,0,0,0,0,1,0,0,0,0,0,0,1,0,0,0,0,0,1,0,0,1,0,0,0,0,0,0,0,0,0,0,0,0,0,1,0,0,0,0,0,0,0,0,0,0,0,0,0,0,0,0,0,,POINT (-87.90462669035836 41.83851726570257)
44,aquatic center,yes,41.8189766941128,-87.8117771381532,yes,"7600 W Ogden Ave","Lyons, IL 60534",,336,Salt Creek,The Pool,Cermak Family Aquatic Center,Cermak Pool,,0,0,0,0,0,0,0,0,0,0,0,0,0,0,0,0,0,0,0,0,0,0,0,0,0,0,0,0,0,0,0,0,0,1,0,0,0,0,0,0,0,0,0,0,0,1,0,0,0,1,1,1,0,0,0,0,0,0,0,0,0,0,0,0,0,POINT (-87.81460917711742 41.820201359608305),POINT (-87.8117771381532 41.81897669411284)
46,activity area,,42.1335743692257,-87.8051695640778,yes,,"Northbrook, IL 60062",,0,North Branch,,Chipilly Woods,,,0,0,0,0,0,0,0,0,0,0,0,0,0,0,0,0,0,0,0,0,0,0,0,0,0,0,0,0,0,0,0,0,0,0,0,1,0,0,0,0,0,0,0,0,0,0,0,0,0,0,0,0,0,0,0,0,0,0,0,0,0,0,0,0,0,,POINT (-87.80516956407777 42.13357436922568)
47,activity area,,42.1423442131077,-87.8299956210892,yes,,"Cook County, IL 60062",163,0,North Branch,,Somme Prairie Grove Nature Preserve,Somme Woods,,0,0,0,0,0,0,0,0,0,0,0,0,0,0,0,0,0,1,0,0,0,0,0,0,0,0,0,0,0,0,1,0,0,0,0,1,0,0,0,0,0,0,0,0,0,0,0,1,0,0,0,0,0,0,0,0,0,0,0,0,0,0,0,0,0,,POINT (-87.82999562108918 42.142344213107684)
49,activity area,,42.150478421554,-87.7786838758565,yes,,"Glencoe, IL 60022",,0,North Branch,,Mary Mix McDonald Woods,William N. Erickson Preserves,Skokie Lagoons,0,0,0,0,0,0,0,0,0,0,0,0,0,0,0,0,0,1,0,0,0,0,0,0,0,0,0,0,0,0,0,0,0,0,0,1,0,0,0,0,0,0,0,0,0,0,0,0,0,0,0,0,0,0,0,0,0,0,0,0,0,0,0,0,0,,POINT (-87.77868387585652 42.15047842155402)
50,activity area,,42.0923959946188,-87.7731923577861,yes,,"Cook County, IL 60093",,0,North Branch,,Watersmeet Woods,,,0,0,0,0,0,0,0,0,0,0,0,0,0,0,0,0,0,1,0,0,0,0,0,0,0,0,0,0,0,0,0,0,0,0,0,1,0,0,0,0,0,0,0,0,0,0,0,1,0,0,0,0,0,0,0,0,0,0,0,0,0,0,0,0,0,,POINT (-87.7731923577861 42.092395994618755)
51,golf course,,41.9929601588227,-87.7705130130415,yes,"6100 N Central Ave","Chicago, IL 60646",,242,North Branch,,Edgebrook Golf Course,,,0,0,0,0,0,0,0,0,0,0,0,0,0,0,0,0,0,0,0,0,0,0,0,1,0,0,0,0,0,0,0,0,0,0,0,0,0,0,0,0,0,0,0,0,0,0,0,0,0,0,0,0,0,0,0,0,0,0,0,0,0,0,0,0,0,POINT (-87.76618796358548 41.99046836077948),POINT (-87.77051301304148 41.99296015882269)
52,activity area,,41.9890384355589,-87.7642791595144,yes,"N Central Ave, north of N Elston Ave","Chicago, IL 60646",,121,North Branch,,"Thaddeus S. ""Ted"" Lechowicz Woods",Indian Road Woods,,0,0,0,0,0,0,0,0,0,1,1,0,0,1,0,0,0,1,0,0,0,0,0,0,1,0,0,0,0,0,0,0,0,0,0,0,0,0,0,0,1,0,0,1,0,0,0,1,0,0,0,0,1,1,0,0,0,0,0,0,0,0,0,0,0,,POINT (-87.7642791595144 41.9890384355589)
55,activity area,,41.721006729517,-87.8485448767528,yes,"S Kean Ave, north of W 95th St","Cook County, IL 60480",,320,Palos,,Hidden Pond Woods-East,Palos,,0,0,0,0,0,0,0,0,0,1,1,0,0,1,0,0,0,1,1,0,0,0,0,0,1,0,0,0,0,0,0,0,0,0,1,0,0,0,0,1,0,1,0,0,0,0,0,1,0,0,0,0,1,1,0,0,0,0,0,0,0,0,0,0,0,,POINT (-87.84854487675275 41.72100672951703)
56,activity area,,41.9766177219072,-87.7450924247839,yes,"N Cicero Ave, north of W Foster Ave","Chicago, IL 60630",,124,North Branch,,LaBagh Woods,Sauganash Prairie,,1,0,0,1,0,0,0,0,0,1,1,0,0,1,0,0,0,1,0,0,0,0,0,0,1,0,0,0,0,0,0,0,1,0,0,0,0,0,0,0,1,0,0,0,0,0,0,1,0,0,1,1,1,1,1,0,0,0,0,1,0,0,0,0,0,,POINT (-87.74509242478392 41.97661772190718)
58,activity area,yes,41.7094065907751,-87.8729945846751,yes,"Willow Springs Rd, south of 95th St","Cook County, IL 60480",,192,Palos,,Camp Kiwanis Equestrian Staging Area,Palos,,0,0,0,0,0,0,0,0,0,1,1,0,0,1,0,0,0,0,1,0,0,0,0,0,1,0,0,0,0,0,0,0,0,0,0,0,0,0,0,0,0,0,0,0,0,0,0,0,0,0,0,0,1,0,0,0,0,0,0,0,0,0,0,0,0,,POINT (-87.87299458467513 41.709406590775096)
60,activity area,,41.7023968536775,-87.8773735176754,yes,"S Willow Springs Rd/Flavin Rd, north of 107th St","Cook County, IL 60480",,311,Palos,,Joe's Pond,,,0,0,0,0,0,0,0,0,0,0,0,0,0,0,0,0,0,0,0,0,1,0,0,0,0,0,0,0,0,0,0,0,0,0,0,0,0,0,0,0,0,0,0,0,0,0,0,0,0,0,0,0,0,0,0,0,0,0,0,0,0,0,0,0,0,,POINT (-87.87737351767538 41.70239685367755)
61,activity area,,41.7043176456404,-87.8734602656413,yes,"S Willow Springs Rd/Flavin Rd, north of 107th St","Cook County, IL 60480",,419,Palos,,Tuma Lake,,,0,0,0,0,0,0,0,0,0,0,0,0,0,0,0,0,0,0,0,0,1,0,0,0,0,0,0,0,0,0,0,0,0,0,0,0,0,0,0,0,0,0,0,0,0,0,0,0,0,0,0,0,0,0,0,0,0,0,0,0,0,0,0,0,0,,POINT (-87.87346026564128 41.704317645640366)
64,activity area,,42.0560644867682,-87.8774661310639,yes,,"Cook County, IL 60016",,0,Indian Boundary,,Kloempken Prairie,,,0,0,0,0,0,0,0,0,0,0,0,0,0,0,0,0,0,1,0,0,0,0,0,0,0,0,0,0,0,0,0,0,0,0,0,1,0,0,0,0,0,0,0,0,0,0,0,1,0,0,0,0,0,0,0,0,0,0,0,0,0,0,0,0,0,,POINT (-87.87746613106394 42.05606448676817)
65,nature preserve,,42.145769534009,-88.2155225046444,yes,,"Barrington Hills, IL 60010",347,0,Northwest,,Spring Lake Nature Preserve,,,0,0,0,0,0,0,0,0,0,1,1,0,0,0,0,0,0,1,0,0,0,0,0,0,1,0,0,0,0,0,1,0,0,0,0,1,0,0,0,0,0,0,0,0,0,0,0,1,0,0,0,0,0,0,0,0,0,0,0,0,0,0,0,0,0,,POINT (-88.21552250464435 42.14576953400902)
68,activity area,,41.5671200238518,-87.7519826724246,yes,,"Cook County, IL 60477",,0,Tinley Creek,,Tryner's Pond,,,0,0,0,0,0,0,0,0,0,0,0,0,0,0,0,0,0,0,0,0,1,0,0,0,0,0,0,0,0,0,0,0,0,0,0,1,0,0,0,0,0,0,0,0,0,0,0,0,0,0,0,0,0,0,0,0,0,0,0,0,0,0,0,0,0,,POINT (-87.7519826724246 41.5671200238518)
70,nature preserve,,41.6462654258372,-87.53327527865,yes,,"Chicago, IL 60633",149,0,Calumet,,Powderhorn Prairie and Marsh Nature Preserve,,,0,0,0,1,0,0,0,0,0,0,0,0,0,0,0,0,0,1,0,0,0,0,0,0,0,0,0,0,0,0,1,0,0,1,1,1,0,0,0,0,0,0,0,0,0,0,0,1,0,0,0,0,0,0,0,0,0,0,0,0,0,0,0,0,0,,POINT (-87.53327527865 41.64626542583723)
74,activity area,,41.6591317588246,-87.9246980392589,yes,,"Cook County, IL 60439",297,0,Palos,,McGinty Slough,,,0,0,0,0,0,0,0,0,0,0,0,0,0,0,0,0,0,0,0,0,1,0,0,0,0,0,0,0,0,0,0,0,0,0,0,1,0,0,0,0,0,0,0,0,0,0,0,0,0,0,0,0,0,0,0,0,0,0,0,0,0,0,0,0,0,,POINT (-87.92469803925887 41.65913175882458)
76,nature preserve,,41.5370289657071,-87.7618932578594,yes,"Flossmoor Rd, west of Central Ave","Cook County, IL 60477",,310,Tinley Creek,,Bartel Grassland Land and Water Reserve,South Green Belt Preserves,,0,0,0,1,0,0,0,0,0,0,0,0,0,0,0,0,0,1,0,0,0,0,0,0,0,0,0,0,0,0,1,0,0,1,0,0,0,0,0,0,0,0,0,0,0,0,0,1,0,0,0,0,1,1,0,0,0,0,0,0,0,0,0,0,0,,POINT (-87.76189325785943 41.537028965707094)
81,activity area,,42.0360304828967,-88.2307713965283,yes,"11N260 Rohrssen Rd","Elgin, IL 60120",,188,Northwest,,Rolling Knolls,,,0,0,0,0,0,0,0,0,0,1,0,1,0,1,0,0,1,0,0,0,1,0,0,0,1,1,0,0,0,0,0,0,0,0,0,0,0,0,1,0,0,0,0,1,0,0,0,0,0,1,1,1,1,1,0,0,0,0,0,0,0,0,0,0,0,,POINT (-88.2307713965283 42.03603048289673)
82,activity area,,41.6340028311377,-87.5708694432507,yes,,"Calumet City, IL 60409",,0,Calumet,,Dolton Avenue Prairie,,,0,0,0,1,0,0,0,0,0,0,0,0,0,0,0,0,0,1,0,0,0,0,0,0,0,0,0,0,0,0,0,0,0,0,0,1,0,0,0,0,0,0,0,0,0,0,0,1,0,0,0,0,0,0,0,0,0,0,0,0,0,0,0,0,0,,POINT (-87.57086944325067 41.634002831137664)
84,nature preserve,,41.613605765307,-87.5556691249524,yes,,"Calumet City, IL 60409",,0,Thorn Creek ,,Sand Ridge Nature Preserve,,,0,0,0,0,0,0,0,0,0,0,0,0,0,0,0,0,0,1,0,0,0,0,0,0,0,0,0,0,0,0,1,0,0,1,0,1,0,0,0,0,0,0,0,0,0,0,0,0,0,0,0,0,0,0,0,0,0,0,0,0,0,0,0,0,1,,POINT (-87.55566912495236 41.61360576530699)
85,nature preserve,,41.5614590719395,-87.591180708297,yes,,"Cook County, IL 60476",,0,Thorn Creek ,,Thornton-Lansing Road Nature Preserve,Zanders Woods,,0,0,0,0,0,0,0,0,0,0,0,0,0,0,0,0,0,1,0,0,0,0,0,0,0,0,0,0,0,0,1,0,0,1,0,1,0,0,0,0,0,0,0,0,0,0,0,0,0,0,0,0,0,0,0,0,0,0,0,0,0,0,0,0,0,,POINT (-87.59118070829697 41.561459071939545)
86,nature preserve,,42.0600302309363,-88.1996920619861,yes,,"Cook County, IL 60192",156,0,Northwest,,Shoe Factory Road Prairie Nature Preserve,Arthur L. Janura Preserve,,0,0,0,1,0,0,0,0,0,0,0,0,0,0,0,0,0,1,0,0,0,0,0,0,0,0,0,0,0,0,1,0,0,1,0,1,0,0,0,0,0,0,0,0,0,0,0,0,0,0,0,0,0,0,0,0,0,0,0,0,0,0,0,0,0,,POINT (-88.19969206198614 42.06003023093627)
88,nature preserve,,41.7239625899108,-87.8869249334928,yes,,"Cook County, IL 60480",,0,Palos,,Paw Paw Woods Nature Preserve,Palos,,0,0,0,0,0,0,0,0,0,0,0,0,0,0,0,0,0,1,0,0,0,0,0,0,0,0,0,0,0,0,1,0,0,1,0,1,0,0,0,0,0,0,0,0,0,0,0,1,0,0,0,0,0,0,0,0,0,0,0,0,0,0,0,0,0,,POINT (-87.88692493349275 41.72396258991082)
89,nature preserve,,41.6983424081066,-87.8414085910535,yes,,"Palos Hills, IL 60465",,0,Palos,,Palos Fen Nature Preserve,Palos,,0,0,0,0,0,0,0,0,0,0,0,0,0,0,0,0,0,1,0,0,0,0,0,0,0,0,0,0,0,0,1,0,0,1,0,1,0,0,0,0,0,0,0,0,0,0,0,0,0,0,0,0,0,0,0,0,0,0,0,0,0,0,0,0,0,,POINT (-87.84140859105345 41.69834240810658)
91,nature preserve,,41.6386733260091,-87.549456624701,yes,,"Burnham, IL 60633",300,0,Thorn Creek,,Burnham Prairie Nature Preserve,,,0,0,0,1,0,0,0,0,0,0,0,0,0,0,0,0,0,1,0,0,0,0,0,0,0,0,0,0,0,0,1,0,0,1,1,1,0,0,0,0,0,0,0,0,0,0,0,0,0,0,0,0,0,0,0,0,0,0,0,0,0,0,0,0,0,,POINT (-87.54945662470104 41.63867332600915)
92,nature preserve,,41.831880535143,-87.8893346687093,yes,,"La Grange Park, IL 60526",151,0,Salt Creek,,Salt Creek Woods Nature Preserve,,,0,0,0,1,0,0,0,0,0,1,1,0,0,0,0,0,0,1,0,0,0,0,0,0,1,0,0,0,0,0,1,0,0,0,0,1,0,0,0,0,0,0,0,0,0,0,0,1,0,0,0,0,0,0,0,0,0,0,0,0,0,0,0,0,0,,POINT (-87.88933466870934 41.831880535143014)
93,nature preserve,,42.1418192736849,-87.8378815193573,yes,,"Cook County, IL 60062",163,0,North Branch,,Somme Prairie Nature Preserve,Somme Woods,,0,0,0,0,0,0,0,0,0,0,0,0,0,0,0,0,0,1,0,0,0,0,0,0,0,0,0,0,0,0,1,0,0,1,0,1,0,0,0,0,0,0,0,0,0,0,0,1,0,0,0,0,0,0,0,0,0,0,0,0,0,0,0,0,0,,POINT (-87.83788151935725 42.14181927368493)
96,nature preserve,,41.6837383377206,-88.0250334973323,yes,,"Cook County, IL 60439",154,0,Palos,,Black Partridge Woods Nature Preserve,Goose Lake,,0,0,0,0,0,0,0,0,0,0,0,0,0,0,0,0,0,0,0,0,0,0,0,0,0,0,0,0,0,0,1,0,1,1,1,1,0,0,0,0,0,0,0,0,0,0,0,1,0,0,0,0,0,0,0,0,0,0,0,0,0,0,0,0,0,,POINT (-88.02503349733227 41.683738337720634)
97,nature preserve,,41.6917372715736,-87.9224335796247,yes,,"Cook County, IL 60439",267,0,Palos,,Sagawau Canyon Nature Preserve,Palos,Sagawau Environmental Learning Center,0,0,0,1,0,0,0,0,0,0,0,0,0,0,0,0,0,0,0,0,0,0,0,0,0,0,0,0,0,0,1,0,0,1,1,1,0,0,0,0,0,0,0,0,0,0,0,1,0,0,0,0,0,0,0,0,0,0,0,0,0,0,0,0,0,,POINT (-87.92243357962467 41.69173727157362)
99,activity area,,41.6782487667681,-87.5295258210978,yes,,"Chicago, IL 60617",,0,Calumet,,Wolf Lake Overlook,,,0,0,0,1,0,0,0,0,0,0,0,0,0,0,0,0,0,1,0,0,0,0,0,0,0,0,0,0,0,0,0,0,0,0,1,1,1,0,0,0,0,0,0,0,0,0,0,0,0,0,0,0,0,0,0,0,0,0,0,0,0,0,0,0,0,,POINT (-87.52952582109782 41.67824876676813)
100,camp,,41.7091219193739,-87.9031915070664,yes,"9600 Wolf Rd","Willow Springs, IL 60480",,334,Palos,,Camp Bullfrog Lake,Palos,,1,0,0,0,0,1,1,0,0,1,1,0,0,1,0,0,0,0,0,0,1,1,0,0,1,0,0,0,0,0,0,0,0,0,0,0,0,0,0,0,1,0,0,0,0,0,0,0,0,1,1,1,0,0,0,1,1,1,1,0,1,0,1,1,0,,POINT (-87.90319150706635 41.70912191937389)
101,nature preserve,,41.5553016910395,-87.5874930103786,yes,,"Cook County, IL 60476",162,0,Thorn Creek ,,Jurgensen Woods North Nature Preserve,,,0,0,0,1,0,0,0,0,0,1,1,0,0,0,0,0,0,0,0,0,0,0,0,0,1,0,0,0,0,0,1,0,0,0,0,1,0,0,0,0,0,0,0,0,0,0,0,0,0,0,0,0,0,0,0,0,0,0,0,0,0,0,0,0,0,,POINT (-87.58749301037857 41.55530169103949)
102,nature preserve,,41.6907763361266,-87.8648260077967,yes,,"Cook County, IL 60480",255,0,Palos,,McMahon Woods and Fen Nature Preserve,Palos,,0,0,0,1,0,0,0,0,0,0,0,0,0,0,0,0,0,1,0,0,0,0,0,0,0,0,0,0,0,0,1,0,0,1,0,1,0,0,0,0,0,0,0,0,0,0,0,1,0,0,0,0,0,0,0,0,0,0,0,0,0,0,0,0,0,,POINT (-87.86482600779671 41.690776336126625)
103,activity area,,42.0177071722735,-87.871345471108,yes,,"Cook County, IL 60018",,0,Indian Boundary,Campground Woods,Algonquin Woods,,,0,0,0,0,0,0,0,0,0,0,0,0,0,0,0,0,0,0,0,0,0,0,0,0,0,0,0,0,0,0,0,0,0,0,0,1,0,0,0,0,0,0,0,0,0,0,0,0,0,0,0,0,0,0,0,0,0,0,0,0,0,0,0,0,0,,POINT (-87.87134547110801 42.01770717227349)
108,nature preserve,,42.1407745871072,-88.1170300567156,yes,,"Cook County, IL 60010",201,0,Northwest,,Baker's Lake Nature Preserve,,,0,0,0,1,0,0,0,0,0,0,0,0,0,0,0,0,0,1,0,0,0,0,0,0,1,0,0,0,0,0,1,0,0,1,1,1,0,0,0,0,0,0,0,0,0,0,0,1,0,0,0,0,0,0,0,0,0,0,0,0,0,0,0,0,0,,POINT (-88.11703005671563 42.14077458710722)
109,nature preserve,,42.0149018772805,-88.2550235118052,yes,,"Elgin, IL 60120",215,0,Northwest,,Bluff Spring Fen Nature Preserve,,,0,0,0,1,0,0,0,0,0,0,0,0,0,0,0,0,0,1,0,0,0,0,0,0,1,0,0,0,0,0,1,0,0,1,1,0,0,0,0,0,0,0,0,0,0,0,0,1,0,0,0,0,0,0,0,0,0,0,0,0,0,0,0,0,0,,POINT (-88.25502351180525 42.01490187728047)
111,activity area,,41.6747062334725,-87.871990356623,yes,"S Willow Springs Rd, north of McCarthy Rd","Cook County, IL 60464",,53,Palos,,Cherry Hill Woods,Edward M. Sneed Forest,Palos,0,0,0,0,0,0,0,0,0,0,0,0,0,0,0,0,0,1,0,0,0,0,0,0,0,0,0,0,0,0,0,0,0,0,0,0,0,0,0,0,1,0,0,0,0,0,0,0,0,0,0,0,1,0,0,0,0,0,0,0,0,0,0,0,0,,POINT (-87.87199035662304 41.674706233472484)
112,activity area,,41.6845137493452,-87.8730180938894,yes,"S Willow Springs Rd, south of Calumet Sag Rd/Rte 83","Cook County, IL 60464",,61,Palos,,Teason's Woods,Edward M. Sneed Forest,Cap Sauers Holding Nature Preserve,0,0,0,0,0,0,0,0,0,1,1,0,0,1,0,0,0,1,0,0,0,0,0,0,1,0,0,0,0,0,0,0,0,0,0,0,0,0,0,0,1,0,0,0,0,0,0,0,0,0,0,0,1,1,0,0,0,0,0,0,0,0,0,0,0,,POINT (-87.87301809388939 41.68451374934519)
113,camp,,41.6053777938954,-87.563037210153,yes,"15810 S Torrence Ave","South Holland, IL 60473",,92,Thorn Creek ,Shabbona,Camp Shabbona Woods,,,1,0,0,0,0,0,1,0,0,0,0,0,0,0,0,0,0,0,0,0,0,0,0,0,0,0,0,0,0,0,0,1,0,0,0,0,0,0,0,0,1,0,0,0,0,0,0,0,0,1,1,1,0,0,0,1,0,0,0,0,0,0,0,1,0,,POINT (-87.563037210153 41.60537779389543)
114,activity area,,42.1291200069162,-87.7905468027301,yes,,"Northbrook, IL 60062",,0,North Branch,,Sunset Ridge Woods,,,0,0,0,0,0,0,0,0,0,0,0,0,0,0,0,0,0,0,0,0,0,0,0,0,0,0,0,0,0,0,0,0,0,0,0,1,0,0,0,0,0,0,0,0,0,0,0,0,0,0,0,0,0,0,0,0,0,0,0,0,0,0,0,0,0,,POINT (-87.79054680273012 42.129120006916246)
115,activity area,,41.6709962007381,-87.8707244550487,yes,"104th Ave, north of McCarthy Rd","Cook County, IL 60464",,269,Palos,,Horsetail Lake,Edward M. Sneed Forest,Palos,0,0,0,0,0,0,0,0,0,1,1,0,0,1,0,0,0,0,1,0,1,1,0,0,1,0,0,0,0,0,0,0,0,0,0,0,0,0,0,0,0,0,0,0,0,0,0,0,0,0,0,0,1,1,0,0,0,0,0,0,0,0,0,0,0,,POINT (-87.87072445504872 41.670996200738095)
116,activity area,,41.6658101653649,-87.8622604736192,yes,"McCarthy Rd, west of S La Grange Rd","Cook County, IL 60464",,234,Palos,,Papoose Lake,Palos,,0,0,0,0,0,0,0,0,0,0,0,0,0,0,0,0,0,0,0,0,1,1,0,0,0,0,0,0,0,0,0,0,0,0,0,0,0,0,0,0,0,0,0,0,0,0,0,0,0,0,0,0,1,1,0,0,0,0,0,0,0,0,0,0,0,,POINT (-87.86226047361924 41.66581016536487)
117,activity area,,41.6758161324748,-87.8594651324698,yes,"S La Grange Rd, south of 119th St","Cook County, IL 60464",,55,Palos,,Swallow Cliff Woods-South,Edward M. Sneed Forest,Palos,0,0,0,1,0,0,0,0,0,1,1,0,0,1,0,0,0,1,0,0,0,0,0,0,1,0,0,0,0,0,0,0,0,0,0,0,0,0,0,0,1,0,0,0,0,0,0,1,0,0,0,0,1,1,0,0,0,0,0,0,0,0,0,0,0,,POINT (-87.8594651324698 41.67581613247479)
118,activity area,,41.6738999668239,-87.8509470028645,yes,"119th St, east of S La Grange Rd","Cook County, IL 60464",,54,Palos,,Forty Acre Woods,Palos,,0,0,0,0,0,0,0,0,0,1,1,0,0,1,0,0,0,0,1,0,0,0,0,0,1,0,0,0,0,0,0,0,0,0,0,0,0,0,0,1,0,0,0,0,0,0,0,0,0,0,0,0,1,1,0,0,0,0,0,0,0,0,0,0,0,,POINT (-87.85094700286454 41.673899966823875)
119,activity area,,41.6762326725192,-87.8447902310203,yes,"Kean Ave, north of 119th St","Cook County, IL 60464",,56,Palos,,McClaughrey Spring Woods,Palos,,0,0,0,1,0,0,0,0,0,1,1,0,0,1,0,0,0,1,0,0,0,0,0,0,1,0,0,0,0,0,0,0,0,0,0,0,0,0,0,1,0,0,0,0,0,0,0,1,0,0,0,0,1,0,0,0,0,0,0,0,0,0,0,0,1,,POINT (-87.84479023102031 41.67623267251923)
120,activity area,,41.6754815523234,-87.838641587842,yes,"119th St, west of S 86th Ave","Cook County, IL 60464",,58,Palos,Palos #2,Palos Park Woods-South,Palos,,0,0,0,0,0,0,0,0,0,1,1,0,0,1,0,0,0,1,0,0,0,0,0,0,1,0,0,0,0,0,0,0,0,0,0,0,0,0,0,0,1,0,0,0,0,0,0,0,0,0,0,0,1,0,0,0,0,0,0,0,0,0,0,0,0,,POINT (-87.83864158784203 41.67548155232338)
121,activity area,,41.6779966092015,-87.8315716970369,yes,"S 86th St, south of Calumet Sag Rd/Rte 83","Cook County, IL 60464",,57,Palos,,Paddock Woods,Palos,,0,0,0,0,0,0,0,0,0,1,1,0,0,1,0,0,0,1,0,0,0,0,0,0,1,0,0,0,0,0,0,0,0,0,0,0,0,0,0,1,0,0,0,0,0,0,0,1,0,0,0,0,1,0,0,0,0,0,0,0,0,0,0,0,0,,POINT (-87.83157169703688 41.677996609201465)
122,activity area,,41.6807292844607,-87.8421150726464,yes,"Kean Ave, south of Calumet Sag Rd/Rte 83","Cook County, IL 60464",,59,Palos,Palos #1,Palos Park Woods-North,Palos,,1,0,0,0,0,0,0,0,0,1,1,0,0,1,0,0,0,1,1,0,0,0,0,0,1,0,0,0,0,0,0,0,0,0,0,0,0,0,0,0,1,0,0,0,0,0,0,0,0,0,0,0,1,1,1,0,0,0,0,1,0,0,0,0,0,,POINT (-87.84211507264638 41.680729284460675)
123,activity area,,41.6807903011506,-87.860885665096,yes,"Calumet Sag Rd/Rte 83, west of La Grange Rd/96th Ave","Cook County, IL 60464",,60,Palos,Swallow Stairs,Swallow Cliff Woods-North,Edward M. Sneed Forest,Palos,0,0,0,0,0,0,0,0,0,1,1,0,0,1,0,0,0,1,1,1,0,0,0,0,1,1,0,0,0,0,0,0,0,0,0,0,0,0,1,0,0,0,0,1,0,0,0,1,0,1,1,1,1,1,1,0,0,0,0,0,0,0,0,0,0,,POINT (-87.86088566509599 41.68079030115062)
124,activity area,,41.6502583772824,-87.9094333632082,yes,"S Will Cook Rd, south of W 131st St","Cook County, IL 60467",,153,Palos,,Tampier Lake-West,John J. Duffy Preserve,,1,0,0,0,0,0,0,0,0,0,0,0,0,0,0,0,0,0,0,0,1,1,0,0,0,0,0,0,0,0,0,0,0,0,0,0,0,0,0,0,1,0,0,0,0,0,0,0,0,0,0,1,1,1,1,0,0,0,0,1,0,0,0,0,0,,POINT (-87.90943336320815 41.65025837728245)
125,activity area,,41.6519603013653,-87.9032242461483,yes,W 131st St west of S Wolf Rd,"Cook County, IL 60464",,271,Palos,,Tampier Lake-North,John J. Duffy Preserve,Tampier Slough,0,0,0,1,0,0,0,0,0,0,0,0,0,0,0,0,0,0,0,0,0,0,0,0,0,0,0,0,0,0,0,0,0,0,1,0,0,0,0,0,0,0,0,0,0,0,0,0,0,0,0,0,0,0,0,0,0,0,0,0,0,0,0,0,0,,POINT (-87.90322424614834 41.651960301365285)
126,activity area,,41.6493150737333,-87.9006506263722,yes,W 131st St west of S Wolf Rd,"Cook County, IL 60467",,272,Palos,,Tampier Lake Boating Center,John J. Duffy Preserve,Tampier Slough,0,0,0,0,1,1,0,0,0,0,0,0,0,0,0,0,0,0,0,0,1,1,0,0,0,0,0,0,0,0,0,0,0,0,0,0,0,0,0,0,0,0,0,0,0,0,0,0,0,0,1,1,0,1,0,0,0,0,0,0,0,0,0,0,0,,POINT (-87.90065062637217 41.64931507373331)
127,activity area,,41.6307531943058,-87.8655984789908,yes,"143rd St, west of Southwest Hwy","Orland Park, IL 60462",,274,Tinley Creek,,Orland Grove,,,0,0,0,0,0,0,0,0,0,0,0,0,0,0,0,0,0,0,0,0,0,0,0,0,0,0,0,0,0,0,0,0,0,0,0,0,0,0,0,0,0,0,0,0,0,0,0,0,0,0,0,0,0,0,0,0,0,0,0,0,0,0,0,0,1,,POINT (-87.86559847899078 41.63075319430578)
128,activity area,,41.6490934875763,-87.7929001741508,yes,"W 135th St, east of Harlem Ave","Cook County, IL 60463",,48,Tinley Creek,,Arrowhead Lake,,,1,0,0,0,0,0,0,0,0,1,1,0,0,1,0,0,0,0,0,0,1,1,0,0,1,0,0,0,0,0,0,0,0,0,0,0,0,0,0,0,1,0,1,0,0,0,0,0,0,0,0,0,1,1,1,0,0,0,0,1,0,0,0,0,0,,POINT (-87.79290017415084 41.64909348757625)
129,activity area,,41.6456317853594,-87.7709356179927,yes,"W 135th St, east of S Ridgeland Ave","Cook County, IL 60463",,87,Tinley Creek,,Cooper's Hawk Family Picnic Area,,,0,0,0,0,0,0,0,0,0,1,1,0,0,1,0,0,0,0,0,0,0,0,0,0,1,0,0,0,0,0,0,0,0,0,0,0,0,0,0,0,0,0,0,0,0,0,0,0,0,0,0,0,0,0,0,0,0,0,0,0,0,0,0,0,0,,POINT (-87.7709356179927 41.645631785359384)
130,activity area,,41.6507179743831,-87.7613509580493,yes,"Central Ave, north of W 135th St","Cook County, IL 60463",,50,Tinley Creek,,Elizabeth A. Conkey Forest-North,,,1,0,0,1,0,0,0,0,0,0,0,0,0,0,0,0,0,0,0,0,0,0,0,0,0,0,1,0,0,0,0,0,0,0,0,0,0,0,0,1,1,0,0,0,0,0,0,0,0,0,0,0,1,1,1,0,0,0,0,1,0,0,0,0,0,,POINT (-87.76135095804926 41.650717974383134)
131,activity area,,41.6479812835114,-87.7631613291401,yes,"W 135th St, west of Central Ave","Cook County, IL 60463",,51,Tinley Creek,,Elizabeth A. Conkey Forest-South,,,1,0,0,1,0,0,0,0,0,0,0,0,0,0,0,0,0,0,0,0,0,0,0,0,0,0,1,0,0,0,0,0,0,0,0,0,0,0,0,1,1,0,0,0,0,0,0,0,0,0,0,0,1,0,1,0,0,0,0,1,0,0,0,0,0,,POINT (-87.7631613291401 41.64798128351137)
132,activity area,,41.6347141374021,-87.7657482919244,yes,"W Midlothian Turnpike/W 143rd St, east of S Ridgeland Ave","Cook County, IL 60445",,84,Tinley Creek,,Rubio Woods,,,1,0,0,0,0,0,0,0,0,1,1,0,0,1,0,0,0,0,0,0,0,0,0,0,1,0,0,0,0,0,0,0,0,0,0,0,0,0,0,1,1,0,1,0,0,0,0,0,0,0,0,0,1,1,1,0,0,0,0,1,0,0,0,0,0,,POINT (-87.76574829192441 41.63471413740206)
133,activity area,,41.6289977760986,-87.7772896823127,yes,"Ridgeland Ave, south of E 143rd St","Cook County, IL 60452",,182,Tinley Creek,,Goeselville Grove Family Picnic Area,,,0,0,0,0,0,0,0,0,0,1,1,0,0,1,0,0,0,0,0,0,0,0,0,0,1,0,0,0,0,0,0,0,0,0,0,0,0,0,0,0,0,0,1,0,0,0,0,0,0,0,0,0,0,0,0,0,0,0,0,0,0,0,0,0,0,,POINT (-87.7772896823127 41.62899777609857)
134,activity area,,41.629363946526,-87.7840838379399,yes,"Oak Park Ave, south of E 143rd St","Cook County, IL 60452",,86,Tinley Creek,,Carlson Springs Woods,,,0,0,0,0,0,0,0,0,0,0,0,0,0,0,0,0,0,0,0,0,0,0,0,0,0,0,0,0,0,0,0,0,0,0,0,0,0,0,0,0,1,0,0,0,0,0,0,0,0,0,0,0,1,0,0,0,0,0,0,0,0,0,0,0,0,,POINT (-87.78408383793989 41.62936394652602)
135,activity area,,41.6331265815872,-87.785795833474,yes,"W 143rd St, west of Oak Park Ave","Cook County, IL 60463",,183,Tinley Creek,,Bachelor's Grove Woods,,,0,0,0,0,0,0,0,0,0,0,0,0,0,0,0,0,0,1,0,0,0,0,0,0,0,0,0,0,0,0,0,0,0,0,0,0,0,0,0,0,0,0,0,0,0,0,0,0,0,0,0,0,0,0,0,0,0,0,0,0,0,0,0,0,0,,POINT (-87.78579583347404 41.63312658158719)
136,camp,,41.6254711238841,-87.7875399040597,yes,"14630 Oak Park Ave","Oak Forest, IL 60452",,181,Tinley Creek,,Camp Sullivan,Camp Falcon,,1,0,0,0,0,0,1,0,0,0,0,0,0,0,0,0,0,0,0,0,0,0,0,0,0,0,0,0,0,0,0,0,0,0,0,0,0,0,0,0,1,0,0,0,0,0,0,0,0,1,1,1,0,0,0,1,1,0,1,0,0,0,0,1,1,,POINT (-87.78753990405974 41.625471123884125)
137,activity area,,41.6175898948688,-87.8020838028554,yes,"151st St, west of Harlem Ave","Cook County, IL 60462",,279,Tinley Creek,,Catalina Grove Family Picnic Area,,,0,0,0,0,0,0,0,0,0,1,1,0,0,1,0,0,0,0,0,0,0,0,0,0,1,0,0,0,0,0,0,0,0,0,0,0,0,0,0,0,0,0,1,0,0,0,0,0,0,0,0,0,0,0,0,0,0,0,0,0,0,0,0,0,0,,POINT (-87.80208380285538 41.61758989486884)
138,activity area,,41.6002202294385,-87.7844127859421,yes,"Oak Park Ave, south of 159th St","Cook County, IL 60477",,164,Tinley Creek,,Bremen Grove,,,1,0,0,0,0,0,0,0,0,1,1,0,1,1,0,0,0,0,0,0,0,0,0,0,1,0,0,0,0,0,0,0,0,0,0,0,0,0,0,0,1,0,1,0,0,0,0,0,0,1,1,1,0,0,0,0,0,0,0,1,0,0,0,0,0,,POINT (-87.78441278594208 41.600220229438506)
140,activity area,,41.5921483824835,-87.7571073004077,yes,"Central Ave, north of 167th St","Cook County, IL 60477",,165,Tinley Creek,,Yankee Woods,,,0,0,0,0,0,0,0,0,0,1,1,0,0,1,0,0,0,1,0,0,0,0,0,0,1,0,0,0,0,0,0,0,0,0,0,0,0,0,0,1,1,0,1,0,0,0,0,1,0,0,0,0,1,1,0,0,0,0,0,0,0,0,0,0,1,,POINT (-87.75710730040767 41.59214838248349)
141,activity area,,41.6550125575115,-87.6398358425016,yes,"Forest View Ave, east of S Halsted St","Riverdale, IL 60827",,89,Calumet,,Whistler Woods,,,0,0,0,0,0,0,0,0,0,1,1,0,0,1,0,0,0,1,0,0,0,0,0,0,1,0,0,0,0,0,0,0,0,0,0,0,0,0,0,1,0,0,1,0,0,0,0,1,0,0,0,0,1,1,0,0,0,0,0,0,0,0,0,0,0,,POINT (-87.63983584250164 41.65501255751149)
142,golf course,,41.6537129128649,-87.6440941140805,yes,"13100 S Halsted St","Riverdale, IL 60827",,266,Calumet,,"Joe Louis ""The Champ"" Golf Course",,,0,0,0,0,0,0,0,0,0,0,0,0,0,0,0,0,0,0,0,0,0,0,0,1,0,0,0,0,0,0,0,0,0,0,0,0,0,0,0,0,0,0,0,0,0,0,0,0,0,0,0,0,0,0,0,0,0,0,0,0,0,0,0,0,0,,POINT (-87.64409411408047 41.653712912864904)
143,activity area,,41.6509976163684,-87.6584663321191,yes,"Jackson St, east of S Ashland Ave","Cook County, IL 60827",,290,Calumet,,Little Calumet Boat Launch,,,0,0,0,0,1,0,0,0,0,0,0,0,0,0,0,0,0,0,0,0,0,0,1,0,0,0,0,0,0,0,0,0,0,0,0,0,0,0,0,0,0,0,0,0,0,0,0,0,0,0,0,0,1,0,0,0,0,0,0,0,0,0,0,0,0,,POINT (-87.6584663321191 41.650997616368386)
144,activity area,,41.6454849544571,-87.6646258904095,yes,Ashland Ave &amp; Charles Dr,"Riverdale, IL 60827",,82,Calumet,,Calumet Woods,,,0,0,0,0,0,0,0,0,0,0,0,0,0,0,0,0,0,0,0,0,0,0,0,0,0,0,0,0,0,0,0,0,0,0,0,0,0,0,0,0,1,0,0,0,0,0,0,0,0,0,0,0,1,0,0,0,0,0,0,0,0,0,0,0,0,,POINT (-87.6646258904095 41.6454849544571)
145,activity area,,41.6312513498329,-87.6443048463572,yes,"Halsted St, south of W 144th St","Riverdale, IL 60827",,289,Calumet,,Kickapoo Woods,,,0,0,0,0,0,0,0,1,0,1,1,0,0,1,0,0,0,1,0,0,0,0,0,0,1,0,0,1,0,0,0,0,0,0,0,0,0,0,0,1,1,0,1,0,0,0,0,1,0,0,0,0,1,1,1,0,0,0,0,0,0,0,0,0,0,,POINT (-87.6443048463572 41.631251349832944)
146,activity area,,41.6539155287239,-87.5914699374948,yes,"E 132nd St, east of S Greenwood Ave","Chicago, IL 60827",,301,Calumet,,Beaubien Woods Boat Launch,Flatfoot Lake,,0,0,0,0,1,0,0,0,0,0,0,0,0,0,0,0,0,0,0,0,0,0,0,0,0,0,0,0,0,0,0,0,0,0,0,0,0,0,0,0,0,0,0,0,0,0,0,1,0,0,0,0,1,0,1,0,0,0,0,0,0,0,0,0,0,,POINT (-87.5914699374948 41.65391552872385)
147,activity area,,41.65051908582,-87.5823529207047,yes,"W Doty Ave S, southeast of E 130th St &amp; S Ellis Ave","Chicago, IL 60827",,321,Calumet,Flatfoot,Beaubien Woods,Flatfoot Lake,,1,0,0,0,0,0,0,1,0,0,0,0,0,0,0,0,0,1,0,0,1,1,0,0,0,0,0,0,0,0,0,0,0,0,0,0,0,0,0,0,1,0,0,0,0,0,0,1,0,0,0,0,1,1,1,0,0,0,0,1,0,0,1,0,0,,POINT (-87.58235292070465 41.65051908581997)
148,golf course,,41.6356994124583,-87.5349333248425,yes,"14201 S Burnham Ave","Burnham, IL 60633",,299,Calumet,,Burnham Woods Golf Course,,,0,0,0,0,0,0,0,0,0,0,0,0,0,0,0,0,0,0,0,0,0,0,0,1,0,0,0,0,0,0,0,0,0,0,0,0,0,0,0,0,0,0,0,0,0,0,0,0,0,0,0,0,0,0,0,0,0,0,0,0,0,0,0,0,0,,POINT (-87.53493332484246 41.63569941245829)
149,activity area,,41.642737759941,-87.534615281289,yes,"S Brainard Ave, east of S Burnham Ave/S Ave O","Burnham, IL 60633",,298,Calumet,,Powderhorn Lake,,,0,0,0,1,1,0,0,0,0,0,0,0,0,0,0,0,0,1,0,0,1,1,0,0,0,0,0,0,0,0,0,0,0,0,0,0,0,0,0,0,0,0,0,0,0,0,0,1,0,0,0,0,1,1,0,0,0,0,0,0,0,0,0,0,0,,POINT (-87.53461528128899 41.642737759941035)
150,nature center,yes,41.6059330105483,-87.5657494562066,yes,"15891 Paxton Ave","South Holland, IL 60473",,303,Thorn Creek ,Nature Center,Sand Ridge Nature Center,,,0,0,0,1,0,0,0,0,0,0,0,0,0,0,0,0,0,1,0,0,0,0,0,0,1,0,0,0,0,1,0,1,0,1,1,0,0,0,0,0,0,0,0,0,0,0,0,0,0,1,1,1,0,0,0,0,0,0,0,0,0,0,0,0,0,,POINT (-87.5657494562066 41.60593301054832)
152,activity area,,41.6036367462207,-87.5576080899235,yes,"Torrence Ave, north of 159th St/River Oaks Dr","Calumet City, IL 60409",,91,Thorn Creek ,Clayhole,Clayhole Woods,Green Lake Woods,,0,0,0,0,0,0,0,0,0,1,1,0,0,1,0,0,0,0,0,0,0,0,0,0,1,0,1,0,0,0,0,0,0,0,0,0,0,0,0,0,1,0,0,0,0,0,0,0,0,0,0,0,1,0,0,0,0,0,0,0,0,0,0,0,0,,POINT (-87.55760808992349 41.603636746220666)
153,activity area,,41.6042830636671,-87.5563066701709,yes,"Torrence Ave, north of 159th St/River Oaks Dr","Calumet City, IL 60409",,93,Thorn Creek ,Green Lake,Green Lake Woods,,,0,0,0,0,0,0,0,0,0,1,1,0,0,1,0,0,0,0,0,0,1,1,0,0,1,0,1,0,0,0,0,0,0,0,0,0,0,0,0,1,0,0,1,0,0,0,0,0,0,0,1,0,0,1,0,0,0,0,0,0,0,0,1,0,0,,POINT (-87.55630667017087 41.604283063667054)
154,activity area,,41.6074573111896,-87.5345571792197,yes,Freeland Ave &amp; Warren St,"Calumet City, IL 60409",,302,Thorn Creek ,Playfield,Calumet City Playfield,,,0,0,0,0,0,0,0,0,0,0,0,0,0,0,0,0,0,0,0,0,0,0,0,0,0,0,0,0,0,0,0,0,0,0,0,0,0,0,0,0,0,0,0,0,0,0,0,0,0,0,0,0,0,0,0,0,0,0,0,0,0,0,0,0,0,,POINT (-87.53455717921969 41.60745731118964)
156,golf course,,41.5991916877391,-87.5757276386904,yes,"1 Park Avenue","Calumet City, IL 60409",,304,Thorn Creek ,,River Oaks Golf Course,,,0,0,0,0,0,0,0,0,0,0,0,0,0,0,0,0,0,0,0,0,0,0,0,1,0,0,0,0,0,0,0,0,0,0,0,0,0,0,0,0,0,0,0,0,0,0,0,0,0,0,0,0,0,0,0,0,0,0,0,0,0,0,0,0,0,,POINT (-87.57572763869038 41.599191687739086)
158,activity area,,41.5620392188404,-87.6096847806158,yes,"S Hunter St, south of E Margret St","Thornton, IL 60476",,110,Thorn Creek ,Brownell,Brownell Woods,,,0,0,0,0,0,0,0,0,0,0,0,0,0,0,0,0,0,0,0,0,0,0,0,0,0,0,0,0,0,0,0,0,1,0,0,0,0,0,0,1,0,0,0,0,0,0,0,0,0,0,0,0,1,0,0,0,0,0,0,0,0,0,0,0,0,,POINT (-87.60968478061584 41.562039218840354)
159,activity area,,41.5559127305861,-87.599426852093,yes,"Cottage Grove Ave, north of Glenwood Lansing Rd","Cook County, IL 60476",,112,Thorn Creek ,,Sweet Woods,,,1,0,0,0,0,0,0,0,0,1,1,0,0,1,0,0,0,0,0,0,0,0,0,0,1,0,0,0,0,0,0,0,0,0,0,0,0,0,0,0,1,0,1,0,0,0,0,0,0,0,0,0,1,1,1,0,0,0,0,1,0,0,0,0,0,,POINT (-87.59942685209305 41.5559127305861)
160,activity area,,41.5486782054107,-87.6223050257519,yes,"Chicago Heights Glenwood Rd, west of S William St","Glenwood, IL 60425",,108,Thorn Creek ,Glenwood North,Glenwood Woods-North,,,0,0,0,0,0,0,0,0,0,1,1,0,0,1,0,0,0,0,0,0,0,0,0,0,1,0,0,0,0,0,0,0,0,0,0,0,0,0,0,0,1,0,0,0,0,0,0,0,0,0,0,0,1,1,1,0,0,0,0,0,0,0,0,0,0,,POINT (-87.62230502575191 41.54867820541072)
161,activity area,,41.5468326067146,-87.6195062007883,yes,"Chicago Heights Glenwood Rd, west of S William St","Glenwood, IL 60425",,196,Thorn Creek ,Glenwood South,Glenwood Woods-South,,,0,0,0,0,0,0,0,0,0,1,1,0,0,1,0,0,0,0,0,0,0,0,0,0,1,0,0,0,0,0,0,0,0,0,0,0,0,0,0,0,1,0,1,0,0,0,0,0,0,0,0,0,1,0,0,0,0,0,0,0,0,0,0,0,0,,POINT (-87.61950620078834 41.54683260671462)
162,activity area,,41.5537014141237,-87.5935497088919,yes,"183rd St, east of Cottage Grove Ave","Cook County, IL 60476",,111,Thorn Creek ,Jurgensen,Jurgensen Woods,,,0,0,0,0,0,0,0,0,0,1,1,0,0,1,0,0,0,1,0,0,0,0,0,0,1,0,0,0,0,0,0,0,0,0,0,0,0,0,0,0,1,0,0,0,0,0,0,0,0,0,0,0,1,0,0,0,0,0,0,0,0,0,0,0,0,,POINT (-87.59354970889191 41.55370141412374)
163,activity area,,41.5530212348526,-87.5749150615736,yes,"Stoney Island Ave, south of 186th St","Cook County, IL 60411",,264,Thorn Creek ,Flying Field,Thorn Creek Model Airplane Flying Field,,,0,0,0,0,0,0,0,0,0,0,0,0,0,0,0,0,1,0,0,0,0,0,0,0,0,0,0,1,0,0,0,0,0,0,0,0,0,0,0,0,0,0,0,0,0,0,0,0,0,0,0,0,1,1,0,0,0,0,0,0,0,0,0,0,0,,POINT (-87.57491506157363 41.553021234852636)
164,activity area,,41.5437269795953,-87.560187841624,yes,"Glenwood Lansing Rd, west of Torrence Ave","Cook County, IL 60411",,102,Thorn Creek ,North Creek,North Creek Meadow,,,0,0,0,0,0,0,0,0,0,1,1,0,0,1,0,0,0,0,0,0,0,0,0,0,1,0,1,0,0,0,0,0,0,0,0,0,0,0,0,0,1,0,1,0,1,0,0,0,0,0,1,1,1,1,0,0,0,0,0,0,0,0,0,0,0,,POINT (-87.56018784162397 41.54372697959533)
165,activity area,,41.5562677951208,-87.5508426857173,yes,"186th St, east of Torrence Ave","Cook County, IL 60438",,322,Thorn Creek ,Lansing,Lansing Woods,,,0,0,0,0,0,0,0,0,0,1,1,0,0,1,0,0,0,0,0,0,0,0,0,0,1,0,0,0,0,0,0,0,0,0,0,0,0,0,0,1,0,0,1,0,0,0,0,0,0,0,0,0,1,0,0,0,0,0,0,0,0,0,0,0,0,,POINT (-87.55084268571731 41.55626779512079)
166,activity area,,41.519017663595,-87.6299692448015,yes,"E Joe Orr Rd, east of S Halsted St","Chicago Heights, IL 60411",,101,Thorn Creek ,Joe Orr,Joe Orr Woods,,,0,0,0,0,0,0,0,0,0,1,1,0,0,1,0,0,0,0,0,0,0,0,0,0,1,0,0,0,0,0,0,0,0,0,0,0,0,0,0,0,1,0,1,0,0,0,0,0,0,0,0,0,1,0,0,0,0,0,0,0,0,0,0,0,0,,POINT (-87.62996924480153 41.51901766359501)
167,activity area,,41.4870646520502,-87.646394160343,yes,"Forest Preserve Dr, south of W 26th St","South Chicago Heights, IL 60411",,105,Thorn Creek ,Sauk 1 & 2,Sauk Trail Woods-East,Sauk Lake Woods,,0,0,0,0,0,0,0,0,0,1,1,0,0,1,0,0,0,0,0,0,0,0,0,0,1,0,0,0,0,0,0,0,1,0,0,0,0,0,0,1,1,0,0,0,0,0,0,0,0,0,0,0,1,0,0,0,0,0,0,0,0,0,0,0,0,,POINT (-87.64639416034305 41.487064652050236)
168,activity area,,41.4872207944116,-87.653045458077,yes,"Forest Preserve Dr, south of W 26th St","South Chicago Heights, IL 60411",,107,Thorn Creek ,Sauk 5,Sauk Trail Woods-Central,Sauk Lake Woods,,1,0,0,0,0,0,0,0,0,1,1,0,0,1,0,0,0,0,0,0,1,0,0,0,1,0,0,0,0,0,0,0,1,0,0,0,0,0,0,0,1,0,1,0,0,0,0,0,0,0,0,0,1,1,1,0,0,0,0,1,0,0,0,0,0,,POINT (-87.65304545807696 41.4872207944116)
169,activity area,,41.4896107902388,-87.6509888283019,yes,"W 26th St, west of Euclid Ave","South Chicago Heights, IL 60411",,106,Thorn Creek ,Sauk 3 & 4,Sauk Trail Woods-North,Sauk Lake Woods,,0,0,0,0,0,0,0,0,0,1,1,0,0,1,0,0,0,0,0,0,1,0,0,0,1,0,0,0,0,0,0,0,1,0,0,0,0,0,0,1,1,0,1,0,0,0,0,0,0,0,0,0,1,1,0,0,0,0,0,0,0,0,0,0,0,,POINT (-87.65098882830188 41.48961079023881)
170,activity area,,41.4850464504376,-87.6541072052977,yes,"Forest Preserve Dr, north of W Sauk Trail","South Chicago Heights, IL 60411",,104,Thorn Creek ,Sauk 6,Sauk Trail Woods-South,Sauk Lake Woods,,0,0,0,0,0,0,0,0,0,1,1,0,0,1,0,0,0,0,0,0,1,0,0,0,1,0,0,0,0,0,0,0,1,0,0,0,0,0,0,1,0,0,1,0,0,0,0,0,0,0,0,0,1,0,0,0,0,0,0,0,0,0,0,0,0,,POINT (-87.65410720529775 41.48504645043757)
171,activity area,,41.4819627837202,-87.6591791127107,yes,"Sauk Trail, west of Ashland Ave","Cook County, IL 60475",,17,Thorn Creek ,Schuberts,Schubert's Woods,Sauk Trail Woods,,0,0,0,0,0,0,0,0,0,1,1,0,0,1,0,0,0,0,0,0,0,0,0,0,1,0,0,0,0,0,0,0,1,0,0,0,0,0,0,0,1,0,1,0,0,0,0,0,0,0,0,0,1,1,0,0,0,0,0,0,0,0,0,0,1,,POINT (-87.65917911271069 41.481962783720164)
172,activity area,,41.4746083515185,-87.6573409475099,yes,"Ashland Ave, south of Sauk Trail","Cook County, IL 60475",,16,Thorn Creek ,Kings,King's Grove,Steger Woods,,0,0,0,0,0,0,0,0,0,0,0,0,0,0,0,0,0,0,0,0,0,0,0,0,0,0,0,0,0,0,0,0,0,0,0,0,0,0,0,0,1,0,0,0,0,0,0,0,0,0,0,0,1,0,0,0,0,0,0,0,0,0,0,0,0,,POINT (-87.65734094750994 41.47460835151852)
173,activity area,,42.1100049270983,-88.1605143053909,yes,W Palatine Rd &amp; Stover Rd,"Cook County, IL 60010",,200,Northwest,,Old Stover Trailhead,Crabtree Preserve,,0,0,0,1,0,0,0,0,0,1,1,0,0,0,0,0,0,0,0,0,0,0,0,0,1,0,0,0,0,0,0,0,0,0,0,0,1,0,0,0,0,0,0,0,0,0,0,0,0,0,0,0,0,0,0,0,0,0,0,0,0,0,0,0,0,,POINT (-88.16051430539089 42.110004927098274)
174,activity area,,41.7173687063405,-87.8319407589553,yes,"W 95th St, east of S 88th Ave","Cook County, IL 60465",,62,Palos,,Hickory Hills Woods,Walnut Grove,,0,0,0,0,0,0,0,0,0,0,0,0,0,0,0,0,0,0,0,0,0,0,0,0,0,0,0,0,0,0,0,0,0,0,0,0,0,0,0,1,0,0,0,0,0,0,0,0,0,0,0,0,0,0,0,0,0,0,0,0,0,0,0,0,0,,POINT (-87.83194075895533 41.717368706340494)
175,activity area,,41.6435414162551,-87.8008654818297,yes,"Harlem Ave, south of W 135th St","Cook County, IL 60462",,47,Tinley Creek,,Turtlehead Lake,,,0,0,0,0,0,0,0,0,0,1,1,0,0,1,0,0,0,0,0,0,1,1,0,0,1,0,0,0,0,0,0,0,0,0,0,0,0,0,0,0,1,0,1,0,1,0,0,0,0,0,0,0,1,1,0,0,0,0,0,0,0,0,0,0,0,,POINT (-87.80086548182972 41.64354141625507)
176,activity area,,41.6341131124054,-87.7931189573635,yes,"Harlem Ave, north of W 143rd St","Cook County, IL 60483",,52,Tinley Creek,,Tinley Creek Woods,,,1,0,0,0,0,0,0,0,0,0,0,0,0,0,0,0,0,1,0,0,0,0,0,0,0,0,0,0,0,0,0,0,1,0,0,0,0,0,0,0,1,0,0,0,0,0,0,0,0,0,0,0,1,0,1,0,0,0,0,1,0,0,0,0,0,,POINT (-87.79311895736349 41.63411311240541)
177,activity area,,41.6423594279041,-87.7935023869443,yes,"Harlem Ave, south of W 135th St","Cook County, IL 60463",,49,Tinley Creek,,Bur Oak Woods,,,0,0,0,0,0,0,0,0,0,0,0,0,0,0,0,0,0,1,0,0,0,0,0,0,0,0,0,0,0,0,0,0,0,0,0,0,0,0,0,1,1,0,0,0,0,0,0,0,0,0,0,0,1,0,0,0,0,0,0,0,0,0,0,0,0,,POINT (-87.79350238694428 41.64235942790413)
178,activity area,,42.1374055223432,-88.077615691903,yes,"Dundee Rd, west of N Quentin Rd","Cook County, IL 60010",,204,Northwest,,Camp Alphonse,,,0,0,0,0,0,0,0,0,0,1,1,0,0,0,0,0,0,0,0,0,0,0,0,0,1,0,0,0,0,0,0,0,0,0,0,0,0,0,0,0,0,0,0,0,0,0,0,0,0,0,0,0,1,1,0,0,0,0,0,0,0,0,0,0,0,,POINT (-88.07761569190298 42.137405522343215)
179,camp,,42.1425331418696,-88.061528276085,yes,"1801 N Quentin Rd","Palatine, IL 60074",,186,Northwest,,Camp Reinberg,,,1,0,0,0,0,0,1,0,0,1,1,0,0,1,0,0,0,1,0,0,0,0,0,0,1,0,0,0,0,0,0,1,0,0,0,0,0,0,0,0,1,0,1,0,0,0,0,0,0,1,1,1,0,0,0,1,1,0,1,0,0,0,0,1,0,,POINT (-88.06152827608504 42.14253314186963)
180,activity area,,42.1458084260203,-88.0675454846771,yes,"N Quentin Rd, north of W Dundee Rd","Cook County, IL 60074",,157,Northwest,Deer Grove Main,Deer Grove,Jens Jensen Grasslands & Woods Land & Water Reserve,,1,0,0,1,0,0,0,0,0,1,1,0,0,1,0,0,0,1,1,0,1,0,0,0,1,0,0,0,0,0,0,0,0,0,0,0,0,0,0,1,1,1,1,1,0,0,0,1,0,0,0,0,1,1,1,0,0,0,0,1,0,0,0,0,1,,POINT (-88.06754548467714 42.14580842602032)
181,activity area,,42.1453926852363,-88.0455975774742,yes,"W Dundee Rd, west of N Hicks Rd","Cook County, IL 60074",,117,Northwest,,Deer Grove-East,Jens Jensen Grasslands & Woods Land & Water Reserve,,0,0,0,0,0,0,0,0,0,1,1,0,0,1,0,0,1,1,0,0,0,0,0,0,1,0,0,1,0,0,0,0,0,0,0,0,0,0,0,0,1,0,1,0,0,0,0,1,0,1,1,0,1,1,1,0,0,0,0,0,0,0,0,0,0,,POINT (-88.04559757747417 42.14539268523633)
182,golf course,,42.0747285259797,-88.0829431596196,yes,"2775 Ela Rd","Hoffman Estates, IL 60192",,208,Northwest,,Highland Woods Golf Course,,,0,0,0,0,0,0,0,0,0,0,0,0,0,0,0,1,0,0,0,0,0,0,0,1,0,0,0,0,0,0,0,0,0,0,0,0,0,0,0,0,0,0,0,0,0,0,0,0,0,0,0,0,0,0,0,0,0,0,0,0,0,0,0,0,0,,POINT (-88.08294315961965 42.07472852597974)
183,activity area,,42.0688220869821,-88.1127113082095,yes,"W Central Ave, east of Huntington Blvd/Freeman Rd","Hoffman Estates, IL 60195",,146,Northwest,,Grassy Ridge Meadow,Paul Douglas,,0,0,0,1,0,0,0,0,0,1,1,0,0,0,0,0,0,0,0,0,0,0,0,0,1,0,0,0,0,0,0,0,0,0,1,0,0,0,0,0,0,0,0,0,0,0,0,0,0,0,0,0,1,1,0,0,0,0,0,0,0,0,0,0,0,,POINT (-88.11271130820948 42.06882208698214)
184,activity area,,42.031877493316,-87.9988438073436,yes,"E Higgins Rd/Rte 72, west of N Arlington Heights Rd","Cook County, IL 60007",,316,Northwest,,Busse Forest-North,Busse Forest Nature Preserve,Ned Brown,0,0,0,0,0,0,0,0,0,0,0,0,0,0,0,0,0,1,0,0,0,0,0,0,1,0,0,0,0,0,0,0,0,0,0,0,0,0,0,1,1,0,0,0,0,0,0,1,0,0,1,0,1,0,1,0,0,0,0,0,0,0,0,0,0,,POINT (-87.99884380734365 42.03187749331595)
185,activity area,,42.0300801794323,-87.9884122721545,yes,"N Arlington Heights Rd, north of E Higgins Rd","Cook County, IL 60007",,166,Northwest,,Busse Forest Elk Pasture,Busse Woods,Ned Brown,0,0,0,0,0,0,0,0,0,1,1,0,0,1,0,0,0,0,0,0,0,0,0,0,1,0,0,0,0,0,0,0,0,0,0,0,1,0,0,0,0,0,1,0,0,0,0,1,0,1,1,0,1,0,1,0,0,0,0,0,0,0,0,0,1,,POINT (-87.98841227215448 42.03008017943232)
186,activity area,,42.017796585519,-87.9994657006447,yes,"S Arlington Heights Rd, south of Landmeier Rd","Elk Grove Village, IL 60007",,145,Northwest,Main Dam,Busse Forest Main Dam,Busse Woods,Ned Brown,1,0,0,0,0,0,0,0,0,1,1,0,0,1,0,0,0,0,0,0,1,1,0,0,1,0,0,0,0,0,0,0,0,0,0,0,0,0,0,0,1,0,1,0,0,0,0,1,0,1,1,1,1,1,1,0,0,0,0,0,0,0,1,0,0,,POINT (-87.9994657006447 42.01779658551901)
187,activity area,,42.0092281366681,-88.0188273950553,yes,"Beisner Rd, north of Biesterfield Rd","Cook County, IL 60007",,144,Northwest,Cosman,Busse Lake Beisner Road Access,Busse Woods,Ned Brown,1,0,0,0,0,0,0,0,0,1,1,0,0,1,0,0,0,0,0,0,1,1,0,0,1,0,0,0,0,0,0,0,0,0,0,0,0,0,0,0,1,0,1,0,0,0,0,1,0,0,1,1,0,0,0,0,0,0,0,1,0,0,1,0,0,,POINT (-88.01882739505527 42.00922813666812)
188,activity area,,42.0075658021473,-88.0308113776329,yes,"Rohlwing Rd, north of Biesterfield Rd","Elk Grove Village, IL 60007",,309,Northwest,Soccer Field,Woodland Meadow,,,0,0,0,0,0,0,0,0,0,1,1,0,0,1,0,0,0,0,0,0,0,0,0,0,1,0,0,0,0,0,0,0,0,0,0,0,0,0,0,0,0,0,1,0,0,0,0,0,0,0,0,0,1,0,0,0,0,0,0,0,0,0,0,0,0,,POINT (-88.03081137763287 42.007565802147326)
189,activity area,yes,42.0232733171737,-88.0144457833459,yes,"E Higgins Rd/Rte 72, east of I-290/Hwy 53","Cook County, IL 60007",,313,Northwest,Busse Res / Reservoir,Busse Lake Boating Center,Busse Woods,Ned Brown,1,0,0,0,1,1,0,0,0,1,1,0,0,1,0,0,0,0,0,0,1,1,0,0,1,0,0,0,0,0,0,0,0,0,0,0,0,0,0,1,1,1,0,0,0,0,0,1,0,1,1,1,1,0,1,0,0,0,0,1,1,0,1,0,0,,POINT (-88.0144457833459 42.02327331717375)
190,activity area,,42.0335152900459,-88.0152910948814,yes,"E Higgins Rd/Rte 72, east of I-290/Hwy 53","Cook County, IL 60007",,314,Northwest,Busse 31,Busse Forest-West,Busse Woods,Ned Brown,1,0,0,0,0,0,0,0,0,1,1,0,0,1,0,0,0,0,0,0,1,0,0,0,1,0,0,0,0,0,0,0,0,0,0,0,0,0,0,0,1,0,1,0,0,0,0,1,0,0,1,1,0,1,0,0,0,0,0,0,0,0,1,0,0,,POINT (-88.01529109488142 42.033515290045926)
191,activity area,,42.0322870992972,-88.0081935813046,yes,"E Higgins Rd/Rte 72, west of N Arlington Heights Rd","Cook County, IL 60007",,315,Northwest,Busse 4,Busse Forest-Central,Busse Woods,Ned Brown,0,0,0,0,0,0,0,0,0,1,1,0,0,1,0,0,0,1,0,0,0,0,0,0,1,0,0,0,0,0,0,0,1,0,0,0,0,0,0,0,1,0,1,0,0,0,0,1,0,0,1,0,0,0,0,0,0,0,0,0,0,0,0,0,0,,POINT (-88.00819358130464 42.03228709929718)
192,camp,,42.1502767028401,-87.897778764152,yes,"200 Portwine Rd","Northbrook, IL 60062",,171,Indian Boundary,,Camp Dan Beard,,,1,0,0,0,0,0,1,0,0,0,0,0,0,0,0,0,0,0,0,0,0,0,0,0,0,0,0,0,0,0,0,0,0,0,0,0,0,0,0,0,0,0,0,0,0,0,0,0,0,1,1,1,0,0,0,1,0,0,0,0,0,0,0,1,0,,POINT (-87.89777876415204 42.15027670284005)
193,activity area,,41.7409734968622,-87.6800029915432,yes,"S Western Ave, south of W 83rd St","Chicago, IL 60620",,131,Calumet,Circle,Dan Ryan Woods-Central,,,1,0,0,0,0,0,0,0,0,1,1,0,0,1,0,0,0,0,0,0,0,0,0,0,1,0,0,0,0,0,0,0,0,0,0,0,0,0,0,0,1,0,1,0,0,0,0,1,0,1,1,1,0,1,0,0,0,0,0,1,0,0,0,0,0,,POINT (-87.68000299154316 41.740973496862175)
194,activity area,,42.0513364233086,-88.195200778956,yes,"Sutton Rd/Rte 59, south of Shoe Factory Rd","Cook County, IL 60192",,156,Northwest,Hansen Woods,Carl R. Hansen Woods,Poplar Creek Prairie,Arthur L. Janura Preserve,0,0,0,0,0,0,0,0,0,1,1,0,0,1,0,0,0,1,0,0,0,0,0,0,1,0,0,0,0,0,0,0,0,0,0,0,0,0,0,0,1,0,0,0,0,0,0,1,0,0,0,0,1,1,0,0,0,0,0,0,0,0,0,0,1,,POINT (-88.19520077895605 42.05133642330856)
195,activity area,yes,42.0314130368377,-88.2141887750806,yes,"Schaumburg Rd, east of W Irving Park Rd","Cook County, IL 60120",,214,Northwest,Horse Lot,Poplar Creek Equestrian Parking,Arthur L. Janura Preserve,Schaumburg Road Grasslands,0,0,0,1,0,0,0,0,0,1,1,0,0,1,0,0,0,1,1,0,0,0,0,0,1,0,0,0,0,0,0,0,0,0,0,0,0,0,0,0,0,0,0,0,0,0,0,1,0,0,0,0,1,1,0,0,0,0,0,0,0,0,0,0,0,,POINT (-88.21418877508064 42.03141303683771)
196,activity area,,42.0426134084578,-88.1695492504472,yes,"E Bode Rd, east of Bartlett Rd","Hoffman Estates, IL 60107",,213,Northwest,,Bode Lake,Arthur L. Janura Preserve,,0,0,0,0,0,0,0,0,0,1,1,0,0,1,0,0,0,0,0,0,1,1,0,0,1,0,0,0,0,0,0,0,0,0,0,0,0,0,0,0,0,0,0,0,0,0,0,0,0,0,0,0,1,1,0,0,0,0,0,0,0,0,0,0,0,,POINT (-88.1695492504472 42.04261340845783)
197,activity area,yes,42.0568936109245,-88.1465392925414,yes,"S Barrington Rd, south of W Higgins Rd","Hoffman Estates, IL 60194",,160,Northwest,,Barrington Road Pond,Arthur L. Janura Preserve,,1,0,0,0,0,0,0,0,0,1,1,0,0,1,0,0,0,1,0,0,1,0,0,0,1,0,0,0,0,0,0,0,1,0,0,0,0,0,0,0,1,1,0,0,0,0,0,0,0,0,1,1,0,1,0,0,0,0,0,1,0,0,0,0,0,,POINT (-88.14653929254138 42.05689361092447)
198,activity area,,42.0619916007764,-88.1505442557089,yes,"Shoe Factory Rd, south of W Higgins Rd","Cook County, IL 60194",,209,Northwest,Shoe Factory Bike Lot,Poplar Creek Bicycle Lot,Arthur L. Janura Preserve,,0,1,0,0,0,0,0,0,0,1,1,0,0,1,0,0,0,0,0,0,0,0,0,0,1,0,0,0,0,0,0,0,0,0,0,0,0,0,0,0,0,0,1,0,0,0,0,0,0,0,0,0,1,0,0,0,0,0,0,0,0,0,0,0,0,,POINT (-88.15054425570891 42.06199160077635)
199,activity area,,42.0607039700717,-88.1600166649565,yes,"Shoe Factory Rd, east of Bartlett Rd","Hoffman Estates, IL 60010",,210,Northwest,,Poplar Creek Model Airplane Flying Field,Arthur L. Janura Preserve,,0,0,0,0,0,0,0,0,0,0,0,0,0,0,0,0,1,0,0,0,0,0,0,0,0,0,0,1,0,0,0,0,0,0,0,0,0,0,0,0,0,0,0,0,0,0,0,0,0,0,0,0,1,1,1,0,0,0,0,0,0,0,0,0,0,,POINT (-88.16001666495649 42.060703970071685)
200,activity area,,42.0612461697585,-88.1914161022755,yes,"Shoe Factory Rd, east of Rte 59","Hoffman Estates, IL 60010",,211,Northwest,Shoe Factory Roadside,Great Egret Family Picnic Area,Arthur L. Janura Preserve,,0,0,0,1,0,0,0,0,0,1,1,0,0,1,0,0,0,1,0,0,0,0,0,0,1,0,0,0,0,0,0,0,0,0,0,0,0,0,0,0,0,0,0,0,0,0,0,0,0,0,0,0,1,0,0,0,0,0,0,0,0,0,0,0,0,,POINT (-88.19141610227547 42.06124616975852)
202,activity area,,42.0830028043958,-88.229444200305,yes,"W Higgins Rd/Rte 72, west of Beverly Rd","Cook County, IL 60010",,206,Northwest,,Beverly Lake,,,0,0,0,0,0,0,0,0,0,1,1,0,0,1,0,0,0,1,0,0,1,0,0,0,1,0,0,0,1,0,0,0,0,0,0,0,0,0,0,0,0,0,0,0,0,0,0,1,0,0,0,0,0,0,0,0,0,0,0,0,0,0,0,0,1,,POINT (-88.22944420030502 42.083002804395754)
203,activity area,,42.0976440338295,-88.2063243387835,yes,"East Penny Rd, west of Old Sutton Rd","Barrington Hills, IL 60010",,329,Northwest,,Penny Road Pond,Spring Lake,,0,0,0,0,0,0,0,0,0,0,0,0,0,0,0,0,0,1,0,0,1,0,0,0,0,0,0,0,0,0,0,0,0,0,0,0,0,0,0,0,0,0,0,0,0,0,0,1,0,0,0,0,1,1,0,0,0,0,0,0,0,0,0,0,0,,POINT (-88.20632433878347 42.09764403382954)
204,activity area,,42.0526526341196,-87.8858638086947,yes,"S River Rd, south of E Golf Rd","Des Plaines, IL 60016",,149,Indian Boundary,,Lions Woods,,,1,0,0,0,0,0,0,0,0,0,0,0,0,0,0,0,0,0,0,0,0,0,0,0,0,0,0,0,0,0,0,0,0,0,0,0,0,0,0,0,1,0,0,0,0,0,0,0,0,0,0,0,1,0,1,0,0,0,0,1,0,0,0,0,0,,POINT (-87.88586380869471 42.052652634119596)
205,activity area,,42.0365016845696,-87.8812411215375,yes,"Joseph Schwab Rd, south of Minor St","Des Plaines, IL 60016",,324,Indian Boundary,,Northwestern Woods,,,0,0,0,0,0,0,0,1,0,0,0,0,0,0,0,0,0,0,0,0,0,0,0,0,0,0,0,0,0,0,0,0,1,0,0,0,0,0,0,0,0,0,0,0,0,0,0,0,0,0,0,0,0,0,0,0,0,0,0,0,0,0,0,0,0,,POINT (-87.8812411215375 42.03650168456964)
206,activity area,,42.140929669261,-87.9011610905798,yes,"E Dundee Rd, east of N Milwaukee Ave","Cook County, IL 60062",,158,Indian Boundary,,Potawatomi Woods,,,1,0,0,0,0,0,0,0,0,1,1,0,0,1,0,0,0,1,0,0,1,0,0,0,1,0,0,0,1,0,0,0,1,0,0,0,0,0,0,0,1,0,0,0,0,0,0,0,0,0,0,0,1,1,1,0,0,0,0,1,0,0,0,0,1,,POINT (-87.90116109057983 42.14092966926099)
207,activity area,,42.0298695309554,-87.8738567885705,yes,E Algonquin Rd &amp; Joseph Schwab Rd,"Des Plaines, IL 60016",,148,Indian Boundary,,Camp Ground Road Woods,,,1,0,0,0,0,0,0,0,0,1,1,0,0,1,0,0,0,0,0,0,0,0,0,0,1,0,0,0,0,0,0,0,0,0,0,0,0,0,0,0,1,0,0,0,0,0,0,0,0,0,0,0,1,1,1,0,0,0,0,1,0,0,0,0,0,,POINT (-87.87385678857054 42.02986953095538)
208,activity area,,42.0111744870307,-87.8641605932527,yes,"E Touhy Ave, west of Talcott Rd","Cook County, IL 60018",,292,Indian Boundary,,Iroquois Woods,,,0,0,0,0,0,0,0,0,0,0,0,0,0,0,0,0,0,0,0,0,0,0,0,0,0,0,0,0,0,0,0,0,0,0,0,0,0,0,0,1,0,0,0,0,0,0,0,0,0,0,0,0,1,0,0,0,0,0,0,0,0,0,0,0,0,,POINT (-87.86416059325275 42.011174487030736)
210,activity area,,42.0058625057602,-87.8655728150425,yes,"S River Rd, south of W Touhy Ave","Cook County, IL 60018",,291,Indian Boundary,,Chippewa Woods,Axehead Lake,,0,0,0,0,0,0,0,0,0,0,0,0,0,0,0,0,0,0,0,0,1,1,0,0,0,0,0,0,0,0,0,0,1,0,0,0,0,0,0,0,1,0,0,0,0,0,0,0,0,0,0,0,1,0,0,0,0,0,0,0,0,0,0,0,0,,POINT (-87.86557281504248 42.005862505760206)
211,activity area,,41.9988368882193,-87.8619941160047,yes,"S River Road, north of E Devon Ave","Cook County, IL 60018",,169,Indian Boundary,,Blandings Grove Family Picnic Area,,,0,0,0,0,0,0,0,0,0,0,0,0,0,0,0,0,0,0,0,0,0,0,0,0,0,0,0,0,0,0,0,0,0,0,0,0,0,0,0,0,0,0,0,0,0,0,0,0,0,0,0,0,0,0,0,0,0,0,0,0,0,0,0,0,0,,POINT (-87.86199411600472 41.99883688821926)
212,activity area,,41.9989636280138,-87.858311983299,yes,"S Dee Rd, north of Devon Ave","Park Ridge, IL 60068",,4,Indian Boundary,,Dam No. 4 Woods-East,Dam #4,Dam Number 4,1,0,0,0,0,0,0,0,0,1,1,0,0,1,0,0,0,1,0,0,0,0,0,0,1,0,0,0,0,0,0,0,0,0,0,0,0,0,0,0,1,0,0,0,0,0,0,0,0,0,0,0,1,1,1,0,0,0,0,1,0,0,0,0,0,,POINT (-87.85831198329905 41.99896362801379)
213,activity area,,41.9945458737574,-87.8606197771278,yes,"S River Road, south of E Devon Ave","Cook County, IL 60018",,167,Indian Boundary,,Blue Beech Family Picnic Area,,,0,0,0,0,0,0,0,0,0,0,0,0,0,0,0,0,0,0,0,0,0,0,0,0,0,0,0,0,0,0,0,0,0,0,0,0,0,0,0,0,0,0,0,0,0,0,0,0,0,0,0,0,0,0,0,0,0,0,0,0,0,0,0,0,0,,POINT (-87.86061977712784 41.99454587375742)
214,activity area,,41.9804593064413,-87.847738518705,yes,"N East River Rd, north of W Foster Ave","Chicago, IL 60656",,140,Indian Boundary,,Catherine Chevalier Woods,,,1,0,0,0,0,0,0,0,0,1,1,0,0,1,0,0,0,0,0,0,0,0,0,0,1,0,0,0,0,0,0,0,0,0,0,0,0,0,0,0,1,0,0,0,0,0,0,0,0,0,0,0,1,1,1,0,0,0,0,1,0,0,0,0,0,,POINT (-87.84773851870496 41.98045930644132)
215,activity area,,41.9719675552753,-87.8614477880949,yes,"Des Plaines River Rd, north of Lawrence Ave","Schiller Park, IL 60176",,222,Indian Boundary,,River Bend Family Picnic Area,,,0,0,0,0,0,0,0,0,0,0,0,0,0,0,0,0,0,0,0,0,0,0,0,0,0,0,0,0,0,0,0,0,0,0,0,0,0,0,0,0,0,0,0,0,0,0,0,0,0,0,0,0,0,0,0,0,0,0,0,0,0,0,0,0,0,,POINT (-87.86144778809492 41.97196755527527)
216,activity area,,41.9648813538582,-87.8540106231083,yes,"Lawrence Ave, west of N East River Rd","Chicago, IL 60656",,141,Indian Boundary,,Robinson Woods-South,,,0,0,0,0,0,0,0,0,0,1,1,0,0,1,0,0,0,1,0,0,0,0,0,0,1,0,0,0,0,0,0,0,0,0,0,0,0,0,0,0,1,0,0,0,0,0,0,1,0,0,0,0,1,0,1,0,0,0,0,0,0,0,0,0,0,,POINT (-87.8540106231083 41.9648813538582)
217,activity area,,41.9540070764416,-87.8565739467664,yes,"Des Plaines River Rd, north of Irving Park Rd","Schiller Park, IL 60176",,25,Indian Boundary,Canoe Launch,Irving Park Road Canoe Landing,,,0,0,0,0,0,0,0,1,0,0,0,0,0,0,0,0,0,0,0,0,0,0,0,0,0,0,0,0,0,0,0,0,0,0,0,0,0,0,0,0,0,0,0,0,0,0,0,0,0,0,0,0,0,0,0,0,0,0,0,0,0,0,0,0,0,,POINT (-87.85657394676639 41.95400707644159)
218,activity area,,41.9555767610494,-87.8518596767564,yes,"W Irving Park Rd, east of Des Plaines River Rd","Schiller Park, IL 60634",,129,Indian Boundary,Schiller 1-8,Schiller Woods-West,,,1,0,0,0,0,0,0,0,0,1,1,0,0,1,0,0,0,1,0,0,0,0,0,0,1,0,0,0,0,0,0,0,0,0,0,0,0,0,0,1,1,0,0,0,0,0,0,1,0,0,0,0,1,0,1,0,0,0,0,1,0,0,0,0,0,,POINT (-87.85185967675643 41.95557676104944)
219,activity area,,41.9520062574762,-87.8527092454164,yes,"W Irving Park Rd, east of Des Plaines River Rd","Schiller Park, IL 60634",,130,Indian Boundary,Schiller 15,Schiller Woods-South,,,0,0,0,0,0,0,0,0,0,1,1,0,0,1,0,0,0,1,0,0,0,0,0,0,1,0,0,0,0,0,0,0,0,0,0,0,0,0,0,0,0,0,0,0,0,0,0,1,0,0,0,0,0,0,0,0,0,0,0,0,0,0,0,0,0,,POINT (-87.85270924541643 41.952006257476164)
220,activity area,,41.9576718946979,-87.8343224881557,yes,"W Montrose Ave, east of N Cumberland Ave","Chicago, IL 60706",,125,Indian Boundary,,Schiller Playfield,,,0,0,0,0,0,0,0,0,0,0,0,0,0,0,0,0,0,0,0,0,0,0,0,0,0,0,0,0,0,0,0,0,0,0,0,0,0,0,0,0,0,0,0,0,0,0,0,1,0,0,0,0,0,0,0,0,0,0,0,0,0,0,0,0,0,,POINT (-87.83432248815568 41.95767189469793)
221,activity area,,41.9546211978816,-87.8438668394211,yes,"W Irving Park Rd, west of N Cumberland Ave","Chicago, IL 60634",,128,Indian Boundary,Schiller 9-14,Schiller Woods-East,Schiller Pond,,1,0,0,0,0,0,0,0,0,1,1,0,0,1,0,0,0,1,0,0,1,0,0,0,1,0,0,0,0,0,0,0,0,0,0,0,0,0,0,0,1,0,0,1,0,0,0,1,0,0,1,1,1,1,1,0,0,0,0,1,0,0,0,0,0,,POINT (-87.84386683942112 41.95462119788156)
222,activity area,,41.9511220417697,-87.841470474353,yes,"W Irving Park Rd, west of N Cumberland Ave","Chicago, IL 60634",,223,Indian Boundary,,Schiller Model Airplane Flying Field,,,0,0,0,0,0,0,0,0,0,0,0,0,0,0,0,0,0,0,0,0,0,0,0,0,0,0,0,1,0,0,0,0,0,0,0,0,0,0,0,0,0,0,0,0,0,0,0,1,0,0,0,0,1,1,1,0,0,0,0,0,0,0,0,0,0,,POINT (-87.84147047435297 41.95112204176969)
223,activity area,,41.9511168909162,-87.8462614966239,yes,"W Irving Park Ave, west of N Cumberland Ave","Chicago, IL 60634",,127,Indian Boundary,,Che Che Pin Qua Woods,Schiller Woods,,0,0,0,0,0,0,0,0,0,0,0,0,0,0,0,0,0,0,0,0,0,0,0,0,0,0,0,0,0,0,0,0,0,0,0,0,0,0,0,1,0,0,0,0,0,0,0,1,0,0,0,0,1,0,0,0,0,0,0,0,0,0,0,0,0,,POINT (-87.84626149662387 41.951116890916154)
224,activity area,,41.9460935077462,-87.8548410436144,yes,"Des Plaines River Rd, south of Irving Park Ave","Cook County, IL 60176",,224,Indian Boundary,,Indian Boundary Family Picnic Area,,,0,0,0,0,0,0,0,0,0,0,0,0,0,0,0,0,0,0,0,0,0,0,0,0,0,0,0,0,0,0,0,0,0,0,0,0,0,0,0,0,0,0,0,0,0,0,0,0,0,0,0,0,0,0,0,0,0,0,0,0,0,0,0,0,0,,POINT (-87.85484104361437 41.94609350774622)
225,golf course,,41.9416931694649,-87.8439361524095,yes,"8600 W Forest Preserve Dr","Chicago, IL 60634",,225,Indian Boundary,,Indian Boundary Golf Course,,,0,0,0,0,0,0,0,0,0,0,0,0,0,0,0,0,0,0,0,0,0,0,0,1,0,0,0,0,0,0,0,0,0,0,0,0,0,0,0,0,0,0,0,0,0,0,0,0,0,0,0,0,0,0,0,0,0,0,0,0,0,0,0,0,0,,POINT (-87.84393615240953 41.941693169464905)
227,activity area,,41.9221597277647,-87.8372456391826,yes,"W Fullerton Ave, west of N 1st Ave","River Grove, IL 60171",,20,Indian Boundary,,Fullerton Woods,La Framboise Woods,,0,0,0,0,0,0,0,0,0,1,1,0,0,1,0,0,0,0,0,0,0,0,0,0,1,0,0,0,0,0,0,0,0,0,0,0,0,0,0,0,1,0,0,0,0,0,0,0,0,0,0,0,1,0,0,0,0,0,0,0,0,0,0,0,0,,POINT (-87.83724563918263 41.9221597277647)
228,activity area,,41.9209089495752,-87.8336038538781,yes,"N Thatcher Ave, south of W Fullerton Ave","River Grove, IL 60171",,305,Indian Boundary,,Jerome Huppert Woods,,,0,0,0,0,0,0,0,0,0,1,1,0,0,1,0,0,0,0,0,0,0,0,0,0,1,0,0,0,0,0,0,0,0,0,0,0,0,0,0,0,1,0,0,0,0,0,0,0,0,0,0,0,1,0,1,0,0,0,0,0,0,0,0,0,0,,POINT (-87.83360385387815 41.92090894957521)
229,activity area,,41.9131317474444,-87.8266771574922,yes,W Bloomingdale Ave & Thatcher Ave,"River Grove, IL 60171",,19,Indian Boundary,,Evans Field,,,0,0,0,0,0,0,0,0,0,1,1,0,0,1,0,0,0,0,0,0,0,0,0,0,1,0,0,0,0,0,0,0,0,0,0,0,0,0,0,0,1,0,0,0,0,0,0,0,0,0,1,0,0,0,0,0,0,0,0,0,0,0,0,0,0,,POINT (-87.82667715749216 41.91313174744438)
230,activity area,,41.9092178550446,-87.8307008681008,yes,"North Ave, east of N 1st Ave","River Grove, IL 60171",,23,Indian Boundary,,Sunset Bridge Meadow,,,1,0,0,0,0,0,0,0,0,1,1,0,0,1,0,0,0,0,0,0,0,0,0,0,1,0,0,0,0,0,0,0,0,0,0,0,0,0,0,0,1,0,0,0,0,0,0,0,0,0,1,1,0,0,0,0,0,0,0,1,0,0,0,0,0,,POINT (-87.8307008681008 41.909217855044595)
231,activity area,,41.9006040669452,-87.8344277818415,yes,"N 1st Ave, north of Chicago Ave","Melrose Park, IL 60160",,18,Indian Boundary,,Silver Creek Family Picnic Area,,,0,0,0,0,0,0,0,0,0,0,0,0,0,0,0,0,0,1,0,0,0,0,0,0,0,0,0,0,0,0,0,0,0,0,0,0,0,0,0,0,0,0,0,0,0,0,0,0,0,0,0,0,0,0,0,0,0,0,0,0,0,0,0,0,0,,POINT (-87.83442778184154 41.900604066945235)
232,activity area,,41.8958578810639,-87.8308902275865,yes,"Chicago Ave, west of Thatcher Ave","River Forest, IL 60305",,27,Indian Boundary,,Thatcher Woods,,,0,0,0,1,0,0,0,0,0,0,0,0,0,1,0,0,1,1,0,0,0,0,0,0,1,1,0,0,0,0,0,0,0,0,0,0,0,1,1,1,1,0,0,0,0,0,0,1,0,1,1,1,1,1,1,0,0,0,0,0,0,0,0,0,1,,POINT (-87.83089022758648 41.89585788106394)
233,nature center,yes,41.8932453500765,-87.8263054594212,yes,"738 Thatcher Ave","River Forest, IL 60305",,172,Indian Boundary,,Trailside Museum of Natural History,Hal Tyrell Trailside Museum,,0,0,0,1,0,0,0,0,0,0,0,0,0,0,0,0,0,1,0,0,1,0,0,0,1,0,0,0,0,1,0,1,0,1,0,0,0,0,0,0,0,0,0,0,0,0,0,1,0,1,1,1,0,0,0,0,0,0,0,0,0,0,0,0,0,POINT (-87.8271449812722 41.8938080083357),POINT (-87.82630545942123 41.8932453500765)
234,activity area,,41.8907348184003,-87.8324307583225,yes,Ohio St & Des Plaines Ave,"Maywood, IL 60153",,8,Indian Boundary,,Maywood Grove,,,1,0,0,0,0,0,0,1,0,0,0,0,0,0,0,0,0,0,0,0,0,0,0,0,0,0,0,0,0,0,0,0,0,0,0,0,0,0,0,0,1,0,0,0,0,0,0,0,0,0,0,0,1,0,1,0,0,0,0,1,0,0,0,0,0,,POINT (-87.83243075832246 41.89073481840029)
235,activity area,,41.8842302444367,-87.8334088118884,yes,"1st Ave, north of Washington Blvd","Cook County, IL 60153",,228,Indian Boundary,,Quercus Woods Family Picnic Area,,,0,0,0,0,0,0,0,0,0,0,0,0,0,0,0,0,0,0,0,0,0,0,0,0,0,0,0,0,0,0,0,0,0,0,0,0,0,0,0,0,0,0,0,0,0,0,0,0,0,0,0,0,0,0,0,0,0,0,0,0,0,0,0,0,0,,POINT (-87.83340881188842 41.88423024443671)
236,activity area,,41.8631474158919,-87.829612704307,yes,"Roosevelt Rd, east of 1st Ave","Cook County, IL 60130",,5,Salt Creek,,Miller Meadow-North,George A. Miller Meadow,,0,0,0,0,0,0,0,0,0,0,0,0,0,0,0,0,0,1,0,0,0,0,0,0,0,0,1,0,0,0,0,0,0,0,0,0,0,0,0,1,1,0,0,0,0,0,0,0,0,0,0,0,1,0,1,0,0,0,0,0,0,0,0,0,0,,POINT (-87.82961270430704 41.86314741589194)
237,activity area,,41.8579385993819,-87.8296783779468,yes,"1st Ave, south of Roosevelt Rd","Cook County, IL 60130",,7,Salt Creek,,Miller Meadow-South,George A. Miller Meadow,,0,0,0,1,0,0,0,0,0,1,1,0,1,1,0,0,0,1,0,0,0,0,0,0,1,0,1,0,0,0,0,0,0,0,0,0,0,0,0,1,1,0,1,0,0,0,0,0,0,0,0,0,1,1,1,0,0,0,0,0,0,0,0,0,0,,POINT (-87.82967837794678 41.85793859938192)
238,activity area,,41.8510950088328,-87.8235663229636,yes,"W Cermak Rd, west of Des Plaines Ave","Cook County, IL 60546",,44,Salt Creek,,Schuth's Grove,,,0,0,0,0,0,0,0,0,0,0,0,0,0,0,0,0,0,0,0,0,0,0,0,0,0,0,0,0,0,0,0,0,0,0,0,0,0,0,0,1,1,0,0,0,0,0,0,0,0,0,0,0,1,1,1,0,0,0,0,0,1,0,0,0,0,,POINT (-87.82356632296361 41.85109500883282)
239,activity area,,41.8491340439397,-87.8240729452461,yes,"W Cermak Rd, west of Des Plaines Ave","North Riverside, IL 60546",,173,Salt Creek,Callahan,Callahan Grove,,,0,0,0,0,0,0,0,0,0,0,0,0,0,0,0,0,0,0,0,0,0,0,0,0,0,0,0,0,0,0,0,0,0,0,0,0,0,0,0,0,0,0,0,0,0,0,0,0,0,0,0,0,0,0,0,0,0,0,0,0,0,0,0,0,0,,POINT (-87.82407294524606 41.84913404393974)
240,activity area,,41.8360866824053,-87.8289621001368,yes,"1st Ave, north of 31st St","North Riverside, IL 60546",,42,Salt Creek,McCormick,McCormick Woods,,,0,0,0,0,0,0,0,0,0,0,0,0,0,0,0,0,0,1,0,0,0,0,0,0,0,0,0,0,0,0,0,0,0,0,0,0,0,0,0,0,1,0,0,0,0,0,0,1,0,0,0,0,1,0,0,0,0,0,0,0,0,0,0,0,0,,POINT (-87.82896210013683 41.83608668240528)
241,activity area,,41.8389220614501,-87.8262254319534,yes,"Groveland Ave, north of 31st St","North Riverside, IL 60546",,318,Salt Creek,,National Grove-South,,,0,0,0,0,0,0,0,0,0,0,0,0,0,0,0,0,0,0,0,0,0,0,0,0,0,0,0,0,0,0,0,0,0,0,0,0,0,0,0,1,1,0,0,0,0,0,0,0,0,0,1,0,1,0,0,0,0,0,0,0,0,0,0,0,0,,POINT (-87.82622543195338 41.83892206145007)
242,activity area,,41.8322140755852,-87.8278518410139,yes,"1st Ave, south of 31st Ave","Riverside, IL 60546",,319,Salt Creek,,Zoo Woods,,,0,0,0,0,0,0,0,0,0,0,0,0,0,0,0,0,0,1,0,0,0,0,0,0,0,0,0,0,0,0,0,0,0,0,0,0,0,0,0,0,0,0,0,0,0,0,0,0,0,0,0,0,1,0,0,0,0,0,0,0,0,0,0,0,0,,POINT (-87.82785184101391 41.83221407558522)
243,activity area,,41.8361021891101,-87.8390820642008,yes,"31st St, west of 1st Ave","Brookfield, IL 60513",,28,Salt Creek,Brookfield,Brookfield Woods,,,1,0,0,0,0,0,0,0,0,1,1,0,0,1,0,0,0,1,0,0,0,0,0,0,1,0,0,0,0,0,0,0,0,0,0,0,0,0,0,0,1,0,1,0,0,0,0,1,0,0,0,0,1,1,1,0,0,0,0,1,0,0,0,0,0,,POINT (-87.83908206420084 41.836102189110086)
245,activity area,,41.8424268771956,-87.8529654245689,yes,"26th St, west of Maple Ave","Cook County, IL 60526",,307,Salt Creek,Twenty-six East,Twenty-Sixth Street Woods-East,,,0,0,0,0,0,0,0,0,0,0,0,0,0,0,0,0,0,0,0,0,0,0,0,0,0,0,0,0,0,0,0,0,0,0,0,0,0,0,0,1,0,0,0,0,0,0,0,0,0,0,0,0,1,0,0,0,0,0,0,0,0,0,0,0,0,,POINT (-87.85296542456888 41.842426877195635)
246,activity area,,41.8424214399379,-87.8571287943641,yes,"26th St, east of S 25th Ave","Cook County, IL 60526",,306,Salt Creek,Twenty-six West,Twenty-Sixth Street Woods-West,,,0,0,0,0,0,0,0,1,0,1,1,0,0,1,0,0,0,0,0,0,0,0,0,0,1,0,0,0,0,0,0,0,0,0,0,0,0,0,0,0,1,0,1,0,0,0,0,0,0,0,0,0,1,0,0,0,0,0,0,0,0,0,0,0,0,,POINT (-87.85712879436406 41.84242143993787)
247,activity area,,41.8439995223769,-87.8737399389313,yes,"N La Grange Rd, south of W Cermak Rd","Cook County, IL 60526",,29,Salt Creek,,Brezina Woods,,,1,0,0,0,0,0,0,0,0,1,1,0,0,1,0,0,0,1,0,0,0,0,0,0,1,0,0,0,0,0,0,0,0,0,0,0,0,0,0,1,1,0,1,0,0,0,0,0,0,0,0,0,1,1,1,0,0,0,0,1,0,0,0,0,0,,POINT (-87.87373993893131 41.843999522376876)
248,activity area,,41.8358203522562,-87.8789010429209,yes,"W 31st St, west of S La Grange Rd","Cook County, IL 60526",,10,Salt Creek,Possum,Possum Hollow Woods,,,1,0,0,0,0,0,0,0,0,0,0,0,0,0,0,0,0,1,0,0,0,0,0,0,0,0,0,0,0,0,0,0,0,0,0,0,0,0,0,1,1,0,0,0,0,0,0,1,0,0,0,0,1,0,1,0,0,0,0,1,0,0,0,0,0,,POINT (-87.8789010429209 41.83582035225625)
249,activity area,,41.8333334802809,-87.8747941580405,yes,"W 31st St, west of S La Grange Rd","La Grange Park, IL 60526",,30,Salt Creek,LaGrange,LaGrange Park Woods,,,0,0,0,0,0,0,0,0,0,0,0,0,0,0,0,0,0,0,0,0,0,0,0,0,0,0,0,0,0,0,0,0,0,0,0,0,0,0,0,1,0,0,0,0,0,0,0,0,0,0,0,0,1,0,0,0,0,0,0,0,0,0,0,0,0,,POINT (-87.87479415804046 41.8333334802809)
250,activity area,,41.822174081128,-87.9095609951669,yes,"Ogden Ave, west of Wolf Rd","Cook County, IL 60558",,46,Salt Creek,,Bemis Woods-South,,,1,0,0,1,0,0,0,0,0,1,1,0,0,1,0,0,0,1,0,0,0,0,0,0,1,0,0,0,0,0,0,0,0,0,0,0,0,0,0,0,1,0,1,0,0,0,0,1,1,1,1,0,1,1,1,0,0,0,0,1,0,0,0,0,0,,POINT (-87.90956099516691 41.82217408112805)
252,golf course,,41.8324828476107,-87.9111610319633,yes,"11599 31st St","Hinsdale, IL 60523",,249,Salt Creek,,Meadowlark Golf Course,,,0,0,0,0,0,0,0,0,0,0,0,0,0,0,0,0,0,0,0,0,0,0,0,1,0,0,0,0,0,0,0,0,0,0,0,0,0,0,0,0,0,0,0,0,0,0,0,0,0,0,0,0,0,0,0,0,0,0,0,0,0,0,0,0,0,,POINT (-87.91116103196329 41.832482847610656)
253,activity area,,41.8170188897777,-87.8320019005662,yes,"Ogden Ave, east of 1st Ave","Riverside, IL 60534",,34,Salt Creek,Plank,Plank Road Meadow Boat Launch,,,0,0,0,0,1,0,0,1,0,0,0,0,0,0,0,0,0,0,0,0,0,0,1,0,0,0,0,0,0,0,0,0,0,0,0,0,0,0,0,0,0,0,0,0,0,0,0,0,0,0,0,0,1,0,0,0,0,0,0,0,0,0,0,0,0,,POINT (-87.83200190056617 41.81701888977766)
254,activity area,,41.8198402291522,-87.8112201802962,yes,"7600 W Ogden Ave","Lyons, IL 60534",,336,Salt Creek,Cermak,Cermak Woods,,,1,0,0,0,0,0,0,0,0,1,1,0,0,1,0,0,0,1,0,0,1,0,0,0,1,0,0,0,0,0,0,0,0,0,0,0,0,0,0,0,1,0,0,0,0,0,0,0,0,0,0,0,1,1,1,0,0,0,0,1,0,0,0,0,0,POINT (-87.81409342313798 41.82025871497492),POINT (-87.81122018029616 41.81984022915218)
255,activity area,,41.8194552655607,-87.807518407044,yes,Haas Ave &amp; Oakwood Ave,"Lyons, IL 60534",,38,Salt Creek,White Eagle 1,White Eagle Woods-North,,,0,0,0,0,0,0,0,0,0,0,0,0,0,0,0,0,0,0,0,0,0,0,0,0,0,0,0,0,0,0,0,0,1,0,0,0,0,0,0,0,1,0,0,0,0,0,0,0,0,0,0,0,1,0,0,0,0,0,0,0,0,0,0,0,0,,POINT (-87.80751840704401 41.819455265560684)
256,activity area,,41.8167823462076,-87.8051573041226,yes,"40th St, west of S Harlem Ave","Lyons, IL 60534",,39,Salt Creek,White Eagle2 or @ grove 3,White Eagle Woods-South,,,0,0,0,0,0,0,0,0,0,0,0,0,0,0,0,0,0,0,0,0,0,0,0,0,0,0,0,0,0,0,0,0,1,0,0,0,0,0,0,0,1,0,0,0,0,0,0,0,0,0,0,0,1,0,0,0,0,0,0,0,0,0,0,0,0,,POINT (-87.80515730412263 41.81678234620756)
257,activity area,,41.8151996153876,-87.8049194397712,yes,"Joliet Ave, west of S Harlem Ave","Lyons, IL 60534",,308,Salt Creek,Ottawa 3,Ottawa Trail Woods-North,Laughton Trading Post and Ford,,0,0,0,0,0,0,0,0,0,0,0,0,0,0,0,0,0,0,0,0,0,0,0,0,0,0,0,0,0,0,0,0,1,0,0,0,0,0,0,1,0,0,0,0,0,0,0,0,0,0,0,0,1,0,0,0,0,0,0,0,0,0,0,0,0,,POINT (-87.80491943977117 41.81519961538756)
258,activity area,,41.8104318048941,-87.8045734564458,yes,"47th St, west of S Harlem Ave","Lyons, IL 60534",,36,Salt Creek,,Ottawa Trail Woods-South,Laughton Trading Post and Ford,,0,0,0,1,0,0,0,0,0,0,0,0,0,0,0,0,0,1,0,0,0,0,0,0,0,0,0,0,0,0,0,0,1,0,0,0,0,0,0,1,1,0,0,0,0,0,0,0,0,0,0,0,1,0,0,0,0,0,0,0,0,0,0,0,0,,POINT (-87.80457345644582 41.81043180489405)
259,activity area,,41.8126940268728,-87.8103620455888,yes,"Joliet Ave/43rd St, west of S Harlem Ave","Lyons, IL 60534",,244,Salt Creek,Stony,Stony Ford Canoe Landing,,,0,0,0,0,0,0,0,1,0,1,1,0,0,1,0,0,0,0,0,0,0,0,0,0,1,0,0,0,0,0,0,0,0,0,0,0,0,0,0,0,0,0,0,0,0,0,0,0,0,0,0,0,0,0,0,0,0,0,0,0,0,0,0,0,0,,POINT (-87.81036204558878 41.812694026872805)
260,activity area,,41.8053117330476,-87.8025320640395,yes,"S Harlem Ave, south of 47th St","Lyons, IL 60402",,245,Salt Creek,Portage,Chicago Portage National Historic Site,,,0,0,0,0,0,0,0,0,0,1,1,0,0,1,0,0,0,1,0,0,0,0,0,0,1,0,0,0,0,0,0,0,0,0,0,0,1,0,0,0,0,0,1,0,0,0,0,1,0,0,0,0,1,1,1,0,0,0,0,0,0,0,0,0,0,,POINT (-87.80253206403953 41.805311733047596)
261,activity area,,42.1398415653949,-87.8239718636402,yes,"Dundee Rd, east of S Waukegan Ave","Northbrook, IL 60062",,163,North Branch,,Somme Woods,Somme Prairie Grove Nature Preserve,Somme Prairie Nature Preserve,0,0,0,0,0,0,0,0,0,0,0,0,0,0,0,0,0,1,0,0,0,0,0,0,0,0,0,0,0,0,0,0,1,0,0,0,0,0,0,0,1,0,0,0,0,0,0,1,0,0,0,0,1,1,0,0,0,0,0,0,0,0,0,0,0,,POINT (-87.82397186364022 42.13984156539488)
262,activity area,,42.1497254851201,-87.774524965974,yes,"Green Bay Rd, south of Lake Cook Rd","Glencoe, IL 60022",,95,North Branch,,Turnbull Woods,William N. Erickson Preserves,,0,0,0,0,0,0,0,0,0,0,0,0,0,0,0,0,0,0,0,0,0,0,0,0,0,0,0,0,0,0,0,0,0,0,0,0,0,0,0,0,1,0,0,0,0,0,0,1,0,0,0,0,1,0,1,0,0,0,0,0,0,0,0,0,1,,POINT (-87.77452496597402 42.149725485120065)
263,special activity,,42.1503333831521,-87.7884428645227,yes,"1000 Lake Cook Rd","Glencoe, IL 60022",,229,North Branch,,Chicago Botanic Garden,,,0,0,0,1,0,0,0,0,0,0,1,0,0,0,0,0,0,0,0,0,0,0,0,0,1,0,0,0,0,0,0,0,0,0,1,0,0,0,0,0,0,0,0,0,0,0,0,0,0,1,1,1,0,0,0,0,0,0,0,0,0,0,0,0,0,,POINT (-87.7884428645227 42.150333383152145)
265,activity area,,42.1284467797302,-87.7753242898304,yes,"Forest Way Dr, south of Dundee Rd","Cook County, IL 60022",,94,North Branch,Strawberry Hill,Forest Way Grove,Skokie Lagoons,,0,0,0,0,0,0,0,0,0,1,1,0,0,1,0,0,0,0,0,0,1,0,0,0,1,0,0,0,0,0,0,0,0,0,0,0,0,0,0,1,1,0,1,0,0,0,0,1,0,0,0,0,1,1,1,0,0,0,0,0,0,0,0,0,0,,POINT (-87.77532428983035 42.1284467797302)
266,activity area,,42.1152537666724,-87.7735161995318,yes,"Tower Rd, west of Forestway Dr","Cook County, IL 60093",,232,North Branch,,Tower Road,Skokie Lagoons,,0,0,0,1,0,1,0,0,0,1,1,0,0,1,0,0,0,1,0,0,1,0,0,0,1,0,0,0,0,0,0,0,0,0,0,0,0,0,0,0,0,0,1,0,0,0,0,1,0,0,0,0,1,1,0,0,0,0,0,0,0,0,0,0,0,,POINT (-87.77351619953184 42.11525376667238)
267,activity area,yes,42.1147199116456,-87.7756590165727,yes,"Tower Rd, west of Forestway Dr","Cook County, IL 60093",,233,North Branch,,Tower Road Boat Launch,Skokie Lagoons,,1,0,0,1,1,0,0,0,0,1,1,0,0,1,0,0,0,0,1,0,1,0,0,0,1,0,0,0,0,0,0,0,0,0,0,0,0,0,0,0,0,0,1,0,0,0,0,1,0,0,0,0,1,0,1,0,0,0,0,0,0,1,1,0,0,,POINT (-87.7756590165727 42.114719911645594)
268,activity area,,42.1026157818642,-87.7650482342287,yes,"Willow Rd, east of I-94/Edens Expy","Cook County, IL 60093",,99,North Branch,,Erickson Woods,,,0,0,0,1,0,0,0,0,0,1,1,0,0,1,0,0,0,1,0,0,1,0,0,0,1,0,0,0,0,0,0,0,0,0,0,0,0,0,0,0,1,0,1,0,0,0,0,1,0,0,0,0,1,1,0,0,0,0,0,0,0,0,0,0,0,,POINT (-87.76504823422866 42.10261578186417)
269,activity area,,42.0790179616382,-87.7751659641332,yes,"E Lake Ave, east of Wagner Rd","Glenview, IL 60025",,14,North Branch,,Blue Star Memorial Woods,,,1,0,0,0,0,0,0,0,0,1,1,0,0,1,0,0,1,1,0,0,0,0,0,0,1,0,0,0,0,0,0,0,0,0,0,0,0,0,0,0,1,0,1,0,0,0,0,1,0,0,0,0,1,1,1,0,0,0,0,1,0,0,0,0,0,,POINT (-87.77516596413324 42.0790179616382)
270,activity area,,42.0675220471248,-87.772879596338,yes,"Harms Rd, south of Glenview Rd","Glenview, IL 60025",,236,North Branch,,Glenview Woods,Harms Woods,,0,0,0,0,0,0,0,0,0,1,1,0,0,1,0,0,0,0,0,0,0,0,0,0,1,0,0,0,0,0,0,0,0,0,0,0,0,0,0,0,0,0,1,0,0,0,0,0,0,0,0,0,1,1,0,0,0,0,0,0,0,0,0,0,0,,POINT (-87.772879596338 42.06752204712485)
271,activity area,,42.0611708252092,-87.7703983422186,yes,Harms Rd & Old Orchard Rd,"Cook County, IL 60192",,97,North Branch,,Harms Woods-North,George F. Nixon Forest,,1,0,0,1,0,0,0,0,0,1,1,0,0,1,0,0,0,1,0,0,0,0,0,0,1,0,0,0,0,0,0,0,0,0,0,0,0,0,0,1,1,0,1,0,0,0,0,1,0,0,1,1,0,1,1,0,0,0,0,1,0,0,0,0,1,,POINT (-87.77039834221863 42.061170825209224)
272,activity area,,42.0596404099249,-87.7698299662479,yes,"Harms Rd, south of Old Orchard Rd","Cook County, IL 60077",,96,North Branch,,Harms Woods-Central,George F. Nixon Forest,,0,0,0,0,0,0,0,0,0,1,1,0,0,1,0,0,0,1,0,0,0,0,0,0,1,0,0,0,0,0,0,0,0,0,0,0,0,0,0,1,1,0,1,0,0,0,0,1,0,0,0,0,1,0,0,0,0,0,0,0,0,0,0,0,0,,POINT (-87.7698299662479 42.05964040992494)
273,activity area,,42.0574509110955,-87.7694018094669,yes,"Harms Rd, north of Golf Rd","Cook County, IL 60077",,98,North Branch,,Harms Woods-South,George F. Nixon Forest,,0,0,0,0,0,0,0,0,0,1,1,0,0,1,0,0,0,1,0,0,0,0,0,0,1,0,0,0,0,0,0,0,0,0,0,0,0,0,0,1,1,0,0,0,0,0,0,1,0,0,0,0,1,0,0,0,0,0,0,0,0,0,0,0,0,,POINT (-87.76940180946691 42.05745091109546)
275,activity area,,42.055564393786,-87.7620691444572,yes,"Woods Dr, north of Golf Rd","Skokie, IL 60077",,237,North Branch,,Calvin R. Sutker Grove,George F. Nixon Forest,Harms Flatwoods Nature Preserve,0,0,0,0,0,0,0,0,0,1,1,0,0,1,0,0,0,1,0,0,0,0,0,0,1,0,0,0,0,0,0,0,0,0,0,0,0,0,0,0,0,0,0,0,0,0,0,0,0,0,0,0,0,0,0,0,0,0,0,0,0,0,0,0,0,,POINT (-87.76206914445719 42.05556439378596)
276,golf course,,42.0540237158714,-87.7790764934414,yes,"6145 Golf Rd","Morton Grove, IL 60053",,239,North Branch,,Chick Evans Golf Course,,,0,0,0,0,0,0,0,0,0,0,0,0,0,0,0,0,0,0,0,0,0,0,0,1,0,0,0,0,0,0,0,0,0,0,0,0,0,0,0,0,0,0,0,0,0,0,0,0,0,0,0,0,0,0,0,0,0,0,0,0,0,0,0,0,0,,POINT (-87.77907649344137 42.054023715871416)
277,activity area,,42.0431798236351,-87.7854703159285,yes,"W Dempster St, east of Lehigh Ave","Morton Grove, IL 60053",,293,North Branch,,Linne Woods,,,0,0,0,0,0,0,0,1,0,1,1,0,0,1,0,0,0,1,1,0,0,0,0,0,1,0,0,0,0,0,0,0,0,0,0,0,0,0,0,0,1,0,1,0,0,0,0,1,0,0,1,0,0,1,0,0,0,0,0,0,0,0,0,0,0,,POINT (-87.78547031592854 42.04317982363512)
278,activity area,,42.0424283847918,-87.7912467881797,yes,"Lehigh Ave, north of W Dempster Ave","Morton Grove, IL 60053",,2,North Branch,,Wayside Woods,,,0,0,0,0,0,0,0,0,0,0,0,0,0,0,0,0,0,1,0,0,0,0,0,0,0,0,0,0,0,0,0,0,1,0,0,0,0,0,0,0,1,0,0,0,0,0,0,1,0,0,0,0,1,1,0,0,0,0,0,0,0,0,0,0,0,,POINT (-87.7912467881797 42.04242838479184)
279,activity area,,42.0339879054951,-87.7907158709224,yes,"Lincoln Ave, south of W Dempster St","Morton Grove, IL 60053",,1,North Branch,,St. Paul Woods,Frank Bobrytzke,,1,0,0,0,0,0,0,0,0,0,0,0,0,0,0,0,0,1,0,0,0,0,0,0,0,0,1,0,0,0,0,0,0,0,0,0,0,0,0,0,1,0,0,0,0,0,0,1,0,0,0,0,1,1,1,0,0,0,0,1,0,0,0,0,0,,POINT (-87.79071587092236 42.03398790549511)
280,activity area,,42.0279997101784,-87.7933246412126,yes,"N Caldwell Ave, north of Oakton St","Morton Grove, IL 60053",,295,North Branch,,Miami Woods,Frank Bobrytzke,,0,0,0,1,0,0,0,0,0,1,1,0,0,1,0,0,0,1,0,0,0,0,0,0,1,0,0,0,0,0,0,0,0,0,0,0,0,0,0,0,1,0,1,0,0,0,0,1,0,0,0,0,1,1,0,0,0,0,0,0,0,0,0,0,0,,POINT (-87.7933246412126 42.02799971017842)
282,activity area,,42.005512877247,-87.7876426597229,yes,"W Harts Rd, southwest of W Touhy Ave","Niles, IL 60714",,142,North Branch,,Bunker Hill,Clayton F. Smith,Oxbow Prairie,1,0,0,1,0,0,0,0,0,1,1,0,0,1,0,0,0,1,0,0,0,0,0,0,1,0,0,0,0,0,0,0,0,0,0,0,0,0,0,0,1,0,1,0,0,0,0,1,0,0,1,1,1,1,1,0,0,0,0,1,0,0,0,0,0,,POINT (-87.78764265972295 42.005512877246986)
283,activity area,yes,41.998562036604,-87.7852861838492,yes,W Devon Ave & N Nagle Ave,"Chicago, IL 60646",,119,North Branch,,Caldwell Woods,Clayton F. Smith,,0,0,0,0,0,0,0,0,0,1,1,0,0,1,0,0,0,0,0,0,0,0,0,0,1,0,0,0,0,0,0,0,1,0,0,0,0,0,1,1,1,0,1,1,0,0,0,1,0,1,1,1,1,1,1,0,0,0,0,0,0,0,0,0,0,,POINT (-87.78528618384917 41.99856203660398)
284,aquatic center,yes,41.9978882667285,-87.78286806452,yes,"6200 W Devon Ave","Chicago, IL 60646",,241,North Branch,,Whealan Pool Aquatic Center,Clayton F. Smith,,0,0,0,0,0,0,0,0,0,0,0,0,0,0,0,0,0,0,0,0,0,0,0,0,0,0,0,0,0,0,0,0,0,1,0,0,0,0,0,0,0,0,0,0,0,1,0,0,0,1,1,1,0,0,0,0,0,0,0,0,0,0,0,0,0,,POINT (-87.78286806452003 41.997888266728495)
286,golf course,,41.9901761840279,-87.7596773224011,yes,"6150 Caldwell Ave","Chicago, IL 60646",,243,North Branch,,Billy Caldwell Golf Course,,,0,0,0,0,0,0,0,0,0,0,0,0,0,0,0,0,0,0,0,0,0,0,0,1,0,0,0,0,0,0,0,0,0,0,0,0,0,0,0,0,0,0,0,0,0,0,0,0,0,0,0,0,0,0,0,0,0,0,0,0,0,0,0,0,0,,POINT (-87.75967732240109 41.99017618402785)
287,activity area,,41.9918752576653,-87.7648014527618,yes,"Central Ave, south of N Lehigh Ave","Chicago, IL 60646",,120,North Branch,,Edgebrook Woods,Willow Road Woods,Sam Stewart Shelter,0,0,0,0,0,0,0,0,0,0,0,0,0,0,0,0,0,1,0,0,0,0,0,0,0,0,0,0,0,0,0,0,0,0,0,0,0,0,0,0,1,0,0,0,0,0,0,0,0,0,0,0,1,0,0,0,0,0,0,0,0,0,0,0,1,,POINT (-87.76480145276183 41.99187525766534)
288,activity area,,41.9815003035353,-87.7558766594084,yes,"N Forest Glen Ave, north of N Elston Ave","Chicago, IL 60630",,122,North Branch,,Forest Glen Woods,,,1,0,0,0,0,0,0,0,0,1,1,0,0,1,0,0,0,0,0,0,0,0,0,0,1,0,0,0,0,0,0,0,0,0,0,0,0,0,0,0,1,0,0,0,0,0,0,1,0,0,1,0,1,1,1,0,0,0,0,1,0,0,0,0,0,,POINT (-87.75587665940836 41.98150030353534)
289,activity area,,41.7695573676409,-87.8665835577705,yes,"67th St, east of S La Grange Rd","Hodgkins, IL 60525",,80,Salt Creek,,Theodore Stone Forest,Ted Stone Forest,,0,0,0,0,0,0,0,0,0,0,0,0,0,0,0,0,0,1,0,0,0,0,0,0,0,0,0,0,0,0,0,0,1,0,0,0,0,0,0,1,1,0,0,0,0,0,0,1,0,0,0,0,1,1,0,0,0,0,0,0,0,0,0,0,0,,POINT (-87.86658355777047 41.769557367640914)
290,activity area,,41.7683244161547,-87.8688827332962,yes,"S LaGrange Rd, north of 67th St","Countryside, IL 60525",,81,Salt Creek,,Sundown Meadow,Ida Lake,,0,0,0,0,0,0,0,0,0,1,1,0,0,1,0,0,0,1,0,0,1,1,0,0,1,0,0,0,1,0,0,0,0,0,0,0,0,0,0,1,1,0,0,0,0,0,0,1,0,0,0,0,1,1,0,0,0,0,0,0,0,0,0,0,0,,POINT (-87.86888273329625 41.768324416154684)
291,activity area,,41.7396726342208,-87.8484401598881,yes,"S Kean Ave, north of W 87th St","Cook County, IL 60480",,174,Palos,Buffalo #1,Buffalo Woods Family Picnic Area,Palos,,0,0,0,0,0,0,0,0,0,0,0,0,0,0,0,0,0,0,0,0,0,0,0,0,0,0,0,0,0,0,0,0,0,0,0,0,0,0,0,0,0,0,0,0,0,0,0,0,0,0,0,0,0,0,0,0,0,0,0,0,0,0,0,0,0,,POINT (-87.84844015988807 41.739672634220774)
292,activity area,,41.7381124964717,-87.8491747148588,yes,"S Kean Ave, north of W 87th St","Cook County, IL 60480",,63,Palos,Buffalo #2,Buffalo Woods-North,Palos,,0,0,0,0,0,0,0,0,0,1,1,0,0,1,0,0,0,0,0,0,0,0,0,0,1,0,0,0,0,0,0,0,0,0,0,0,0,0,0,0,1,0,0,0,0,0,0,0,0,0,0,0,1,0,0,0,0,0,0,0,0,0,0,0,0,,POINT (-87.84917471485878 41.738112496471665)
293,activity area,,41.736201476432,-87.8496783422963,yes,"S Kean Ave, north of W 87th St","Cook County, IL 60480",,64,Palos,Buffalo #3,Buffalo Woods-Central,Palos,,0,0,0,0,0,0,0,0,0,1,1,0,0,1,0,0,0,0,0,0,0,0,0,0,1,0,0,0,0,0,0,0,1,0,1,0,0,0,0,0,1,1,0,0,0,0,0,0,0,0,0,0,1,1,0,0,0,0,0,0,0,0,0,0,0,,POINT (-87.84967834229626 41.73620147643203)
294,activity area,,41.7335443585506,-87.8488160009683,yes,"W 87th St, west of S Kean Ave","Cook County, IL 60480",,65,Palos,Buffalo #4,Buffalo Woods-South,Palos,,0,0,0,0,0,0,0,0,0,1,1,0,0,1,0,0,0,0,0,0,0,0,0,0,1,0,0,0,0,0,0,0,0,0,0,0,0,0,0,0,1,0,0,0,0,0,0,0,0,0,0,0,1,0,0,0,0,0,0,0,0,0,0,0,0,,POINT (-87.84881600096826 41.73354435855056)
295,activity area,,41.7266160185095,-87.8529737668642,yes,"96th Ave, south of W 87th St","Cook County, IL 60480",,74,Palos,,Spears Woods,Palos,Hogwash Slough,0,0,0,0,0,0,0,0,0,1,1,0,0,1,0,0,0,1,0,0,0,0,0,0,1,0,0,0,0,0,0,0,0,0,0,0,0,0,0,1,0,0,0,0,0,0,0,1,0,0,0,0,1,0,0,0,0,0,0,0,0,0,0,0,0,,POINT (-87.85297376686424 41.72661601850946)
296,activity area,,41.7279399632128,-87.8730851816076,yes,"Willow Springs Rd, southeast of S Archer Ave","Cook County, IL 60480",,76,Palos,,Willow Springs Woods,Palos,,0,0,0,0,0,0,0,0,0,1,1,0,0,1,0,0,0,1,0,0,0,0,0,0,1,0,0,0,0,0,0,0,0,0,0,0,0,0,0,0,1,0,0,0,0,0,0,1,0,0,0,0,1,0,0,0,0,0,0,0,0,0,0,0,0,,POINT (-87.87308518160762 41.72793996321284)
297,activity area,yes,41.7333126271758,-87.8803606216548,yes,"Willow Blvd, north of Archer Ave","Willow Springs, IL 60480",,175,Palos,,John Husar I&M Canal Bicycle Trail Parking Lot,Palos,,0,1,0,0,0,0,0,0,0,1,1,0,0,1,0,0,0,0,0,0,0,0,0,0,1,0,0,0,0,0,0,0,0,0,0,0,0,0,0,0,0,0,1,0,0,0,0,0,0,1,1,0,0,0,0,0,0,0,0,0,0,0,0,0,0,,POINT (-87.8803606216548 41.733312627175835)
298,activity area,,41.7221746623421,-87.8500467714829,yes,"96th Ave, north of W 95th St","Cook County, IL 60480",,252,Palos,,Hidden Pond Woods-West,Palos,,0,0,0,0,0,0,0,0,0,1,1,0,0,1,0,0,0,1,1,0,0,0,0,0,1,0,0,0,0,0,0,0,0,0,1,0,0,0,0,0,0,1,0,0,0,0,0,1,0,0,0,0,0,0,0,0,0,0,0,0,0,0,0,0,0,,POINT (-87.85004677148291 41.722174662342134)
299,activity area,,41.7160829681697,-87.8634634737675,yes,"95th St, east of Flavin Rd/Willow Springs Rd","Cook County, IL 60480",,67,Palos,,Country Lane Woods,Palos,Cranberry Slough Nature Preserve,0,0,0,1,0,0,0,0,0,1,1,0,0,1,0,0,0,1,1,0,0,0,0,0,1,0,0,0,0,0,0,0,0,0,0,0,0,0,0,1,1,0,0,0,0,0,0,1,0,0,0,0,1,1,0,0,0,0,0,0,0,0,0,0,0,,POINT (-87.86346347376751 41.716082968169744)
300,activity area,,41.7093908550106,-87.8517825897334,yes,"96th Ave, south of W 95th St","Cook County, IL 60480",,253,Palos,,Belly Deep Slough,Palos,,0,0,0,0,0,0,0,0,0,0,0,0,0,0,0,0,0,0,0,0,1,0,0,0,0,0,0,0,0,0,0,0,0,0,0,0,0,0,0,0,0,0,0,0,0,0,0,0,0,0,0,0,0,0,0,0,0,0,0,0,0,0,0,0,0,,POINT (-87.85178258973342 41.70939085501058)
301,activity area,,41.7037039276196,-87.8549072084018,yes,"96th Ave, north of 107th St","Cook County, IL 60480",,75,Palos,,White Oak Woods,Palos,,0,0,0,0,0,0,0,0,0,0,0,0,0,0,0,0,0,0,0,0,0,0,0,0,0,0,0,0,0,0,0,0,0,0,0,0,0,0,0,1,0,0,0,0,0,0,0,0,0,0,0,0,0,0,0,0,0,0,0,0,0,0,0,0,0,,POINT (-87.85490720840177 41.7037039276196)
302,activity area,,41.7003826080725,-87.8508787299964,yes,"S La Grange Rd, north of 107th St","Cook County, IL 60480",,69,Palos,,Crooked Creek Woods,Palos,,0,0,0,0,0,0,0,0,0,0,0,0,0,0,0,0,0,0,0,0,0,0,0,0,0,0,0,0,0,0,0,0,0,0,0,0,0,0,0,1,1,0,0,0,0,0,0,0,0,0,0,0,1,0,0,0,0,0,0,0,0,0,0,0,0,,POINT (-87.85087872999641 41.70038260807251)
303,activity area,,41.6944142736113,-87.8592549226163,yes,"107th St, west of LaGrange Rd","Cook County, IL 60480",,254,Palos,Airplane/Snowmobile Field,Morrill Meadow,Palos,,0,0,0,0,0,0,0,0,0,0,0,0,0,0,0,0,0,0,0,0,0,0,0,0,0,0,0,1,0,0,0,0,0,0,0,0,0,0,0,0,0,0,0,0,1,0,0,0,0,0,0,0,1,1,1,0,0,0,0,0,0,0,0,0,0,,POINT (-87.85925492261627 41.694414273611294)
304,activity area,,41.6940961708859,-87.8654216213523,yes,"107th St, west of 96th Ave","Cook County, IL 60480",,255,Palos,,Dan McMahon Woods,Palos,McMahon Woods and Fen Nature Preserve,0,0,0,0,0,0,0,0,0,1,1,0,0,1,0,0,0,1,1,0,0,0,0,0,1,0,0,0,0,0,0,0,0,0,0,0,0,0,0,0,0,0,0,0,0,0,0,1,0,0,0,0,0,0,0,0,0,0,0,0,0,0,0,0,0,,POINT (-87.86542162135227 41.69409617088588)
305,activity area,,41.5922955339388,-87.7385941714512,yes,"167th St, west of Cicero Ave","Oak Forest, IL 60452",,282,Tinley Creek,Twin Lakes,Midlothian Reservoir,,,0,0,0,0,0,0,0,0,0,1,1,0,0,1,0,0,0,0,0,0,1,0,0,0,1,0,0,0,1,0,0,0,0,0,0,0,0,0,0,0,0,0,1,0,0,0,0,0,0,0,0,0,1,0,0,0,0,0,0,0,0,0,0,0,0,,POINT (-87.7385941714512 41.59229553393883)
306,activity area,,41.6102983743396,-87.7213583545987,yes,"Crawford Ave, north of W 159th St","Cook County, IL 60428",,83,Tinley Creek,,Midlothian Meadows,,,1,0,0,0,0,0,0,0,0,1,1,0,0,1,0,0,1,0,0,0,0,0,0,0,1,0,1,0,0,0,0,0,0,0,0,0,0,0,0,0,1,0,1,0,0,0,0,0,0,0,0,0,1,1,1,0,0,0,0,1,0,0,0,0,0,,POINT (-87.72135835459868 41.610298374339564)
307,activity area,,41.5493483564602,-87.7502665004988,yes,"Central Ave, north of Flossmoor Rd","Cook County, IL 60477",,284,Tinley Creek,,Bobolink Family Picnic Area,South Green Belt Preserves,Bobolink Meadow Land & Water Reserve,0,0,0,0,0,0,0,0,0,0,0,0,0,0,0,0,0,1,0,0,0,0,0,0,0,0,0,0,0,0,0,0,0,0,0,0,0,0,0,0,0,0,0,0,0,0,0,0,0,0,0,0,0,0,0,0,0,0,0,0,0,0,0,0,0,,POINT (-87.7502665004988 41.549348356460186)
308,activity area,,41.5367887384308,-87.7376719791108,yes,"Cicero Ave, south Flossmoor Rd","Cook County, IL 60478",,286,Tinley Creek,,Tinley Creek Model Airplane Flying Field,South Green Belt Preserves,,0,0,0,0,0,0,0,0,0,0,0,0,0,0,0,0,1,0,0,0,0,0,0,0,0,0,0,1,0,0,0,0,0,0,0,0,0,0,0,0,0,0,0,0,0,0,0,0,0,0,0,0,1,1,1,0,0,0,0,0,0,0,0,0,0,,POINT (-87.73767197911079 41.53678873843078)
309,activity area,,41.5285137711612,-87.7191628657529,yes,"Vollmer Rd, west of Crawford Ave","Cook County, IL 60478",,114,Tinley Creek,,Vollmer Road Grove,South Green Belt Preserves,,1,0,0,0,0,0,0,0,0,1,1,0,0,1,0,0,0,0,0,0,0,0,0,0,1,0,0,0,0,0,0,0,0,0,0,0,0,0,0,0,1,0,1,0,0,0,0,0,0,0,0,0,1,1,1,0,0,0,0,1,0,0,0,0,0,,POINT (-87.71916286575286 41.52851377116117)
310,activity area,yes,41.5420255245448,-87.7200442736559,yes,"Flossmoor Rd, west of Crawford Ave","Cook County, IL 60478",,287,Tinley Creek,,Flossmoor Road Bicycle Lot,South Green Belt Preserves,,0,1,0,0,0,0,0,0,0,1,1,0,0,1,0,0,0,0,0,0,0,0,0,0,1,0,0,0,0,0,0,0,0,0,0,0,0,0,0,0,0,0,0,0,0,0,0,0,0,0,0,0,1,1,0,0,0,0,0,0,0,0,0,0,0,,POINT (-87.72004427365593 41.542025524544776)
311,activity area,,41.7434783850364,-87.6804028881989,yes,"W 83rd St, east of S Western Ave","Chicago, IL 60620",,134,Calumet,Dan Ryan 15 & 16,Dan Ryan Woods-North,,,0,0,0,0,0,0,0,0,0,1,1,0,0,1,0,0,0,0,0,0,0,0,0,0,1,0,0,0,0,0,0,0,0,0,0,0,0,0,0,0,1,0,1,0,0,0,0,1,0,0,1,0,0,0,0,0,0,0,0,0,0,0,0,0,0,,POINT (-87.68040288819887 41.74347838503642)
312,activity area,,41.7363865597643,-87.6762222823147,yes,"W 87th St, west of S Damen Ave","Chicago, IL 60620",,132,Calumet,,Dan Ryan Woods-East,,,0,0,0,0,0,0,0,0,0,0,0,0,0,0,0,0,0,0,0,0,0,0,0,0,0,0,0,0,0,0,0,0,0,0,0,0,0,0,0,1,0,0,0,0,0,0,0,1,0,1,1,0,1,0,0,0,0,0,0,0,0,0,0,0,0,,POINT (-87.67622228231468 41.73638655976434)
313,activity area,,41.7376618343094,-87.6811370670119,yes,S Western Ave & W 87th St,"Chicago, IL 60620",,137,Calumet,Upstairs,Dan Ryan Woods Visitor Center,,,0,0,0,0,0,0,0,0,0,0,0,0,0,0,0,0,0,0,0,1,0,0,0,0,0,1,0,0,0,0,0,1,0,0,0,0,0,1,1,1,0,0,0,1,0,0,0,1,0,1,1,1,1,1,1,0,0,0,0,0,0,0,0,0,0,,POINT (-87.6811370670119 41.73766183430939)
314,activity area,,41.7287839027319,-87.6676634793653,yes,W 91st St &amp; S Hermitage Ave,"Chicago, IL 60620",,138,Calumet,Downstairs,Dan Ryan Woods-91st Street,,,0,0,0,0,0,0,0,0,0,0,0,0,0,0,0,0,0,0,0,0,0,0,0,0,0,0,0,0,0,0,0,0,0,0,0,0,0,0,0,1,0,0,0,0,0,0,0,1,0,0,0,0,1,1,0,0,0,0,0,0,0,0,0,0,0,,POINT (-87.6676634793653 41.7287839027319)
315,activity area,,41.6896544838719,-87.5277253266565,yes,E 112th St &amp; S Ave E,"Chicago, IL 60617",,139,Calumet,,Eggers Grove,,,1,0,0,1,0,0,0,0,0,1,1,0,0,1,0,0,0,1,0,0,0,0,0,0,1,0,0,0,0,0,0,0,0,0,0,0,0,0,0,1,1,0,1,0,0,0,0,1,0,0,1,1,1,1,1,0,0,0,0,1,0,0,0,0,1,,POINT (-87.52772532665651 41.689654483871934)
316,activity area,,41.6981493582936,-87.8694891004469,yes,"107th St, east of S Willow Springs Rd/Flavin Rd","Cook County, IL 60480",,72,Palos,,Pioneer Woods,Palos,,0,0,0,0,0,0,0,0,0,1,1,0,0,1,0,0,0,1,0,0,0,0,0,0,1,0,1,0,0,0,0,0,0,0,0,0,0,0,0,1,1,0,0,1,0,0,0,1,0,0,0,0,1,1,0,0,0,0,0,0,0,0,0,0,0,,POINT (-87.86948910044693 41.69814935829363)
317,activity area,,42.1333326053135,-87.899549404036,yes,"Dundee Rd, east of Milwaukee Ave","Wheeling, IL 60090",,159,Indian Boundary,,Dam No. 1 Woods-East,Dam #1,Dam Number 1,0,0,0,0,0,0,0,0,0,1,1,0,0,1,0,0,0,0,1,0,0,0,0,0,1,0,0,0,0,0,0,0,0,0,0,0,0,0,0,0,1,0,0,0,0,0,0,0,0,0,0,0,1,1,0,0,0,0,0,0,0,0,0,0,0,,POINT (-87.89954940403595 42.133332605313456)
319,nature center,yes,41.7089674264763,-87.8771527225816,yes,"9800 Willow Springs Rd","Willow Springs, IL 60480",,190,Palos,,Little Red Schoolhouse Nature Center,Palos,Longjohn Slough,0,0,0,1,0,0,0,0,0,0,0,0,0,0,0,0,0,1,0,0,0,0,0,0,1,0,0,0,0,1,0,1,0,1,1,0,0,0,0,0,0,0,0,0,0,0,0,1,0,1,1,1,0,0,0,0,0,0,0,0,0,0,0,0,0,,POINT (-87.87715272258161 41.708967426476335)
320,activity area,,41.7035559728452,-87.8965693928193,yes,"Wolf Rd, south of 95th St","Cook County, IL 60480",,77,Palos,,Wolf Road Woods,Palos,,1,0,0,0,0,0,0,0,0,1,1,0,0,1,0,0,0,0,0,0,0,0,0,0,1,0,0,0,0,0,0,0,0,0,1,0,0,0,0,1,1,0,0,0,0,0,0,0,0,0,0,0,1,0,1,0,0,0,0,1,0,0,0,0,0,,POINT (-87.89656939281927 41.70355597284518)
321,activity area,,41.7082132911923,-87.8992090679154,yes,"Wolf Rd, south of 95th St","Cook County, IL 60480",,73,Palos,Pulaski West,Pulaski Woods,Palos,,1,0,0,0,0,0,0,0,0,0,0,0,0,0,0,0,0,0,0,0,0,0,0,0,0,0,0,0,0,0,0,0,0,0,0,0,0,0,0,0,1,0,0,0,0,0,0,0,0,0,0,0,1,0,1,0,0,0,0,1,0,0,0,0,0,,POINT (-87.8992090679154 41.70821329119228)
322,activity area,,41.6971248197918,-87.8988175505694,yes,"107th St, west of S Willow Springs Rd/104th Ave","Cook County, IL 60480",,260,Palos,,Saganashkee Slough-Central,Palos,,0,0,0,0,0,0,0,0,0,0,0,0,0,0,0,0,0,0,0,0,1,1,0,0,0,0,0,0,0,0,0,0,0,0,0,0,0,0,0,0,0,0,0,0,0,0,0,0,0,0,0,0,0,0,0,0,0,0,0,0,0,0,0,0,0,,POINT (-87.89881755056939 41.69712481979176)
323,activity area,,41.6897510714664,-87.8763267927037,yes,"S Willow Springs Rd/104th Ave, north of Calumet Sag Rd/Rte 83","Cook County, IL 60480",,256,Palos,Sag Dam,Saganashkee Slough-East,Palos,,1,0,0,0,0,0,0,0,0,1,1,0,0,1,0,0,0,0,0,0,1,1,0,0,1,0,0,0,0,0,0,0,0,0,0,0,0,0,0,0,0,0,0,0,0,0,0,0,0,0,0,0,0,0,0,0,0,0,0,0,0,0,1,0,0,,POINT (-87.87632679270371 41.68975107146639)
324,activity area,,41.6965185903937,-87.9057957346235,yes,"107th St, west of S Willow Springs Rd/104th Ave","Cook County, IL 60480",,261,Palos,,Saganashkee Slough Boat Launch,Palos,,1,0,0,0,1,0,0,0,0,0,0,0,0,0,0,0,0,0,0,0,1,1,0,0,0,0,0,0,0,0,0,0,0,0,0,0,0,0,0,0,0,0,0,0,0,0,0,0,0,0,0,0,1,1,0,0,0,0,0,0,0,1,0,0,0,,POINT (-87.90579573462347 41.69651859039371)
325,activity area,,41.7108447407846,-87.8982229756887,yes,"Wolf Rd, south of 95th St","Cook County, IL 60480",,178,Palos,,Bullfrog Lake,,,0,0,0,0,0,0,0,1,0,1,1,0,0,1,0,0,0,0,0,0,1,1,0,0,1,0,0,0,0,0,0,0,0,0,0,0,0,0,0,0,0,0,0,0,0,0,0,0,0,0,0,0,1,1,0,0,0,0,0,0,0,0,0,0,0,,POINT (-87.89822297568873 41.71084474078457)
326,activity area,,41.7092809279654,-87.9117194734347,yes,"S Archer Ave, northeast of 107th St","Cook County, IL 60480",,155,Palos,,Red Gate Woods,Palos,,1,0,0,0,0,0,0,0,0,1,1,0,0,1,0,0,0,1,0,0,0,0,0,0,1,0,0,0,0,0,0,0,0,0,0,0,0,0,0,1,0,0,0,0,0,0,0,0,0,0,0,0,1,0,1,0,0,0,0,1,0,0,0,0,0,,POINT (-87.91171947343474 41.70928092796536)
327,activity area,,41.7133199401145,-87.9116200872061,yes,"S Archer Ave, northeast of 107th St","Cook County, IL 60480",,259,Palos,,Henry De Tonty Woods,Palos,,0,0,0,0,0,0,0,0,0,1,1,0,0,1,0,0,0,0,0,0,0,0,0,0,1,0,0,0,0,0,0,0,0,0,0,0,0,0,0,0,0,0,1,0,0,0,0,0,0,0,0,0,0,0,0,0,0,0,0,0,0,0,0,0,0,,POINT (-87.91162008720615 41.71331994011453)
328,activity area,,41.7084014700776,-87.8943652309315,yes,"Wolf Rd, south of 95th St","Cook County, IL 60480",,176,Palos,,Pulaski Woods-South,Palos,,0,0,0,0,0,0,0,0,0,1,1,0,0,1,0,0,0,0,0,0,0,0,0,0,1,0,0,0,0,0,0,0,0,0,0,0,0,0,0,0,0,0,0,0,0,0,0,0,0,0,0,0,0,0,0,0,0,0,0,0,0,0,0,0,0,,POINT (-87.89436523093153 41.70840147007757)
329,activity area,,41.7099478739675,-87.8945197461507,yes,"Wolf Rd, south of 95th St","Cook County, IL 60480",,179,Palos,,Pulaski Woods-East,Palos,,0,0,0,0,0,0,0,0,0,0,0,0,0,0,0,0,0,0,0,0,0,0,0,0,0,0,0,0,0,0,0,0,0,0,0,0,0,0,0,0,0,0,0,0,0,0,0,0,0,0,0,0,0,0,0,0,0,0,0,0,0,0,0,0,0,,POINT (-87.89451974615075 41.709947873967465)
330,activity area,,41.7159466827184,-87.8922922339976,yes,"95th St, southeast of S Archer Ave","Cook County, IL 60480",,258,Palos,,Maple Lake Overlook,Palos,,0,0,0,0,0,0,0,0,0,0,0,0,0,0,0,0,0,1,0,0,1,1,0,0,0,0,0,0,0,0,0,0,0,0,0,0,1,0,0,0,0,0,0,0,0,0,0,0,0,0,0,0,0,0,0,0,0,0,0,0,0,0,0,0,0,,POINT (-87.89229223399757 41.71594668271842)
331,activity area,yes,41.7155325651326,-87.8842461677673,yes,"95th St, west of Willow Springs Rd/Flavin Rd","Cook County, IL 60480",,71,Palos,,Maple Lake-East - Mountain Bike Staging Area,Palos,Mountain Bike Staging Area,0,1,0,0,0,0,0,0,0,1,1,0,0,1,0,0,0,0,0,0,1,1,0,0,1,0,0,0,0,0,0,0,0,0,0,0,0,0,0,1,0,0,0,0,0,0,0,0,0,0,0,0,1,1,1,0,0,0,0,0,0,0,0,0,1,,POINT (-87.88424616776734 41.71553256513261)
332,activity area,,41.6810084712786,-88.0281641389723,yes,"Bluff Rd, east of I-355","Cook County, IL 60439",,154,Palos,,Black Partridge Woods,Goose Lake,Black Partridge Woods Nature Preserve,0,0,0,0,0,0,0,0,0,0,0,0,0,0,0,0,0,1,0,0,0,0,0,0,0,0,0,0,0,0,0,0,1,1,1,0,0,0,0,0,0,0,0,0,0,0,0,1,0,0,0,0,0,0,0,0,0,0,0,0,0,0,0,0,0,,POINT (-88.02816413897233 41.68100847127858)
333,activity area,,41.6911388811042,-87.932471004962,yes,Archer Ave &amp; Old Archer Ave,"Cook County, IL 60439",,262,Palos,,Sag Quarries,Palos,,0,0,0,0,0,0,0,0,0,1,1,0,0,1,0,0,0,0,0,0,1,1,0,0,1,0,0,0,0,0,0,0,0,0,0,0,0,0,0,0,0,0,0,0,0,0,0,0,0,0,0,0,1,1,0,0,0,0,0,0,0,0,0,0,0,,POINT (-87.93247100496197 41.69113888110417)
334,nature center,yes,41.6887697796964,-87.9259655964425,yes,"12545 West 111th St","Lemont, IL 60439",,267,Palos,Camp Sagawau,Sagawau Environmental Learning Center,Palos,Sagawau Canyon Nature Preserve,0,0,0,1,0,0,0,0,0,1,0,0,0,0,0,0,0,1,0,0,0,0,0,0,1,0,0,0,0,1,0,0,0,1,0,0,0,0,0,0,0,0,0,0,0,0,0,1,0,1,1,1,0,0,0,0,0,0,0,0,0,0,0,0,0,,POINT (-87.92596559644247 41.6887697796964)
335,activity area,,42.1246733380038,-87.8964555068817,yes,E Hintz Rd &amp; Milwaukee Ave,"Wheeling, IL 60090",,325,Indian Boundary,,Dam No. 1 Woods-West,Dam #1,Dam Number 2,0,0,0,0,0,0,0,0,0,0,0,0,0,0,0,0,0,0,0,0,0,0,0,0,0,0,0,0,0,0,0,0,0,0,0,0,0,0,0,0,0,0,0,0,0,0,0,0,0,0,0,0,0,0,0,0,0,0,0,0,0,0,0,0,0,,POINT (-87.89645550688167 42.124673338003774)
336,activity area,,42.1180183922364,-87.8941782218279,yes,"Milwaukee Ave, south of E Hintz Rd","Cook County, IL 60090",,217,Indian Boundary,,Massasauga Family Picnic Area,,,0,0,0,0,0,0,0,0,0,0,0,0,0,0,0,0,0,0,0,0,0,0,0,0,0,0,0,0,0,0,0,0,0,0,0,0,0,0,0,0,0,0,0,0,0,0,0,0,0,0,0,0,0,0,0,0,0,0,0,0,0,0,0,0,0,,POINT (-87.89417822182786 42.1180183922364)
337,activity area,,42.10041591211,-87.8848414425994,yes,Milwaukee Ave &amp; Winkleman Rd,"Cook County, IL 60062",,161,Indian Boundary,,Allison Woods,,,1,0,0,0,0,0,0,1,0,1,1,0,0,1,0,0,0,0,0,0,0,0,0,0,1,0,0,0,0,0,0,0,0,0,0,0,0,0,0,0,1,0,0,0,0,0,0,0,0,0,0,0,1,0,1,0,0,0,0,1,0,0,0,0,0,,POINT (-87.88484144259935 42.10041591211003)
338,nature center,yes,42.0950110492189,-87.8848452803943,yes,"3120 Milwaukee Ave","Northbrook, IL 60062",,195,Indian Boundary,,River Trail Nature Center,,,0,0,0,1,0,0,0,0,0,0,0,0,0,0,0,0,0,1,0,0,0,0,0,0,1,0,0,0,0,1,0,1,0,1,0,0,0,0,0,0,0,0,0,0,0,0,0,1,0,1,1,1,0,0,0,0,0,0,0,0,0,0,0,0,1,,POINT (-87.88484528039427 42.09501104921893)
339,activity area,,42.0893008779824,-87.8840091744788,yes,"W Lake Ave/E Eucilid Ave, east of N Des Plaines River Rd","Cook County, IL 60062",,162,Indian Boundary,,Lake Avenue Woods-East,,,0,0,0,1,0,0,0,0,0,1,1,0,0,1,0,0,0,0,0,0,0,0,0,0,1,0,0,0,0,0,0,0,0,0,0,0,0,0,0,0,1,0,0,0,0,0,0,0,0,0,0,0,1,0,0,0,0,0,0,0,0,0,0,0,0,,POINT (-87.88400917447882 42.089300877982424)
340,activity area,,42.0886793575453,-87.8908761566271,yes,"N Des Plaines River Rd, north of W Lake Ave/E Euclid Ave","Cook County, IL 60056",,13,Indian Boundary,,Lake Avenue Woods-West,,,0,0,0,0,0,0,0,0,0,0,0,0,0,0,0,0,0,0,0,0,0,0,0,0,0,0,0,0,0,0,0,0,0,0,0,0,0,0,0,0,1,0,0,0,0,0,0,0,0,0,0,0,1,1,1,0,0,0,0,0,0,0,0,0,0,,POINT (-87.89087615662709 42.08867935754534)
341,activity area,,42.083520375377,-87.8918400816183,yes,"E Des Plaines River Rd, south of E Euclid Ave/W Lake Ave","Cook County, IL 60056",,12,Indian Boundary,,Dam No. 2 Woods,Dam #2,Dam Number 2,0,0,0,0,0,0,0,1,0,0,0,0,0,0,0,0,0,0,0,0,0,0,0,0,0,0,0,0,0,0,0,0,0,0,0,0,0,0,0,0,1,0,0,0,0,0,0,0,0,0,0,0,1,0,0,0,0,0,0,0,0,0,0,0,0,,POINT (-87.89184008161827 42.08352037537697)
342,activity area,,42.0846061245955,-87.888217428568,yes,"W Lake Ave/E Eucilid Ave, east of N Des Plaines River Rd","Cook County, IL 60056",,15,Indian Boundary,,Camp Pine Woods,,,0,0,0,0,0,0,0,0,0,1,1,0,0,1,0,0,0,0,0,0,0,0,0,0,1,0,0,0,0,0,0,0,0,0,0,0,0,0,0,1,0,0,0,0,0,0,0,1,0,0,0,0,1,0,0,0,0,0,0,0,0,0,0,0,0,,POINT (-87.888217428568 42.084606124595496)
343,activity area,yes,42.0724184979958,-87.8757112419312,yes,East River Rd &amp; Central Road,"Cook County, IL 60016",,219,Indian Boundary,,Beck Lake,,,0,0,0,0,1,0,0,0,0,1,1,0,1,1,0,0,0,0,0,0,1,1,0,0,1,0,0,0,0,0,0,0,0,0,0,0,0,0,0,0,0,0,0,0,0,0,0,0,0,0,0,0,1,1,1,0,0,0,0,0,0,0,0,0,0,,POINT (-87.87571124193116 42.07241849799585)
344,golf driving range,,42.0554751065771,-87.8967359616537,yes,"1150 E Golf Rd","Des Plaines, IL 60016",,194,Indian Boundary,,Harry H. Semrow Driving Range,,,0,0,0,0,0,0,0,0,0,0,0,0,0,0,0,1,0,0,0,0,0,0,0,0,0,0,0,0,0,0,0,0,0,0,0,0,0,0,0,0,0,0,0,0,0,0,0,0,0,0,0,0,0,0,0,0,0,0,0,0,0,0,0,0,0,,POINT (-87.89673596165368 42.05547510657715)
346,activity area,,42.0320951828018,-87.8676954904953,yes,"Busse Hwy, northwest of Oakton St","Park Ridge, IL 60068",,220,Indian Boundary,,Belleau Lake,,,0,0,0,0,0,0,0,0,0,0,0,0,0,0,0,0,0,0,0,0,1,1,0,0,0,0,0,0,0,0,0,0,0,0,0,0,0,0,0,0,0,0,0,0,0,0,0,0,0,0,0,0,1,1,0,0,0,0,0,0,0,0,0,0,0,,POINT (-87.86769549049528 42.03209518280179)
347,activity area,yes,42.137009455531,-88.2203580523533,yes,"Bateman Rd, north of Algonquin Rd","Barrington Hills, IL 60010",,197,Northwest,,Spring Lake Equestrian Parking,,,0,0,0,0,0,0,0,0,0,1,1,0,0,1,0,0,0,1,1,0,0,0,0,0,1,0,0,0,0,0,0,0,0,0,0,0,0,0,0,0,0,0,0,0,0,0,0,1,0,0,0,0,1,0,0,0,0,0,0,0,0,0,0,0,0,,POINT (-88.22035805235329 42.137009455531015)
348,nature center,yes,42.1156336936879,-88.1635751102888,yes,"3 Stover Rd","Barrington, IL 60010",,199,Northwest,,Crabtree Nature Center,Crabtree Preserve,,0,0,0,1,0,0,0,0,0,0,0,0,0,0,1,0,0,1,0,0,0,0,0,0,1,0,0,0,0,1,0,1,0,1,1,0,0,0,0,0,0,0,0,0,0,0,0,0,0,1,1,1,0,0,0,0,0,0,0,0,0,0,0,0,1,,POINT (-88.16357511028878 42.11563369368788)
349,activity area,,42.1469511550185,-88.121383005585,yes,E Hillside Ave &amp; S Eastern Ave,"Barrington, IL 60010",,201,Northwest,,Baker's Lake Overlook,Baker's Lake Nature Preserve,,0,0,0,1,0,0,0,0,0,0,0,0,0,0,0,0,0,1,0,0,0,0,0,0,1,0,0,0,0,0,0,0,0,0,1,0,1,0,0,0,0,0,0,0,0,0,0,1,0,0,0,0,0,0,0,0,0,0,0,0,0,0,0,0,0,,POINT (-88.12138300558505 42.1469511550185)
350,activity area,,42.1359810038859,-88.118519013383,yes,"E Dundee Rd, west of Glencrest Dr","Cook County, IL 60010",,202,Northwest,Bakers Lake,Baker's Lake Younghusband Prairie,,,0,0,0,1,0,0,0,0,0,0,0,0,0,0,0,0,0,0,0,0,0,0,0,0,1,0,0,0,0,0,0,0,0,0,1,0,0,0,0,0,0,0,0,0,0,0,0,1,0,0,0,0,0,0,0,0,0,0,0,0,0,0,0,0,0,,POINT (-88.11851901338298 42.135981003885924)
351,activity area,,42.1353119335396,-88.0901406479088,yes,"W Dundee Rd, east of Northwest Hwy","Cook County, IL 60010",,203,Northwest,,Deer Grove-West,Jens Jensen Grasslands & Woods Land & Water Reserve,,0,0,0,0,0,0,0,0,0,1,1,0,0,1,0,0,0,1,0,0,0,0,0,0,1,0,0,0,0,0,0,0,0,0,0,0,0,0,0,0,0,0,0,0,0,0,0,1,0,0,0,0,1,1,0,0,0,0,0,0,0,0,0,0,0,,POINT (-88.09014064790877 42.13531193353965)
352,activity area,,41.9625497285664,-87.8604100972814,yes,"Des Plaines River Rd, south of Lawrence Ave","Schiller Park, IL 60176",,24,Indian Boundary,,Robinson Homestead Family Picnic Area,,,0,0,0,0,0,0,0,0,0,0,0,0,0,0,0,0,0,1,0,0,0,0,0,0,0,0,0,0,0,0,0,0,0,0,0,0,0,0,0,0,0,0,0,0,0,0,0,0,0,0,0,0,0,0,0,0,0,0,0,0,0,0,0,0,0,,POINT (-87.86041009728143 41.96254972856642)
