{
"type": "FeatureCollection",
                                                                                
"features": [
{ "type": "Feature", "properties": { "activities_id": 1, "atype": "recreational waterbody", "trail_info_id": null, "parking_info_id": 106, "poi_info_id": 169, "aname": "Sauk Lake" }, "geometry": { "type": "Point", "coordinates": [ -87.655504222432484, 41.487616864327798 ] } },
{ "type": "Feature", "properties": { "activities_id": 4, "atype": "bicycle rental", "trail_info_id": null, "parking_info_id": 229, "poi_info_id": 263, "aname": "Chicago Botanic Garden Bike Rental" }, "geometry": { "type": "Point", "coordinates": [ -87.78864717310617, 42.148953622613853 ] } },
{ "type": "Feature", "properties": { "activities_id": 5, "atype": "bicycle rental", "trail_info_id": null, "parking_info_id": 233, "poi_info_id": 267, "aname": "Tower Road Bike Rental" }, "geometry": { "type": "Point", "coordinates": [ -87.775742329774985, 42.115452052521889 ] } },
{ "type": "Feature", "properties": { "activities_id": 7, "atype": "bicycle rental", "trail_info_id": null, "parking_info_id": 14, "poi_info_id": 269, "aname": "Blue Star Memorial Woods Bike Rental" }, "geometry": { "type": "Point", "coordinates": [ -87.776054941053005, 42.079070471431372 ] } },
{ "type": "Feature", "properties": { "activities_id": 8, "atype": "bicycle rental", "trail_info_id": null, "parking_info_id": 295, "poi_info_id": 280, "aname": "Miami Woods Bike Rental" }, "geometry": { "type": "Point", "coordinates": [ -87.795319201840911, 42.029990454401798 ] } },
{ "type": "Feature", "properties": { "activities_id": 12, "atype": "golf course", "trail_info_id": null, "parking_info_id": 280, "poi_info_id": 12, "aname": "George W. Dunne National Golf Course" }, "geometry": { "type": "Point", "coordinates": [ -87.763858206922237, 41.600149063952067 ] } },
{ "type": "Feature", "properties": { "activities_id": 14, "atype": "recreational waterbody", "trail_info_id": null, "parking_info_id": 321, "poi_info_id": 147, "aname": "Flatfoot Lake" }, "geometry": { "type": "Point", "coordinates": [ -87.585007379810492, 41.650506246359726 ] } },
{ "type": "Feature", "properties": { "activities_id": 15, "atype": "aquatic center", "trail_info_id": null, "parking_info_id": 90, "poi_info_id": 15, "aname": "Green Lake Family Aquatic Center" }, "geometry": { "type": "Point", "coordinates": [ -87.553421074800013, 41.602640437124194 ] } },
{ "type": "Feature", "properties": { "activities_id": 24, "atype": "recreational waterbody", "trail_info_id": null, "parking_info_id": 157, "poi_info_id": 180, "aname": "Deer Grove Lake" }, "geometry": { "type": "Point", "coordinates": [ -88.070405147331385, 42.14560627183937 ] } },
{ "type": "Feature", "properties": { "activities_id": 32, "atype": "recreational waterbody", "trail_info_id": null, "parking_info_id": 158, "poi_info_id": 206, "aname": "Potawatomi Pond" }, "geometry": { "type": "Point", "coordinates": [ -87.902217407701073, 42.144263698026244 ] } },
{ "type": "Feature", "properties": { "activities_id": 33, "atype": "recreational waterbody", "trail_info_id": null, "parking_info_id": 233, "poi_info_id": 267, "aname": "Skokie Lagoons" }, "geometry": { "type": "Point", "coordinates": [ -87.76921619082546, 42.118737148619481 ] } },
{ "type": "Feature", "properties": { "activities_id": 36, "atype": "recreational waterbody", "trail_info_id": null, "parking_info_id": 128, "poi_info_id": 221, "aname": "Schiller Pond" }, "geometry": { "type": "Point", "coordinates": [ -87.839455806769621, 41.957044553984538 ] } },
{ "type": "Feature", "properties": { "activities_id": 41, "atype": "special activity", "trail_info_id": null, "parking_info_id": 337, "poi_info_id": 41, "aname": "Brookfield Zoo" }, "geometry": { "type": "Point", "coordinates": [ -87.835996480003757, 41.832852058401798 ] } },
{ "type": "Feature", "properties": { "activities_id": 44, "atype": "aquatic center", "trail_info_id": null, "parking_info_id": 336, "poi_info_id": 44, "aname": "Cermak Family Aquatic Center" }, "geometry": { "type": "Point", "coordinates": [ -87.811777138153289, 41.818976694110304 ] } },
{ "type": "Feature", "properties": { "activities_id": 45, "atype": "recreational waterbody", "trail_info_id": null, "parking_info_id": 336, "poi_info_id": 254, "aname": "Cermak Quarry" }, "geometry": { "type": "Point", "coordinates": [ -87.813514084513187, 41.818941263430524 ] } },
{ "type": "Feature", "properties": { "activities_id": 51, "atype": "golf course", "trail_info_id": null, "parking_info_id": 242, "poi_info_id": 51, "aname": "Edgebrook Golf Course" }, "geometry": { "type": "Point", "coordinates": [ -87.770513013041565, 41.992960158820026 ] } },
{ "type": "Feature", "properties": { "activities_id": 54, "atype": "recreational waterbody", "trail_info_id": null, "parking_info_id": 81, "poi_info_id": 290, "aname": "Ida Lake" }, "geometry": { "type": "Point", "coordinates": [ -87.870962290178582, 41.770720883501241 ] } },
{ "type": "Feature", "properties": { "activities_id": 66, "atype": "recreational waterbody", "trail_info_id": null, "parking_info_id": 313, "poi_info_id": 189, "aname": "Busse Lake North Pool" }, "geometry": { "type": "Point", "coordinates": [ -88.023885275043668, 42.03164762125288 ] } },
{ "type": "Feature", "properties": { "activities_id": 69, "atype": "recreational waterbody", "trail_info_id": null, "parking_info_id": 313, "poi_info_id": 189, "aname": "Busse Lake South Pool" }, "geometry": { "type": "Point", "coordinates": [ -88.021308952903283, 42.023241045745948 ] } },
{ "type": "Feature", "properties": { "activities_id": 72, "atype": "recreational waterbody", "trail_info_id": null, "parking_info_id": 313, "poi_info_id": 189, "aname": "Busse Lake Main Pool" }, "geometry": { "type": "Point", "coordinates": [ -88.012255745475372, 42.027363261446084 ] } },
{ "type": "Feature", "properties": { "activities_id": 73, "atype": "recreational waterbody", "trail_info_id": null, "parking_info_id": 90, "poi_info_id": 153, "aname": "Green Lake" }, "geometry": { "type": "Point", "coordinates": [ -87.554911120642345, 41.601555031344866 ] } },
{ "type": "Feature", "properties": { "activities_id": 94, "atype": "recreational waterbody", "trail_info_id": null, "parking_info_id": 177, "poi_info_id": 378, "aname": "Maple Lake" }, "geometry": { "type": "Point", "coordinates": [ -87.890791740599184, 41.714527695396029 ] } },
{ "type": "Feature", "properties": { "activities_id": 98, "atype": "boat launch", "trail_info_id": null, "parking_info_id": 147, "poi_info_id": 364, "aname": "Big Bend Lake Boat Launch" }, "geometry": { "type": "Point", "coordinates": [ -87.874992051402671, 42.05292855558347 ] } },
{ "type": "Feature", "properties": { "activities_id": 100, "atype": "camp", "trail_info_id": null, "parking_info_id": 334, "poi_info_id": 100, "aname": "Camp Bullfrog Lake" }, "geometry": { "type": "Point", "coordinates": [ -87.903191507066424, 41.709121919371441 ] } },
{ "type": "Feature", "properties": { "activities_id": 104, "atype": "bicycle rental", "trail_info_id": null, "parking_info_id": 119, "poi_info_id": 283, "aname": "Caldwell Woods Bike Rental" }, "geometry": { "type": "Point", "coordinates": [ -87.787106368794767, 41.998253997061646 ] } },
{ "type": "Feature", "properties": { "activities_id": 113, "atype": "camp", "trail_info_id": null, "parking_info_id": 92, "poi_info_id": 113, "aname": "Camp Shabbona Woods" }, "geometry": { "type": "Point", "coordinates": [ -87.56303721015307, 41.60537779389302 ] } },
{ "type": "Feature", "properties": { "activities_id": 136, "atype": "camp", "trail_info_id": null, "parking_info_id": 181, "poi_info_id": 136, "aname": "Camp Sullivan" }, "geometry": { "type": "Point", "coordinates": [ -87.787539904059813, 41.625471123881717 ] } },
{ "type": "Feature", "properties": { "activities_id": 142, "atype": "golf course", "trail_info_id": null, "parking_info_id": 266, "poi_info_id": 142, "aname": "Joe Louis \"The Champ\" Golf Course" }, "geometry": { "type": "Point", "coordinates": [ -87.644094114080559, 41.653712912862467 ] } },
{ "type": "Feature", "properties": { "activities_id": 148, "atype": "golf course", "trail_info_id": null, "parking_info_id": 299, "poi_info_id": 148, "aname": "Burnham Woods Golf Course" }, "geometry": { "type": "Point", "coordinates": [ -87.534933324842527, 41.63569941245585 ] } },
{ "type": "Feature", "properties": { "activities_id": 150, "atype": "nature center", "trail_info_id": 3093, "parking_info_id": 303, "poi_info_id": 150, "aname": "Sand Ridge Nature Center" }, "geometry": { "type": "Point", "coordinates": [ -87.565749456206703, 41.605933010545925 ] } },
{ "type": "Feature", "properties": { "activities_id": 156, "atype": "golf course", "trail_info_id": null, "parking_info_id": 304, "poi_info_id": 156, "aname": "River Oaks Golf Course" }, "geometry": { "type": "Point", "coordinates": [ -87.575727638690466, 41.599191687736699 ] } },
{ "type": "Feature", "properties": { "activities_id": 179, "atype": "camp", "trail_info_id": null, "parking_info_id": 186, "poi_info_id": 179, "aname": "Camp Reinberg" }, "geometry": { "type": "Point", "coordinates": [ -88.061528276085099, 42.142533141866863 ] } },
{ "type": "Feature", "properties": { "activities_id": 182, "atype": "golf course", "trail_info_id": null, "parking_info_id": 208, "poi_info_id": 182, "aname": "Highland Woods Golf Course" }, "geometry": { "type": "Point", "coordinates": [ -88.082943159619717, 42.074728525977029 ] } },
{ "type": "Feature", "properties": { "activities_id": 192, "atype": "camp", "trail_info_id": null, "parking_info_id": 171, "poi_info_id": 192, "aname": "Camp Dan Beard" }, "geometry": { "type": "Point", "coordinates": [ -87.897778764152108, 42.150276702837303 ] } },
{ "type": "Feature", "properties": { "activities_id": 225, "atype": "golf course", "trail_info_id": null, "parking_info_id": 225, "poi_info_id": 225, "aname": "Indian Boundary Golf Course" }, "geometry": { "type": "Point", "coordinates": [ -87.843936152409611, 41.94169316946229 ] } },
{ "type": "Feature", "properties": { "activities_id": 233, "atype": "nature center", "trail_info_id": 2860, "parking_info_id": 172, "poi_info_id": 233, "aname": "Trailside Museum of Natural History" }, "geometry": { "type": "Point", "coordinates": [ -87.826305459421306, 41.893245350073926 ] } },
{ "type": "Feature", "properties": { "activities_id": 252, "atype": "golf course", "trail_info_id": null, "parking_info_id": 249, "poi_info_id": 252, "aname": "Meadowlark Golf Course" }, "geometry": { "type": "Point", "coordinates": [ -87.91116103196336, 41.832482847608105 ] } },
{ "type": "Feature", "properties": { "activities_id": 263, "atype": "special activity", "trail_info_id": null, "parking_info_id": 229, "poi_info_id": 263, "aname": "Chicago Botanic Garden" }, "geometry": { "type": "Point", "coordinates": [ -87.788442864522764, 42.150333383149388 ] } },
{ "type": "Feature", "properties": { "activities_id": 276, "atype": "golf course", "trail_info_id": null, "parking_info_id": 239, "poi_info_id": 276, "aname": "Chick Evans Golf Course" }, "geometry": { "type": "Point", "coordinates": [ -87.779076493441437, 42.054023715868723 ] } },
{ "type": "Feature", "properties": { "activities_id": 284, "atype": "aquatic center", "trail_info_id": null, "parking_info_id": 241, "poi_info_id": 284, "aname": "Whealan Pool Aquatic Center" }, "geometry": { "type": "Point", "coordinates": [ -87.782868064520116, 41.997888266725845 ] } },
{ "type": "Feature", "properties": { "activities_id": 286, "atype": "golf course", "trail_info_id": null, "parking_info_id": 243, "poi_info_id": 286, "aname": "Billy Caldwell Golf Course" }, "geometry": { "type": "Point", "coordinates": [ -87.759677322401174, 41.990176184025202 ] } },
{ "type": "Feature", "properties": { "activities_id": 319, "atype": "nature center", "trail_info_id": 3042, "parking_info_id": 190, "poi_info_id": 319, "aname": "Little Red Schoolhouse Nature Center" }, "geometry": { "type": "Point", "coordinates": [ -87.87715272258167, 41.708967426473876 ] } },
{ "type": "Feature", "properties": { "activities_id": 334, "atype": "nature center", "trail_info_id": 2951, "parking_info_id": 267, "poi_info_id": 334, "aname": "Sagawau Environmental Learning Center" }, "geometry": { "type": "Point", "coordinates": [ -87.925714269680057, 41.689266770203105 ] } },
{ "type": "Feature", "properties": { "activities_id": 338, "atype": "nature center", "trail_info_id": 2979, "parking_info_id": 195, "poi_info_id": 338, "aname": "River Trail Nature Center" }, "geometry": { "type": "Point", "coordinates": [ -87.884845280394345, 42.095011049216211 ] } },
{ "type": "Feature", "properties": { "activities_id": 344, "atype": "golf driving range", "trail_info_id": null, "parking_info_id": 194, "poi_info_id": 344, "aname": "Harry H. Semrow Driving Range" }, "geometry": { "type": "Point", "coordinates": [ -87.896735961653761, 42.055475106574455 ] } },
{ "type": "Feature", "properties": { "activities_id": 348, "atype": "nature center", "trail_info_id": 2905, "parking_info_id": 199, "poi_info_id": 348, "aname": "Crabtree Nature Center" }, "geometry": { "type": "Point", "coordinates": [ -88.163575110288832, 42.115633693685147 ] } },
{ "type": "Feature", "properties": { "activities_id": 395, "atype": "headquarters", "trail_info_id": null, "parking_info_id": 26, "poi_info_id": 395, "aname": "General Headquarters & Permit Office" }, "geometry": { "type": "Point", "coordinates": [ -87.805678313722012, 41.889506531223873 ] } },
{ "type": "Feature", "properties": { "activities_id": 397, "atype": "volunteer center", "trail_info_id": null, "parking_info_id": 242, "poi_info_id": 397, "aname": "Mathew Bieszczat Volunteer Resource Center" }, "geometry": { "type": "Point", "coordinates": [ -87.768625980876791, 41.992010958612624 ] } },
{ "type": "Feature", "properties": { "activities_id": 802, "atype": "trailhead", "trail_info_id": 1175, "parking_info_id": 61, "poi_info_id": 112, "aname": "Teason's Woods" }, "geometry": { "type": "Point", "coordinates": [ -87.874416348893831, 41.684201053770025 ] } },
{ "type": "Feature", "properties": { "activities_id": 803, "atype": "trailhead", "trail_info_id": 305, "parking_info_id": 14, "poi_info_id": 269, "aname": "Blue Star Memorial Woods" }, "geometry": { "type": "Point", "coordinates": [ -87.776034902537106, 42.079236761519283 ] } },
{ "type": "Feature", "properties": { "activities_id": 804, "atype": "trailhead", "trail_info_id": 760, "parking_info_id": 67, "poi_info_id": 299, "aname": "Country Lane Woods" }, "geometry": { "type": "Point", "coordinates": [ -87.866161608526795, 41.716508976136737 ] } },
{ "type": "Feature", "properties": { "activities_id": 805, "atype": "trailhead", "trail_info_id": 2200, "parking_info_id": 94, "poi_info_id": 265, "aname": "Forest Way Grove" }, "geometry": { "type": "Point", "coordinates": [ -87.774438651267587, 42.128732514087297 ] } },
{ "type": "Feature", "properties": { "activities_id": 806, "atype": "trailhead", "trail_info_id": 2068, "parking_info_id": 313, "poi_info_id": 189, "aname": "Busse Lake Boating Center" }, "geometry": { "type": "Point", "coordinates": [ -88.018294827585166, 42.024770347733188 ] } },
{ "type": "Feature", "properties": { "activities_id": 808, "atype": "warming shelter", "trail_info_id": null, "parking_info_id": 119, "poi_info_id": 283, "aname": "Caldwell Woods Warming Shelter" }, "geometry": { "type": "Point", "coordinates": [ -87.786349428576273, 41.997838180837505 ] } },
{ "type": "Feature", "properties": { "activities_id": 809, "atype": "sledding", "trail_info_id": null, "parking_info_id": 119, "poi_info_id": 283, "aname": "Caldwell Woods Sledding Hill" }, "geometry": { "type": "Point", "coordinates": [ -87.785671670092711, 41.997925171930753 ] } },
{ "type": "Feature", "properties": { "activities_id": 810, "atype": "trailhead", "trail_info_id": 178, "parking_info_id": 96, "poi_info_id": 272, "aname": "Harms Woods-Central" }, "geometry": { "type": "Point", "coordinates": [ -87.770933869341746, 42.060126897924455 ] } },
{ "type": "Feature", "properties": { "activities_id": 811, "atype": "trailhead", "trail_info_id": 1212, "parking_info_id": 99, "poi_info_id": 268, "aname": "Erickson Woods" }, "geometry": { "type": "Point", "coordinates": [ -87.764886313118197, 42.102121891249155 ] } },
{ "type": "Feature", "properties": { "activities_id": 812, "atype": "trailhead", "trail_info_id": 2114, "parking_info_id": 211, "poi_info_id": 200, "aname": "Great Egret Family Picnic Area" }, "geometry": { "type": "Point", "coordinates": [ -88.191511370578269, 42.061529757293997 ] } },
{ "type": "Feature", "properties": { "activities_id": 813, "atype": "trailhead", "trail_info_id": 2696, "parking_info_id": 312, "poi_info_id": 31, "aname": "Busse Forest-South" }, "geometry": { "type": "Point", "coordinates": [ -87.992443712280817, 42.026099977023478 ] } },
{ "type": "Feature", "properties": { "activities_id": 814, "atype": "trailhead", "trail_info_id": 2085, "parking_info_id": 315, "poi_info_id": 191, "aname": "Busse Forest-Central" }, "geometry": { "type": "Point", "coordinates": [ -88.007475603494882, 42.03147752864556 ] } },
{ "type": "Feature", "properties": { "activities_id": 815, "atype": "trailhead", "trail_info_id": 2090, "parking_info_id": 314, "poi_info_id": 190, "aname": "Busse Forest-West" }, "geometry": { "type": "Point", "coordinates": [ -88.014406590458947, 42.032760089790543 ] } },
{ "type": "Feature", "properties": { "activities_id": 816, "atype": "trailhead", "trail_info_id": 2670, "parking_info_id": 98, "poi_info_id": 273, "aname": "Harms Woods-South" }, "geometry": { "type": "Point", "coordinates": [ -87.768368457668757, 42.058634491334658 ] } },
{ "type": "Feature", "properties": { "activities_id": 817, "atype": "trailhead", "trail_info_id": 2605, "parking_info_id": 59, "poi_info_id": 122, "aname": "Palos Park Woods-North" }, "geometry": { "type": "Point", "coordinates": [ -87.843275275374012, 41.681018464984163 ] } },
{ "type": "Feature", "properties": { "activities_id": 818, "atype": "dog park", "trail_info_id": null, "parking_info_id": 219, "poi_info_id": 343, "aname": "Beck Lake Dog Park" }, "geometry": { "type": "Point", "coordinates": [ -87.868113241027288, 42.069276811027464 ] } },
{ "type": "Feature", "properties": { "activities_id": 819, "atype": "trailhead", "trail_info_id": 576, "parking_info_id": 122, "poi_info_id": 288, "aname": "Forest Glen Woods" }, "geometry": { "type": "Point", "coordinates": [ -87.755739468245878, 41.981366135470417 ] } },
{ "type": "Feature", "properties": { "activities_id": 820, "atype": "snowmobiling", "trail_info_id": null, "parking_info_id": 143, "poi_info_id": 29, "aname": "Ned Brown Snowmobiling" }, "geometry": { "type": "Point", "coordinates": [ -88.024509, 42.046054 ] } },
{ "type": "Feature", "properties": { "activities_id": 821, "atype": "boat rental", "trail_info_id": null, "parking_info_id": 178, "poi_info_id": 100, "aname": "Camp Bullfrog Lake Boat Rental" }, "geometry": { "type": "Point", "coordinates": [ -87.901755, 41.71031 ] } },
{ "type": "Feature", "properties": { "activities_id": 822, "atype": "trailhead", "trail_info_id": 127, "parking_info_id": 123, "poi_info_id": 375, "aname": "Irene C. Hernandez" }, "geometry": { "type": "Point", "coordinates": [ -87.737987, 41.975591 ] } },
{ "type": "Feature", "properties": { "activities_id": 823, "atype": "trailhead", "trail_info_id": 226, "parking_info_id": null, "poi_info_id": 56, "aname": "Future LaBagh Woods" }, "geometry": null },
{ "type": "Feature", "properties": { "activities_id": 824, "atype": "pavilion", "trail_info_id": null, "parking_info_id": 27, "poi_info_id": 232, "aname": "Thatcher Woods Pavilion" }, "geometry": { "type": "Point", "coordinates": [ -87.829553147433643, 41.897315821306798 ] } },
{ "type": "Feature", "properties": { "activities_id": 825, "atype": "trailhead", "trail_info_id": 1069, "parking_info_id": 213, "poi_info_id": 196, "aname": "Bode Lake" }, "geometry": { "type": "Point", "coordinates": [ -88.168891406453795, 42.039791634562945 ] } },
{ "type": "Feature", "properties": { "activities_id": 826, "atype": "dog park", "trail_info_id": null, "parking_info_id": 7, "poi_info_id": 237, "aname": "Miller Meadow Dog Park" }, "geometry": { "type": "Point", "coordinates": [ -87.8304988638114, 41.854809718627479 ] } },
{ "type": "Feature", "properties": { "activities_id": 828, "atype": "trailhead", "trail_info_id": 1355, "parking_info_id": 104, "poi_info_id": 170, "aname": "Sauk Trail Woods-South" }, "geometry": { "type": "Point", "coordinates": [ -87.651418022361185, 41.484615328488879 ] } },
{ "type": "Feature", "properties": { "activities_id": 829, "atype": "trailhead", "trail_info_id": 1264, "parking_info_id": 107, "poi_info_id": 168, "aname": "Sauk Trail Woods-Central" }, "geometry": { "type": "Point", "coordinates": [ -87.651289687716144, 41.485977253690685 ] } },
{ "type": "Feature", "properties": { "activities_id": 830, "atype": "trailhead", "trail_info_id": 410, "parking_info_id": 105, "poi_info_id": 167, "aname": "Sauk Trail Woods-East" }, "geometry": { "type": "Point", "coordinates": [ -87.647567679215825, 41.488022974068627 ] } },
{ "type": "Feature", "properties": { "activities_id": 832, "atype": "trailhead", "trail_info_id": 27, "parking_info_id": 159, "poi_info_id": 317, "aname": "Dam No. 1 Woods-East" }, "geometry": { "type": "Point", "coordinates": [ -87.893812918293577, 42.121636555072811 ] } },
{ "type": "Feature", "properties": { "activities_id": 834, "atype": "boat rental", "trail_info_id": null, "parking_info_id": 232, "poi_info_id": 266, "aname": "Tower Road Kayak\/Canoe Rental" }, "geometry": { "type": "Point", "coordinates": [ -87.771346975765439, 42.115707699188079 ] } },
{ "type": "Feature", "properties": { "activities_id": 835, "atype": "trailhead", "trail_info_id": 117, "parking_info_id": 161, "poi_info_id": 337, "aname": "Allison Woods" }, "geometry": { "type": "Point", "coordinates": [ -87.885398689662807, 42.100756291718739 ] } },
{ "type": "Feature", "properties": { "activities_id": 836, "atype": "dog park", "trail_info_id": null, "parking_info_id": 164, "poi_info_id": 138, "aname": "Bremen Grove Dog Park" }, "geometry": { "type": "Point", "coordinates": [ -87.782794616556188, 41.598017001294032 ] } },
{ "type": "Feature", "properties": { "activities_id": 837, "atype": "trailhead", "trail_info_id": 555, "parking_info_id": 163, "poi_info_id": 261, "aname": "Somme Woods" }, "geometry": { "type": "Point", "coordinates": [ -87.822088979387075, 42.138369810802473 ] } },
{ "type": "Feature", "properties": { "activities_id": 838, "atype": "trailhead", "trail_info_id": 2183, "parking_info_id": 108, "poi_info_id": 160, "aname": "Glenwood Woods-North" }, "geometry": { "type": "Point", "coordinates": [ -87.621825982816731, 41.548126274343112 ] } },
{ "type": "Feature", "properties": { "activities_id": 839, "atype": "trailhead", "trail_info_id": 31, "parking_info_id": 158, "poi_info_id": 206, "aname": "Potawatomi Woods" }, "geometry": { "type": "Point", "coordinates": [ -87.903235842600751, 42.141204652179951 ] } },
{ "type": "Feature", "properties": { "activities_id": 840, "atype": "trailhead", "trail_info_id": 1388, "parking_info_id": 333, "poi_info_id": 35, "aname": "Bode East" }, "geometry": { "type": "Point", "coordinates": [ -88.150436897669096, 42.039514323824335 ] } },
{ "type": "Feature", "properties": { "activities_id": 841, "atype": "trailhead", "trail_info_id": 2635, "parking_info_id": 176, "poi_info_id": 328, "aname": "Pulaski Woods-South" }, "geometry": { "type": "Point", "coordinates": [ -87.893623768258465, 41.707570028249911 ] } },
{ "type": "Feature", "properties": { "activities_id": 842, "atype": "trailhead", "trail_info_id": 1752, "parking_info_id": 182, "poi_info_id": 133, "aname": "Goeselville Grove Family Picnic Area" }, "geometry": { "type": "Point", "coordinates": [ -87.777705194430581, 41.629428070441676 ] } },
{ "type": "Feature", "properties": { "activities_id": 843, "atype": "trailhead", "trail_info_id": 1919, "parking_info_id": 177, "poi_info_id": 378, "aname": "Maple Lake Boating Center" }, "geometry": { "type": "Point", "coordinates": [ -87.891023209874049, 41.711824688631673 ] } },
{ "type": "Feature", "properties": { "activities_id": 845, "atype": "trailhead", "trail_info_id": 1914, "parking_info_id": 142, "poi_info_id": 282, "aname": "Bunker Hill" }, "geometry": { "type": "Point", "coordinates": [ -87.784198649533323, 42.001552045334513 ] } },
{ "type": "Feature", "properties": { "activities_id": 846, "atype": "trailhead", "trail_info_id": 541, "parking_info_id": 7, "poi_info_id": 237, "aname": "Miller Meadow-South" }, "geometry": { "type": "Point", "coordinates": [ -87.831567571295579, 41.853450220887893 ] } },
{ "type": "Feature", "properties": { "activities_id": 847, "atype": "trailhead", "trail_info_id": 1107, "parking_info_id": 196, "poi_info_id": 161, "aname": "Glenwood Woods-South" }, "geometry": { "type": "Point", "coordinates": [ -87.619566632727668, 41.547539201622683 ] } },
{ "type": "Feature", "properties": { "activities_id": 848, "atype": "pavilion", "trail_info_id": null, "parking_info_id": 137, "poi_info_id": 313, "aname": "Dan Ryan Woods Pavilion" }, "geometry": { "type": "Point", "coordinates": [ -87.679502221845823, 41.737142246722989 ] } },
{ "type": "Feature", "properties": { "activities_id": 849, "atype": "trailhead", "trail_info_id": 1733, "parking_info_id": 87, "poi_info_id": 129, "aname": "Cooper's Hawk Family Picnic Area" }, "geometry": { "type": "Point", "coordinates": [ -87.770586956204127, 41.645349203049193 ] } },
{ "type": "Feature", "properties": { "activities_id": 850, "atype": "equestrian center", "trail_info_id": null, "parking_info_id": 238, "poi_info_id": 274, "aname": "Glen Grove Equestrian Center" }, "geometry": { "type": "Point", "coordinates": [ -87.76521544494291, 42.054597908180519 ] } },
{ "type": "Feature", "properties": { "activities_id": 851, "atype": "trailhead", "trail_info_id": 178, "parking_info_id": 97, "poi_info_id": 271, "aname": "Harms Woods-North" }, "geometry": { "type": "Point", "coordinates": [ -87.770732773178906, 42.061895703965213 ] } },
{ "type": "Feature", "properties": { "activities_id": 852, "atype": "trailhead", "trail_info_id": 76, "parking_info_id": 130, "poi_info_id": 219, "aname": "Schiller Woods-South" }, "geometry": { "type": "Point", "coordinates": [ -87.853731900740684, 41.951131932225877 ] } },
{ "type": "Feature", "properties": { "activities_id": 853, "atype": "trailhead", "trail_info_id": 2367, "parking_info_id": 64, "poi_info_id": 293, "aname": "Buffalo Woods-Central" }, "geometry": { "type": "Point", "coordinates": [ -87.85056233117956, 41.735437735400446 ] } },
{ "type": "Feature", "properties": { "activities_id": 854, "atype": "trailhead", "trail_info_id": 2367, "parking_info_id": 65, "poi_info_id": 294, "aname": "Buffalo Woods-South" }, "geometry": { "type": "Point", "coordinates": [ -87.848179223780605, 41.734298523158508 ] } },
{ "type": "Feature", "properties": { "activities_id": 855, "atype": "trailhead", "trail_info_id": 1799, "parking_info_id": 255, "poi_info_id": 304, "aname": "Dan McMahon Woods" }, "geometry": { "type": "Point", "coordinates": [ -87.865444312614784, 41.695800624610975 ] } },
{ "type": "Feature", "properties": { "activities_id": 857, "atype": "trailhead", "trail_info_id": 2354, "parking_info_id": 192, "poi_info_id": 58, "aname": "Camp Kiwanis Equestrian Staging Area" }, "geometry": { "type": "Point", "coordinates": [ -87.873848236434441, 41.708283208824056 ] } },
{ "type": "Feature", "properties": { "activities_id": 858, "atype": "trailhead", "trail_info_id": 1738, "parking_info_id": 259, "poi_info_id": 327, "aname": "Henry De Tonty Woods" }, "geometry": { "type": "Point", "coordinates": [ -87.913606664034944, 41.713887038877004 ] } },
{ "type": "Feature", "properties": { "activities_id": 859, "atype": "trailhead", "trail_info_id": 726, "parking_info_id": 289, "poi_info_id": 145, "aname": "Kickapoo Woods" }, "geometry": { "type": "Point", "coordinates": [ -87.645723197352865, 41.630181913005345 ] } },
{ "type": "Feature", "properties": { "activities_id": 860, "atype": "trailhead", "trail_info_id": 369, "parking_info_id": 293, "poi_info_id": 277, "aname": "Linne Woods" }, "geometry": { "type": "Point", "coordinates": [ -87.785810693370038, 42.041794460792929 ] } },
{ "type": "Feature", "properties": { "activities_id": 861, "atype": "trailhead", "trail_info_id": 1928, "parking_info_id": 295, "poi_info_id": 280, "aname": "Miami Woods" }, "geometry": { "type": "Point", "coordinates": [ -87.793291814948134, 42.027017863544252 ] } },
{ "type": "Feature", "properties": { "activities_id": 862, "atype": "trailhead", "trail_info_id": 635, "parking_info_id": 305, "poi_info_id": 228, "aname": "Jerome Huppert Woods" }, "geometry": { "type": "Point", "coordinates": [ -87.832785197615451, 41.920364618306216 ] } },
{ "type": "Feature", "properties": { "activities_id": 863, "atype": "trailhead", "trail_info_id": 1172, "parking_info_id": 72, "poi_info_id": 316, "aname": "Pioneer Woods" }, "geometry": { "type": "Point", "coordinates": [ -87.869157905047246, 41.70121843518222 ] } },
{ "type": "Feature", "properties": { "activities_id": 864, "atype": "trailhead", "trail_info_id": 1540, "parking_info_id": 74, "poi_info_id": 295, "aname": "Spears Woods" }, "geometry": { "type": "Point", "coordinates": [ -87.853345108858932, 41.725682939706367 ] } },
{ "type": "Feature", "properties": { "activities_id": 865, "atype": "trailhead", "trail_info_id": 2390, "parking_info_id": 84, "poi_info_id": 132, "aname": "Rubio Woods" }, "geometry": { "type": "Point", "coordinates": [ -87.766769320162894, 41.636306940333483 ] } },
{ "type": "Feature", "properties": { "activities_id": 866, "atype": "trailhead", "trail_info_id": 304, "parking_info_id": 99, "poi_info_id": 218, "aname": "Schiller Woods-West" }, "geometry": { "type": "Point", "coordinates": [ -87.846610955437313, 41.960902898287387 ] } },
{ "type": "Feature", "properties": { "activities_id": 867, "atype": "trailhead", "trail_info_id": 1105, "parking_info_id": 101, "poi_info_id": 166, "aname": "Joe Orr Woods" }, "geometry": { "type": "Point", "coordinates": [ -87.630435447670962, 41.520248521442632 ] } },
{ "type": "Feature", "properties": { "activities_id": 868, "atype": "trailhead", "trail_info_id": 1361, "parking_info_id": 141, "poi_info_id": 216, "aname": "Robinson Woods-South" }, "geometry": { "type": "Point", "coordinates": [ -87.854098038393388, 41.965576957272539 ] } },
{ "type": "Feature", "properties": { "activities_id": 869, "atype": "trailhead", "trail_info_id": 1371, "parking_info_id": 102, "poi_info_id": 164, "aname": "North Creek Meadow" }, "geometry": { "type": "Point", "coordinates": [ -87.562159220749834, 41.546391465460779 ] } },
{ "type": "Feature", "properties": { "activities_id": 870, "atype": "trailhead", "trail_info_id": 2130, "parking_info_id": 103, "poi_info_id": 28, "aname": "Plum Creek Meadow" }, "geometry": { "type": "Point", "coordinates": [ -87.537555330593037, 41.485556016338897 ] } },
{ "type": "Feature", "properties": { "activities_id": 871, "atype": "trailhead", "trail_info_id": 1286, "parking_info_id": 106, "poi_info_id": 169, "aname": "Sauk Trail Woods-North" }, "geometry": { "type": "Point", "coordinates": [ -87.650853543602736, 41.490733498427936 ] } },
{ "type": "Feature", "properties": { "activities_id": 872, "atype": "trailhead", "trail_info_id": 2150, "parking_info_id": 117, "poi_info_id": 181, "aname": "Deer Grove-East" }, "geometry": { "type": "Point", "coordinates": [ -88.0421713025504, 42.141292467642778 ] } },
{ "type": "Feature", "properties": { "activities_id": 873, "atype": "trailhead", "trail_info_id": 1620, "parking_info_id": 119, "poi_info_id": 283, "aname": "Caldwell Woods" }, "geometry": { "type": "Point", "coordinates": [ -87.787404922173565, 41.998361255780644 ] } },
{ "type": "Feature", "properties": { "activities_id": 874, "atype": "trailhead", "trail_info_id": 20, "parking_info_id": 4, "poi_info_id": 212, "aname": "Dam No. 4 Woods-East" }, "geometry": { "type": "Point", "coordinates": [ -87.857487946093116, 42.000675556083202 ] } },
{ "type": "Feature", "properties": { "activities_id": 875, "atype": "trailhead", "trail_info_id": 2280, "parking_info_id": 322, "poi_info_id": 165, "aname": "Lansing Woods" }, "geometry": { "type": "Point", "coordinates": [ -87.55331068236849, 41.557036974879772 ] } },
{ "type": "Feature", "properties": { "activities_id": 876, "atype": "trailhead", "trail_info_id": 1283, "parking_info_id": 17, "poi_info_id": 171, "aname": "Schubert's Woods" }, "geometry": { "type": "Point", "coordinates": [ -87.659290974846371, 41.480377196535095 ] } },
{ "type": "Feature", "properties": { "activities_id": 877, "atype": "trailhead", "trail_info_id": 861, "parking_info_id": 19, "poi_info_id": 229, "aname": "Evans Field" }, "geometry": { "type": "Point", "coordinates": [ -87.828303097641154, 41.913201514399425 ] } },
{ "type": "Feature", "properties": { "activities_id": 878, "atype": "trailhead", "trail_info_id": 1180, "parking_info_id": 20, "poi_info_id": 227, "aname": "Fullerton Woods" }, "geometry": { "type": "Point", "coordinates": [ -87.836299571458937, 41.922657399683885 ] } },
{ "type": "Feature", "properties": { "activities_id": 880, "atype": "trailhead", "trail_info_id": 1270, "parking_info_id": 155, "poi_info_id": 326, "aname": "Red Gate Woods" }, "geometry": { "type": "Point", "coordinates": [ -87.913996380951161, 41.710034063818306 ] } },
{ "type": "Feature", "properties": { "activities_id": 881, "atype": "trailhead", "trail_info_id": 1795, "parking_info_id": 58, "poi_info_id": 120, "aname": "Palos Park Woods-South" }, "geometry": { "type": "Point", "coordinates": [ -87.838540776553671, 41.676304801210435 ] } },
{ "type": "Feature", "properties": { "activities_id": 882, "atype": "trailhead", "trail_info_id": 226, "parking_info_id": 124, "poi_info_id": 56, "aname": "LaBagh Woods" }, "geometry": { "type": "Point", "coordinates": [ -87.74579175810517, 41.978538372581127 ] } },
{ "type": "Feature", "properties": { "activities_id": 883, "atype": "trailhead", "trail_info_id": 601, "parking_info_id": 131, "poi_info_id": 193, "aname": "Dan Ryan Woods-Central" }, "geometry": { "type": "Point", "coordinates": [ -87.680306089442226, 41.742483813767187 ] } },
{ "type": "Feature", "properties": { "activities_id": 884, "atype": "trailhead", "trail_info_id": 970, "parking_info_id": 134, "poi_info_id": 311, "aname": "Dan Ryan Woods-North" }, "geometry": { "type": "Point", "coordinates": [ -87.679095724172399, 41.74337891512679 ] } },
{ "type": "Feature", "properties": { "activities_id": 886, "atype": "snowmobiling", "trail_info_id": null, "parking_info_id": 7, "poi_info_id": 237, "aname": "Miller Meadow Snowmobiling" }, "geometry": { "type": "Point", "coordinates": [ -87.828129917105898, 41.855261596474989 ] } },
{ "type": "Feature", "properties": { "activities_id": 888, "atype": "trailhead", "trail_info_id": 2402, "parking_info_id": 164, "poi_info_id": 138, "aname": "Bremen Grove" }, "geometry": { "type": "Point", "coordinates": [ -87.783258061594466, 41.599588590060527 ] } },
{ "type": "Feature", "properties": { "activities_id": 891, "atype": "welcome center", "trail_info_id": null, "parking_info_id": 137, "poi_info_id": 313, "aname": "Dan Ryan Woods Visitor Center" }, "geometry": { "type": "Point", "coordinates": [ -87.680107023720154, 41.73593652416406 ] } },
{ "type": "Feature", "properties": { "activities_id": 892, "atype": "trailhead", "trail_info_id": 551, "parking_info_id": 160, "poi_info_id": 197, "aname": "Barrington Road Pond" }, "geometry": { "type": "Point", "coordinates": [ -88.145052335342854, 42.057171804283271 ] } },
{ "type": "Feature", "properties": { "activities_id": 893, "atype": "trailhead", "trail_info_id": 2706, "parking_info_id": 165, "poi_info_id": 140, "aname": "Yankee Woods" }, "geometry": { "type": "Point", "coordinates": [ -87.758757058159148, 41.592444235844383 ] } },
{ "type": "Feature", "properties": { "activities_id": 894, "atype": "trailhead", "trail_info_id": 586, "parking_info_id": 55, "poi_info_id": 117, "aname": "Swallow Cliff Woods-South" }, "geometry": { "type": "Point", "coordinates": [ -87.860132639979241, 41.674048870183029 ] } },
{ "type": "Feature", "properties": { "activities_id": 895, "atype": "trailhead", "trail_info_id": 2379, "parking_info_id": 54, "poi_info_id": 118, "aname": "Forty Acre Woods" }, "geometry": { "type": "Point", "coordinates": [ -87.85300682149645, 41.673894327390336 ] } },
{ "type": "Feature", "properties": { "activities_id": 896, "atype": "trailhead", "trail_info_id": 1013, "parking_info_id": 56, "poi_info_id": 119, "aname": "McClaughrey Springs Woods" }, "geometry": { "type": "Point", "coordinates": [ -87.844043888845604, 41.677442062633119 ] } },
{ "type": "Feature", "properties": { "activities_id": 897, "atype": "trailhead", "trail_info_id": 2634, "parking_info_id": 57, "poi_info_id": 121, "aname": "Paddock Woods" }, "geometry": { "type": "Point", "coordinates": [ -87.831620224116179, 41.67829460210644 ] } },
{ "type": "Feature", "properties": { "activities_id": 898, "atype": "trailhead", "trail_info_id": 2704, "parking_info_id": 297, "poi_info_id": 398, "aname": "Sag Valley Equestrian Parking" }, "geometry": { "type": "Point", "coordinates": [ -87.9237229184141, 41.649786790872639 ] } },
{ "type": "Feature", "properties": { "activities_id": 899, "atype": "trailhead", "trail_info_id": 1609, "parking_info_id": 219, "poi_info_id": 343, "aname": "Beck Lake" }, "geometry": { "type": "Point", "coordinates": [ -87.874267214523996, 42.071035742341103 ] } },
{ "type": "Feature", "properties": { "activities_id": 900, "atype": "trailhead", "trail_info_id": 1263, "parking_info_id": 256, "poi_info_id": 323, "aname": "Saganashkee Slough-East" }, "geometry": { "type": "Point", "coordinates": [ -87.875065735607905, 41.688990670691517 ] } },
{ "type": "Feature", "properties": { "activities_id": 901, "atype": "trailhead", "trail_info_id": 621, "parking_info_id": 262, "poi_info_id": 333, "aname": "Sag Quarries" }, "geometry": { "type": "Point", "coordinates": [ -87.932686088069374, 41.69051200136883 ] } },
{ "type": "Feature", "properties": { "activities_id": 902, "atype": "trailhead", "trail_info_id": 236, "parking_info_id": 269, "poi_info_id": 115, "aname": "Horsetail Lake" }, "geometry": { "type": "Point", "coordinates": [ -87.871942393099005, 41.66818738397658 ] } },
{ "type": "Feature", "properties": { "activities_id": 903, "atype": "trailhead", "trail_info_id": 2314, "parking_info_id": 282, "poi_info_id": 305, "aname": "Midlothian Reservoir" }, "geometry": { "type": "Point", "coordinates": [ -87.738296815221545, 41.589030926198227 ] } },
{ "type": "Feature", "properties": { "activities_id": 904, "atype": "trailhead", "trail_info_id": 1160, "parking_info_id": 142, "poi_info_id": 282, "aname": "Bunker Hill" }, "geometry": { "type": "Point", "coordinates": [ -87.791216521132966, 42.008821702699173 ] } },
{ "type": "Feature", "properties": { "activities_id": 905, "atype": "trailhead", "trail_info_id": 2360, "parking_info_id": 63, "poi_info_id": 292, "aname": "Buffalo Woods-North" }, "geometry": { "type": "Point", "coordinates": [ -87.851088532730074, 41.737915653420721 ] } },
{ "type": "Feature", "properties": { "activities_id": 906, "atype": "trailhead", "trail_info_id": 739, "parking_info_id": 306, "poi_info_id": 246, "aname": "Twenty-Sixth Street Woods-West" }, "geometry": { "type": "Point", "coordinates": [ -87.857755561651899, 41.842350880135385 ] } },
{ "type": "Feature", "properties": { "activities_id": 907, "atype": "trailhead", "trail_info_id": 2689, "parking_info_id": 309, "poi_info_id": 188, "aname": "Woodland Meadow" }, "geometry": { "type": "Point", "coordinates": [ -88.031013150252022, 42.00714772706084 ] } },
{ "type": "Feature", "properties": { "activities_id": 908, "atype": "trailhead", "trail_info_id": 206, "parking_info_id": 175, "poi_info_id": 297, "aname": "John Husar I&M Canal Bicycle Trail Parking Lot" }, "geometry": { "type": "Point", "coordinates": [ -87.879427384917335, 41.733593049256044 ] } },
{ "type": "Feature", "properties": { "activities_id": 909, "atype": "trailhead", "trail_info_id": 1184, "parking_info_id": 140, "poi_info_id": 214, "aname": "Catherine Chevalier Woods" }, "geometry": { "type": "Point", "coordinates": [ -87.85157997995762, 41.977485037157152 ] } },
{ "type": "Feature", "properties": { "activities_id": 910, "atype": "trailhead", "trail_info_id": 267, "parking_info_id": 144, "poi_info_id": 187, "aname": "Busse Lake Beisner Road Access" }, "geometry": { "type": "Point", "coordinates": [ -88.017815854679711, 42.016203499610647 ] } },
{ "type": "Feature", "properties": { "activities_id": 911, "atype": "trailhead", "trail_info_id": 2066, "parking_info_id": 145, "poi_info_id": 186, "aname": "Busse Forest Main Dam" }, "geometry": { "type": "Point", "coordinates": [ -87.996265649444823, 42.016164317454788 ] } },
{ "type": "Feature", "properties": { "activities_id": 912, "atype": "trailhead", "trail_info_id": 2484, "parking_info_id": 156, "poi_info_id": 194, "aname": "Carl R. Hansen Woods" }, "geometry": { "type": "Point", "coordinates": [ -88.194436199763146, 42.053499265078898 ] } },
{ "type": "Feature", "properties": { "activities_id": 913, "atype": "trailhead", "trail_info_id": 2229, "parking_info_id": 121, "poi_info_id": 52, "aname": "Thaddeus S. \"Ted\" Lechowicz Woods" }, "geometry": { "type": "Point", "coordinates": [ -87.765744155042711, 41.988926678648149 ] } },
{ "type": "Feature", "properties": { "activities_id": 914, "atype": "trailhead", "trail_info_id": 1285, "parking_info_id": 71, "poi_info_id": 331, "aname": "Maple Lake-East - Mountain Bike Staging Area" }, "geometry": { "type": "Point", "coordinates": [ -87.881959804206943, 41.716825860251902 ] } },
{ "type": "Feature", "properties": { "activities_id": 915, "atype": "trailhead", "trail_info_id": 2611, "parking_info_id": 79, "poi_info_id": 391, "aname": "Arie Crown Forest" }, "geometry": { "type": "Point", "coordinates": [ -87.873478809052997, 41.762924868043548 ] } },
{ "type": "Feature", "properties": { "activities_id": 916, "atype": "trailhead", "trail_info_id": 1786, "parking_info_id": 203, "poi_info_id": 351, "aname": "Deer Grove-West" }, "geometry": { "type": "Point", "coordinates": [ -88.092432600760475, 42.136080135544546 ] } },
{ "type": "Feature", "properties": { "activities_id": 917, "atype": "trailhead", "trail_info_id": 636, "parking_info_id": 90, "poi_info_id": 153, "aname": "Green Lake Woods" }, "geometry": { "type": "Point", "coordinates": [ -87.551829291474021, 41.601262481046064 ] } },
{ "type": "Feature", "properties": { "activities_id": 918, "atype": "trailhead", "trail_info_id": 341, "parking_info_id": 28, "poi_info_id": 243, "aname": "Brookfield Woods" }, "geometry": { "type": "Point", "coordinates": [ -87.839510730654396, 41.836710970162763 ] } },
{ "type": "Feature", "properties": { "activities_id": 919, "atype": "trailhead", "trail_info_id": 2230, "parking_info_id": 29, "poi_info_id": 247, "aname": "Brezina Woods" }, "geometry": { "type": "Point", "coordinates": [ -87.876930438796336, 41.844691543437676 ] } },
{ "type": "Feature", "properties": { "activities_id": 920, "atype": "trailhead", "trail_info_id": 1340, "parking_info_id": 47, "poi_info_id": 175, "aname": "Turtlehead Lake" }, "geometry": { "type": "Point", "coordinates": [ -87.800308993233429, 41.642751400675543 ] } },
{ "type": "Feature", "properties": { "activities_id": 921, "atype": "trailhead", "trail_info_id": 1378, "parking_info_id": 48, "poi_info_id": 128, "aname": "Arrowhead Lake" }, "geometry": { "type": "Point", "coordinates": [ -87.791517802388768, 41.650289528854941 ] } },
{ "type": "Feature", "properties": { "activities_id": 922, "atype": "trailhead", "trail_info_id": 2613, "parking_info_id": 138, "poi_info_id": 314, "aname": "Dan Ryan Woods-91st Street" }, "geometry": { "type": "Point", "coordinates": [ -87.667314480691701, 41.728847604233394 ] } },
{ "type": "Feature", "properties": { "activities_id": 923, "atype": "snowmobiling", "trail_info_id": null, "parking_info_id": 47, "poi_info_id": 175, "aname": "Turtlehead Lake Snowmobiling" }, "geometry": { "type": "Point", "coordinates": [ -87.801560768042648, 41.641234005709805 ] } },
{ "type": "Feature", "properties": { "activities_id": 924, "atype": "trailhead", "trail_info_id": 858, "parking_info_id": 204, "poi_info_id": 178, "aname": "Camp Alphonse" }, "geometry": { "type": "Point", "coordinates": [ -88.077776912555265, 42.137577533859101 ] } },
{ "type": "Feature", "properties": { "activities_id": 925, "atype": "trailhead", "trail_info_id": 982, "parking_info_id": 245, "poi_info_id": 260, "aname": "Chicago Portage National Historic Site" }, "geometry": { "type": "Point", "coordinates": [ -87.802595187037724, 41.805571965149753 ] } },
{ "type": "Feature", "properties": { "activities_id": 927, "atype": "snowmobiling", "trail_info_id": null, "parking_info_id": 254, "poi_info_id": 303, "aname": "Morrill Meadow Snowmobiling" }, "geometry": { "type": "Point", "coordinates": [ -87.857165008365257, 41.692464663541244 ] } },
{ "type": "Feature", "properties": { "activities_id": 928, "atype": "sledding", "trail_info_id": null, "parking_info_id": 72, "poi_info_id": 316, "aname": "Pioneer Woods Sledding Hill" }, "geometry": { "type": "Point", "coordinates": [ -87.868566846546258, 41.697020510722993 ] } },
{ "type": "Feature", "properties": { "activities_id": 929, "atype": "sledding", "trail_info_id": null, "parking_info_id": 60, "poi_info_id": 123, "aname": "Swallow Cliff Woods-North Sledding Hill" }, "geometry": { "type": "Point", "coordinates": [ -87.863270213043535, 41.679949809536261 ] } },
{ "type": "Feature", "properties": { "activities_id": 930, "atype": "pavilion", "trail_info_id": null, "parking_info_id": 60, "poi_info_id": 123, "aname": "Swallow Cliff Woods Pavilion & Cafe" }, "geometry": { "type": "Point", "coordinates": [ -87.86259283584512, 41.680347857411931 ] } },
{ "type": "Feature", "properties": { "activities_id": 931, "atype": "trailhead", "trail_info_id": 2640, "parking_info_id": 148, "poi_info_id": 207, "aname": "Camp Ground Road Woods" }, "geometry": { "type": "Point", "coordinates": [ -87.872856343737539, 42.029236546829068 ] } },
{ "type": "Feature", "properties": { "activities_id": 932, "atype": "trailhead", "trail_info_id": 1579, "parking_info_id": 151, "poi_info_id": 390, "aname": "Bemis Woods-North" }, "geometry": { "type": "Point", "coordinates": [ -87.907109452858819, 41.82806965388685 ] } },
{ "type": "Feature", "properties": { "activities_id": 933, "atype": "trailhead", "trail_info_id": 844, "parking_info_id": 157, "poi_info_id": 180, "aname": "Deer Grove" }, "geometry": { "type": "Point", "coordinates": [ -88.06669496921603, 42.140419232053446 ] } },
{ "type": "Feature", "properties": { "activities_id": 934, "atype": "trailhead", "trail_info_id": 1798, "parking_info_id": 157, "poi_info_id": 180, "aname": "Deer Grove" }, "geometry": { "type": "Point", "coordinates": [ -88.074160633574266, 42.147535933808285 ] } },
{ "type": "Feature", "properties": { "activities_id": 935, "atype": "trailhead", "trail_info_id": 1311, "parking_info_id": 66, "poi_info_id": 376, "aname": "Columbia Woods" }, "geometry": { "type": "Point", "coordinates": [ -87.882381477778168, 41.735985246694696 ] } },
{ "type": "Feature", "properties": { "activities_id": 936, "atype": "trailhead", "trail_info_id": 1152, "parking_info_id": 46, "poi_info_id": 250, "aname": "Bemis Woods-South" }, "geometry": { "type": "Point", "coordinates": [ -87.909397371858702, 41.825281685976407 ] } },
{ "type": "Feature", "properties": { "activities_id": 938, "atype": "trailhead", "trail_info_id": 764, "parking_info_id": 200, "poi_info_id": 173, "aname": "Old Stover Trailhead" }, "geometry": { "type": "Point", "coordinates": [ -88.16069673142475, 42.110098872275302 ] } },
{ "type": "Feature", "properties": { "activities_id": 940, "atype": "sledding", "trail_info_id": null, "parking_info_id": 157, "poi_info_id": 180, "aname": "Deer Grove Sledding Hill" }, "geometry": { "type": "Point", "coordinates": [ -88.074031491568107, 42.146532893459636 ] } },
{ "type": "Feature", "properties": { "activities_id": 942, "atype": "trailhead", "trail_info_id": 2351, "parking_info_id": 139, "poi_info_id": 315, "aname": "Eggers Grove" }, "geometry": { "type": "Point", "coordinates": [ -87.528976087984503, 41.688036687952689 ] } },
{ "type": "Feature", "properties": { "activities_id": 943, "atype": "trailhead", "trail_info_id": 2268, "parking_info_id": 111, "poi_info_id": 162, "aname": "Jurgensen Woods" }, "geometry": { "type": "Point", "coordinates": [ -87.592306450592503, 41.55425178091842 ] } },
{ "type": "Feature", "properties": { "activities_id": 945, "atype": "zip line", "trail_info_id": null, "parking_info_id": 46, "poi_info_id": 250, "aname": "Go Ape Treetop Adventure" }, "geometry": { "type": "Point", "coordinates": [ -87.905862773133308, 41.822767836975729 ] } },
{ "type": "Feature", "properties": { "activities_id": 946, "atype": "trailhead", "trail_info_id": 1558, "parking_info_id": 147, "poi_info_id": 364, "aname": "Big Bend Lake" }, "geometry": { "type": "Point", "coordinates": [ -87.870058163464506, 42.052114014395912 ] } },
{ "type": "Feature", "properties": { "activities_id": 947, "atype": "trailhead", "trail_info_id": 2233, "parking_info_id": 281, "poi_info_id": 377, "aname": "St. Mihiel Woods-East" }, "geometry": { "type": "Point", "coordinates": [ -87.754442936858325, 41.586040184545276 ] } },
{ "type": "Feature", "properties": { "activities_id": 949, "atype": "trailhead", "trail_info_id": 929, "parking_info_id": 236, "poi_info_id": 270, "aname": "Glenview Woods" }, "geometry": { "type": "Point", "coordinates": [ -87.771826940253874, 42.067576661084502 ] } },
{ "type": "Feature", "properties": { "activities_id": 951, "atype": "trailhead", "trail_info_id": 2362, "parking_info_id": 252, "poi_info_id": 298, "aname": "Hidden Pond Woods-West" }, "geometry": { "type": "Point", "coordinates": [ -87.851549329719191, 41.723262311268208 ] } },
{ "type": "Feature", "properties": { "activities_id": 952, "atype": "trailhead", "trail_info_id": 309, "parking_info_id": 276, "poi_info_id": 379, "aname": "Orland Grassland Land and Water Reserve" }, "geometry": { "type": "Point", "coordinates": [ -87.854271825980661, 41.586360862765474 ] } },
{ "type": "Feature", "properties": { "activities_id": 953, "atype": "trailhead", "trail_info_id": 993, "parking_info_id": 277, "poi_info_id": 372, "aname": "Orland Grassland South" }, "geometry": { "type": "Point", "coordinates": [ -87.869744914500956, 41.562542689428966 ] } },
{ "type": "Feature", "properties": { "activities_id": 954, "atype": "frisbee golf", "trail_info_id": null, "parking_info_id": 188, "poi_info_id": 81, "aname": "Rolling Knolls Disc Golf" }, "geometry": { "type": "Point", "coordinates": [ -88.231050256675474, 42.037037740224903 ] } },
{ "type": "Feature", "properties": { "activities_id": 955, "atype": "sledding", "trail_info_id": null, "parking_info_id": 128, "poi_info_id": 221, "aname": "Schiller Woods-East Sledding Hill" }, "geometry": { "type": "Point", "coordinates": [ -87.841468525056072, 41.955837825683524 ] } },
{ "type": "Feature", "properties": { "activities_id": 956, "atype": "trailhead", "trail_info_id": 1077, "parking_info_id": 209, "poi_info_id": 198, "aname": "Poplar Creek Bicycle Lot" }, "geometry": { "type": "Point", "coordinates": [ -88.149444955207983, 42.061748998808625 ] } },
{ "type": "Feature", "properties": { "activities_id": 957, "atype": "trailhead", "trail_info_id": 2124, "parking_info_id": 214, "poi_info_id": 195, "aname": "Poplar Creek Equestrian Parking" }, "geometry": { "type": "Point", "coordinates": [ -88.213758979788636, 42.030423164676932 ] } },
{ "type": "Feature", "properties": { "activities_id": 958, "atype": "trailhead", "trail_info_id": 1718, "parking_info_id": 283, "poi_info_id": 365, "aname": "Oak Forest Heritage Preserve-East" }, "geometry": { "type": "Point", "coordinates": [ -87.716856016571739, 41.597757179702533 ] } },
{ "type": "Feature", "properties": { "activities_id": 959, "atype": "trailhead", "trail_info_id": 2111, "parking_info_id": 146, "poi_info_id": 183, "aname": "Grassy Ridge Meadow" }, "geometry": { "type": "Point", "coordinates": [ -88.113844582495744, 42.067845919877001 ] } },
{ "type": "Feature", "properties": { "activities_id": 960, "atype": "trailhead", "trail_info_id": 2094, "parking_info_id": 143, "poi_info_id": 29, "aname": "Busse Forest And Ned Brown Meadow" }, "geometry": { "type": "Point", "coordinates": [ -88.023439260947043, 42.05037890413373 ] } },
{ "type": "Feature", "properties": { "activities_id": 961, "atype": "sledding", "trail_info_id": null, "parking_info_id": 137, "poi_info_id": 313, "aname": "Dan Ryan Sledding Hill" }, "geometry": { "type": "Point", "coordinates": [ -87.679058333130925, 41.736532759085613 ] } },
{ "type": "Feature", "properties": { "activities_id": 962, "atype": "snowmobiling", "trail_info_id": null, "parking_info_id": 102, "poi_info_id": 164, "aname": "North Creek Meadow Snowmobiling" }, "geometry": { "type": "Point", "coordinates": [ -87.564868585043314, 41.545279293081926 ] } },
{ "type": "Feature", "properties": { "activities_id": 963, "atype": "sledding", "trail_info_id": null, "parking_info_id": 11, "poi_info_id": 42, "aname": "Westchester Woods Sledding Hill" }, "geometry": { "type": "Point", "coordinates": [ -87.866382766816656, 41.847217388673009 ] } },
{ "type": "Feature", "properties": { "activities_id": 965, "atype": "trailhead", "trail_info_id": 117, "parking_info_id": 195, "poi_info_id": 338, "aname": "River Trail Nature Center" }, "geometry": { "type": "Point", "coordinates": [ -87.882591300708157, 42.095707405277857 ] } },
{ "type": "Feature", "properties": { "activities_id": 966, "atype": "trailhead", "trail_info_id": 2337, "parking_info_id": 83, "poi_info_id": 306, "aname": "Midlothian Meadows" }, "geometry": { "type": "Point", "coordinates": [ -87.718022958466079, 41.614006369676311 ] } },
{ "type": "Feature", "properties": { "activities_id": 967, "atype": "trailhead", "trail_info_id": 791, "parking_info_id": 89, "poi_info_id": 141, "aname": "Whistler Woods" }, "geometry": { "type": "Point", "coordinates": [ -87.636432332776124, 41.655567879933962 ] } },
{ "type": "Feature", "properties": { "activities_id": 968, "atype": "trailhead", "trail_info_id": 599, "parking_info_id": 206, "poi_info_id": 202, "aname": "Beverly Lake" }, "geometry": { "type": "Point", "coordinates": [ -88.230811224664507, 42.083770009849381 ] } },
{ "type": "Feature", "properties": { "activities_id": 969, "atype": "trailhead", "trail_info_id": 2654, "parking_info_id": 76, "poi_info_id": 296, "aname": "Willow Springs Woods" }, "geometry": { "type": "Point", "coordinates": [ -87.873723149423057, 41.727406233310099 ] } },
{ "type": "Feature", "properties": { "activities_id": 970, "atype": "trailhead", "trail_info_id": 1041, "parking_info_id": 77, "poi_info_id": 320, "aname": "Wolf Road Woods" }, "geometry": { "type": "Point", "coordinates": [ -87.897772428741646, 41.704352711197139 ] } },
{ "type": "Feature", "properties": { "activities_id": 971, "atype": "trailhead", "trail_info_id": 276, "parking_info_id": 81, "poi_info_id": 290, "aname": "Sundown Meadow" }, "geometry": { "type": "Point", "coordinates": [ -87.872267898931511, 41.769460354920803 ] } },
{ "type": "Feature", "properties": { "activities_id": 972, "atype": "trailhead", "trail_info_id": 1843, "parking_info_id": 100, "poi_info_id": 367, "aname": "Woodrow Wilson Woods" }, "geometry": { "type": "Point", "coordinates": [ -87.644935736725046, 41.50672413961987 ] } },
{ "type": "Feature", "properties": { "activities_id": 973, "atype": "trailhead", "trail_info_id": 956, "parking_info_id": 112, "poi_info_id": 159, "aname": "Sweet Woods" }, "geometry": { "type": "Point", "coordinates": [ -87.59757492347039, 41.556095805839561 ] } },
{ "type": "Feature", "properties": { "activities_id": 974, "atype": "trailhead", "trail_info_id": 303, "parking_info_id": 114, "poi_info_id": 309, "aname": "Vollmer Road Grove" }, "geometry": { "type": "Point", "coordinates": [ -87.718770863007435, 41.529202495666439 ] } },
{ "type": "Feature", "properties": { "activities_id": 975, "atype": "trailhead", "trail_info_id": 21, "parking_info_id": 15, "poi_info_id": 342, "aname": "Camp Pine Woods" }, "geometry": { "type": "Point", "coordinates": [ -87.886874965590081, 42.086855675282656 ] } },
{ "type": "Feature", "properties": { "activities_id": 976, "atype": "trailhead", "trail_info_id": 1255, "parking_info_id": 60, "poi_info_id": 123, "aname": "Swallow Cliff Woods-North" }, "geometry": { "type": "Point", "coordinates": [ -87.861377449350954, 41.683418802353671 ] } },
{ "type": "Feature", "properties": { "activities_id": 977, "atype": "trailhead", "trail_info_id": 2171, "parking_info_id": 233, "poi_info_id": 267, "aname": "Tower Road Boat Launch" }, "geometry": { "type": "Point", "coordinates": [ -87.775081980951825, 42.113274412395882 ] } },
{ "type": "Feature", "properties": { "activities_id": 978, "atype": "trailhead", "trail_info_id": 1862, "parking_info_id": 237, "poi_info_id": 275, "aname": "Calvin R. Sutker Grove" }, "geometry": { "type": "Point", "coordinates": [ -87.762186662484012, 42.056542810197925 ] } },
{ "type": "Feature", "properties": { "activities_id": 979, "atype": "trailhead", "trail_info_id": 2304, "parking_info_id": 244, "poi_info_id": 259, "aname": "Stony Ford Canoe Landing" }, "geometry": { "type": "Point", "coordinates": [ -87.811029492056178, 41.813461210040593 ] } },
{ "type": "Feature", "properties": { "activities_id": 980, "atype": "trailhead", "trail_info_id": 1639, "parking_info_id": 279, "poi_info_id": 137, "aname": "Catalina Grove Family Picnic Area" }, "geometry": { "type": "Point", "coordinates": [ -87.801632448440245, 41.61713079965395 ] } },
{ "type": "Feature", "properties": { "activities_id": 981, "atype": "trailhead", "trail_info_id": 1426, "parking_info_id": 287, "poi_info_id": 310, "aname": "Flossmoor Road Bicycle Lot" }, "geometry": { "type": "Point", "coordinates": [ -87.721214782664575, 41.541729483108362 ] } },
{ "type": "Feature", "properties": { "activities_id": 982, "atype": "trailhead", "trail_info_id": 2085, "parking_info_id": 316, "poi_info_id": 184, "aname": "Busse Forest-North" }, "geometry": { "type": "Point", "coordinates": [ -87.99951583207779, 42.03683757796388 ] } },
{ "type": "Feature", "properties": { "activities_id": 985, "atype": "trailhead", "trail_info_id": 232, "parking_info_id": 334, "poi_info_id": 100, "aname": "Camp Bullfrog Lake" }, "geometry": { "type": "Point", "coordinates": [ -87.904744655217755, 41.708979299751704 ] } },
{ "type": "Feature", "properties": { "activities_id": 986, "atype": "trailhead", "trail_info_id": 1137, "parking_info_id": 178, "poi_info_id": 325, "aname": "Bullfrog Lake" }, "geometry": { "type": "Point", "coordinates": [ -87.898571959042954, 41.711348825357092 ] } },
{ "type": "Feature", "properties": { "activities_id": 988, "atype": "sledding", "trail_info_id": null, "parking_info_id": 121, "poi_info_id": 52, "aname": "Thaddeus S. \"Ted\" Lechowicz Woods Sledding Hill" }, "geometry": { "type": "Point", "coordinates": [ -87.763638255742848, 41.988580272339739 ] } },
{ "type": "Feature", "properties": { "activities_id": 989, "atype": "trailhead", "trail_info_id": 2174, "parking_info_id": 232, "poi_info_id": 266, "aname": "Tower Road Kayak\/Canoe Rental" }, "geometry": { "type": "Point", "coordinates": [ -87.770749615199193, 42.115934937493641 ] } },
{ "type": "Feature", "properties": { "activities_id": 990, "atype": "trailhead", "trail_info_id": 48, "parking_info_id": 23, "poi_info_id": 230, "aname": "Sunset Bridge Meadow" }, "geometry": { "type": "Point", "coordinates": [ -87.832257489688374, 41.909681796989311 ] } },
{ "type": "Feature", "properties": { "activities_id": 991, "atype": "bicycle rental", "trail_info_id": null, "parking_info_id": 118, "poi_info_id": 282, "aname": "Bunker Hill Bike Rental" }, "geometry": { "type": "Point", "coordinates": [ -87.791763923490464, 42.010598442575706 ] } },
{ "type": "Feature", "properties": { "activities_id": 992, "atype": "bicycle rental", "trail_info_id": null, "parking_info_id": 97, "poi_info_id": 271, "aname": "Harms Woods North Bike Rental" }, "geometry": { "type": "Point", "coordinates": [ -87.770527487009659, 42.061743324643963 ] } },
{ "type": "Feature", "properties": { "activities_id": 993, "atype": "bicycle rental", "trail_info_id": null, "parking_info_id": 131, "poi_info_id": 193, "aname": "Dan Ryan Woods Bike Rental" }, "geometry": { "type": "Point", "coordinates": [ -87.682069333352288, 41.74077127231876 ] } },
{ "type": "Feature", "properties": { "activities_id": 994, "atype": "bicycle lot", "trail_info_id": null, "parking_info_id": 71, "poi_info_id": 331, "aname": "Maple Lake Mountain Bike Staging Area" }, "geometry": { "type": "Point", "coordinates": [ -87.882110425314707, 41.715273837036889 ] } },
{ "type": "Feature", "properties": { "activities_id": 995, "atype": "bicycle lot", "trail_info_id": null, "parking_info_id": 287, "poi_info_id": 310, "aname": "Flossmoor Road Bicycle Lot" }, "geometry": { "type": "Point", "coordinates": [ -87.721137210846976, 41.542005395680086 ] } },
{ "type": "Feature", "properties": { "activities_id": 996, "atype": "bicycle lot", "trail_info_id": null, "parking_info_id": 175, "poi_info_id": 297, "aname": "John Husar I&M Canal Bicycle Trail Parking Lot" }, "geometry": { "type": "Point", "coordinates": [ -87.8800202070084, 41.733609061513313 ] } },
{ "type": "Feature", "properties": { "activities_id": 997, "atype": "boat launch", "trail_info_id": null, "parking_info_id": 219, "poi_info_id": 343, "aname": "Beck Lake Boat Launch" }, "geometry": { "type": "Point", "coordinates": [ -87.873454701535962, 42.071759616111322 ] } },
{ "type": "Feature", "properties": { "activities_id": 998, "atype": "boat launch", "trail_info_id": null, "parking_info_id": 298, "poi_info_id": 149, "aname": "Powderhorn Lake Boat Launch" }, "geometry": { "type": "Point", "coordinates": [ -87.533668365830067, 41.640928855864253 ] } },
{ "type": "Feature", "properties": { "activities_id": 999, "atype": "boat launch", "trail_info_id": null, "parking_info_id": 313, "poi_info_id": 189, "aname": "Busse Lake Boat Launch" }, "geometry": { "type": "Point", "coordinates": [ -88.016614286815894, 42.024922174223747 ] } },
{ "type": "Feature", "properties": { "activities_id": 1000, "atype": "boat launch", "trail_info_id": null, "parking_info_id": 233, "poi_info_id": 267, "aname": "Tower Road Boat Launch" }, "geometry": { "type": "Point", "coordinates": [ -87.774849228094482, 42.113667864062748 ] } },
{ "type": "Feature", "properties": { "activities_id": 1001, "atype": "boat launch", "trail_info_id": null, "parking_info_id": 272, "poi_info_id": 126, "aname": "Tampier Lake Boat Launch" }, "geometry": { "type": "Point", "coordinates": [ -87.897825263990399, 41.650601759444569 ] } },
{ "type": "Feature", "properties": { "activities_id": 1002, "atype": "boat launch", "trail_info_id": null, "parking_info_id": 313, "poi_info_id": 189, "aname": "Busse Lake South Boat Launch" }, "geometry": { "type": "Point", "coordinates": [ -88.016894691309588, 42.022830304502122 ] } },
{ "type": "Feature", "properties": { "activities_id": 1003, "atype": "canoe landing", "trail_info_id": null, "parking_info_id": 12, "poi_info_id": 341, "aname": "Dam No. 2 Woods Canoe Landing" }, "geometry": { "type": "Point", "coordinates": [ -87.890647, 42.08289 ] } },
{ "type": "Feature", "properties": { "activities_id": 1004, "atype": "canoe landing", "trail_info_id": null, "parking_info_id": 293, "poi_info_id": 277, "aname": "Linne Woods Canoe Landing" }, "geometry": { "type": "Point", "coordinates": [ -87.786025755964502, 42.043810155849009 ] } },
{ "type": "Feature", "properties": { "activities_id": 1005, "atype": "canoe landing", "trail_info_id": null, "parking_info_id": 324, "poi_info_id": 205, "aname": "Northwestern Woods Canoe Landing" }, "geometry": { "type": "Point", "coordinates": [ -87.881980593507677, 42.037099478333211 ] } },
{ "type": "Feature", "properties": { "activities_id": 1006, "atype": "canoe landing", "trail_info_id": null, "parking_info_id": 161, "poi_info_id": 337, "aname": "Allison Woods Canoe Landing" }, "geometry": { "type": "Point", "coordinates": [ -87.885820504184878, 42.100955930717973 ] } },
{ "type": "Feature", "properties": { "activities_id": 1007, "atype": "canoe landing", "trail_info_id": null, "parking_info_id": 151, "poi_info_id": 390, "aname": "Bemis Woods-North Canoe Landing" }, "geometry": { "type": "Point", "coordinates": [ -87.906931166603471, 41.827663845831715 ] } },
{ "type": "Feature", "properties": { "activities_id": 1008, "atype": "canoe landing", "trail_info_id": null, "parking_info_id": 66, "poi_info_id": 376, "aname": "Columbia Woods Canoe Landing" }, "geometry": { "type": "Point", "coordinates": [ -87.889242954249255, 41.730524181379472 ] } },
{ "type": "Feature", "properties": { "activities_id": 1009, "atype": "canoe landing", "trail_info_id": null, "parking_info_id": 289, "poi_info_id": 145, "aname": "Kickapoo Woods Canoe Landing" }, "geometry": { "type": "Point", "coordinates": [ -87.644058019961903, 41.629236263898882 ] } },
{ "type": "Feature", "properties": { "activities_id": 1010, "atype": "canoe landing", "trail_info_id": null, "parking_info_id": 306, "poi_info_id": 246, "aname": "Twenty-Sixth Street Woods-West Canoe Landing" }, "geometry": { "type": "Point", "coordinates": [ -87.858342718995814, 41.842738059378043 ] } },
{ "type": "Feature", "properties": { "activities_id": 1012, "atype": "model airplane flying field", "trail_info_id": null, "parking_info_id": 254, "poi_info_id": 303, "aname": "Morrill Meadow Model Airplane Flying Field" }, "geometry": { "type": "Point", "coordinates": [ -87.858510616667715, 41.693931089716529 ] } },
{ "type": "Feature", "properties": { "activities_id": 1013, "atype": "model airplane flying field", "trail_info_id": null, "parking_info_id": 117, "poi_info_id": 181, "aname": "Deer Grove Model Airplane Flying Field" }, "geometry": { "type": "Point", "coordinates": [ -88.042061214831165, 42.144301854568084 ] } },
{ "type": "Feature", "properties": { "activities_id": 1014, "atype": "model airplane flying field", "trail_info_id": null, "parking_info_id": 143, "poi_info_id": 29, "aname": "Ned Brown Model Airplane Flying Field" }, "geometry": { "type": "Point", "coordinates": [ -88.018757908574813, 42.045661188267857 ] } },
{ "type": "Feature", "properties": { "activities_id": 1015, "atype": "model airplane flying field", "trail_info_id": null, "parking_info_id": 289, "poi_info_id": 145, "aname": "Kickapoo Woods Model Airplane Flying Field" }, "geometry": { "type": "Point", "coordinates": [ -87.6456496154766, 41.631276966095626 ] } },
{ "type": "Feature", "properties": { "activities_id": 1016, "atype": "recreational waterbody", "trail_info_id": null, "parking_info_id": 213, "poi_info_id": 196, "aname": "Bode Lake" }, "geometry": { "type": "Point", "coordinates": [ -88.168094801404322, 42.041411542993814 ] } },
{ "type": "Feature", "properties": { "activities_id": 1017, "atype": "recreational waterbody", "trail_info_id": null, "parking_info_id": 329, "poi_info_id": 203, "aname": "Penny Road Pond" }, "geometry": { "type": "Point", "coordinates": [ -88.207535062161682, 42.097255533200951 ] } },
{ "type": "Feature", "properties": { "activities_id": 1018, "atype": "recreational waterbody", "trail_info_id": null, "parking_info_id": 253, "poi_info_id": 300, "aname": "Belly Deep Slough" }, "geometry": { "type": "Point", "coordinates": [ -87.849679435251801, 41.710570036001926 ] } },
{ "type": "Feature", "properties": { "activities_id": 1019, "atype": "recreational waterbody", "trail_info_id": null, "parking_info_id": 330, "poi_info_id": 27, "aname": "O'Malley Ponds" }, "geometry": { "type": "Point", "coordinates": [ -87.542859878830896, 41.496824263255007 ] } },
{ "type": "Feature", "properties": { "activities_id": 1020, "atype": "recreational waterbody", "trail_info_id": null, "parking_info_id": 0, "poi_info_id": 74, "aname": "McGinty Slough" }, "geometry": { "type": "Point", "coordinates": [ -87.922865768502888, 41.660604522278277 ] } },
{ "type": "Feature", "properties": { "activities_id": 1021, "atype": "recreational waterbody", "trail_info_id": null, "parking_info_id": 113, "poi_info_id": 22, "aname": "Wampum Lake" }, "geometry": { "type": "Point", "coordinates": [ -87.590514682454639, 41.574436278443471 ] } },
{ "type": "Feature", "properties": { "activities_id": 1022, "atype": "recreational waterbody", "trail_info_id": null, "parking_info_id": 269, "poi_info_id": 115, "aname": "Horsetail Lake" }, "geometry": { "type": "Point", "coordinates": [ -87.872025216216727, 41.669627376356708 ] } },
{ "type": "Feature", "properties": { "activities_id": 1023, "atype": "recreational waterbody", "trail_info_id": null, "parking_info_id": 234, "poi_info_id": 116, "aname": "Papoose Lake" }, "geometry": { "type": "Point", "coordinates": [ -87.858677404184135, 41.665321270588031 ] } },
{ "type": "Feature", "properties": { "activities_id": 1024, "atype": "recreational waterbody", "trail_info_id": null, "parking_info_id": 48, "poi_info_id": 128, "aname": "Arrowhead Lake" }, "geometry": { "type": "Point", "coordinates": [ -87.793028075832609, 41.651777627550267 ] } },
{ "type": "Feature", "properties": { "activities_id": 1025, "atype": "recreational waterbody", "trail_info_id": null, "parking_info_id": 262, "poi_info_id": 333, "aname": "Sag Quarry-West" }, "geometry": { "type": "Point", "coordinates": [ -87.934349829418395, 41.693157196930457 ] } },
{ "type": "Feature", "properties": { "activities_id": 1026, "atype": "recreational waterbody", "trail_info_id": null, "parking_info_id": 262, "poi_info_id": 333, "aname": "Sag Quarry-East" }, "geometry": { "type": "Point", "coordinates": [ -87.929818318270208, 41.691290027934741 ] } },
{ "type": "Feature", "properties": { "activities_id": 1027, "atype": "recreational waterbody", "trail_info_id": null, "parking_info_id": 272, "poi_info_id": 126, "aname": "Tampier Lake" }, "geometry": { "type": "Point", "coordinates": [ -87.903594116612126, 41.649497151176526 ] } },
{ "type": "Feature", "properties": { "activities_id": 1028, "atype": "recreational waterbody", "trail_info_id": null, "parking_info_id": 282, "poi_info_id": 305, "aname": "Midlothian Reservoir" }, "geometry": { "type": "Point", "coordinates": [ -87.740246479219081, 41.592281518530847 ] } },
{ "type": "Feature", "properties": { "activities_id": 1029, "atype": "recreational waterbody", "trail_info_id": null, "parking_info_id": 178, "poi_info_id": 325, "aname": "Bullfrog Lake" }, "geometry": { "type": "Point", "coordinates": [ -87.900839064338953, 41.709482447199314 ] } },
{ "type": "Feature", "properties": { "activities_id": 1030, "atype": "recreational waterbody", "trail_info_id": null, "parking_info_id": 260, "poi_info_id": 322, "aname": "Saganashkee Slough" }, "geometry": { "type": "Point", "coordinates": [ -87.891627807268193, 41.694348359733013 ] } },
{ "type": "Feature", "properties": { "activities_id": 1031, "atype": "recreational waterbody", "trail_info_id": null, "parking_info_id": 298, "poi_info_id": 149, "aname": "Powderhorn Lake" }, "geometry": { "type": "Point", "coordinates": [ -87.530001350976434, 41.642639943574913 ] } },
{ "type": "Feature", "properties": { "activities_id": 1032, "atype": "recreational waterbody", "trail_info_id": null, "parking_info_id": 220, "poi_info_id": 346, "aname": "Belleau Lake" }, "geometry": { "type": "Point", "coordinates": [ -87.868499783711968, 42.033789638761696 ] } },
{ "type": "Feature", "properties": { "activities_id": 1033, "atype": "recreational waterbody", "trail_info_id": null, "parking_info_id": 47, "poi_info_id": 175, "aname": "Turtlehead Lake" }, "geometry": { "type": "Point", "coordinates": [ -87.805992073416306, 41.64160313186332 ] } },
{ "type": "Feature", "properties": { "activities_id": 1034, "atype": "recreational waterbody", "trail_info_id": null, "parking_info_id": 206, "poi_info_id": 202, "aname": "Beverly Lake" }, "geometry": { "type": "Point", "coordinates": [ -88.22879057805612, 42.084242747677116 ] } },
{ "type": "Feature", "properties": { "activities_id": 1035, "atype": "recreational waterbody", "trail_info_id": null, "parking_info_id": 311, "poi_info_id": 60, "aname": "Joe's Pond" }, "geometry": { "type": "Point", "coordinates": [ -87.876130051620251, 41.702475291778455 ] } },
{ "type": "Feature", "properties": { "activities_id": 1036, "atype": "recreational waterbody", "trail_info_id": null, "parking_info_id": 0, "poi_info_id": 68, "aname": "Tryner's Pond" }, "geometry": { "type": "Point", "coordinates": [ -87.751403995434075, 41.566209443842226 ] } },
{ "type": "Feature", "properties": { "activities_id": 1037, "atype": "recreational waterbody", "trail_info_id": null, "parking_info_id": 0, "poi_info_id": 61, "aname": "Tuma Lake" }, "geometry": { "type": "Point", "coordinates": [ -87.87193092610346, 41.705247735505672 ] } },
{ "type": "Feature", "properties": { "activities_id": 1038, "atype": "recreational waterbody", "trail_info_id": null, "parking_info_id": 219, "poi_info_id": 343, "aname": "Beck Lake" }, "geometry": { "type": "Point", "coordinates": [ -87.871054645721699, 42.072795539265648 ] } },
{ "type": "Feature", "properties": { "activities_id": 1039, "atype": "recreational waterbody", "trail_info_id": null, "parking_info_id": 188, "poi_info_id": 81, "aname": "Rolling Knolls Pond" }, "geometry": { "type": "Point", "coordinates": [ -88.232644557110802, 42.034278663477913 ] } },
{ "type": "Feature", "properties": { "activities_id": 1040, "atype": "canoe landing", "trail_info_id": null, "parking_info_id": 25, "poi_info_id": 217, "aname": "Irving Park Road Canoe Landing" }, "geometry": { "type": "Point", "coordinates": [ -87.855950117932665, 41.954137639232869 ] } },
{ "type": "Feature", "properties": { "activities_id": 1041, "atype": "canoe landing", "trail_info_id": null, "parking_info_id": 244, "poi_info_id": 259, "aname": "Stony Ford Canoe Landing" }, "geometry": { "type": "Point", "coordinates": [ -87.809463834967815, 41.812841431167946 ] } },
{ "type": "Feature", "properties": { "activities_id": 1042, "atype": "bicycle lot", "trail_info_id": null, "parking_info_id": 209, "poi_info_id": 198, "aname": "Poplar Creek Bicycle Lot" }, "geometry": { "type": "Point", "coordinates": [ -88.149297541674429, 42.061994372614301 ] } },
{ "type": "Feature", "properties": { "activities_id": 1043, "atype": "recreational waterbody", "trail_info_id": null, "parking_info_id": 172, "poi_info_id": 233, "aname": "Thatcher Pond" }, "geometry": { "type": "Point", "coordinates": [ -87.827823, 41.892819 ] } },
{ "type": "Feature", "properties": { "activities_id": 1044, "atype": "recreational waterbody", "trail_info_id": null, "parking_info_id": 64, "poi_info_id": 293, "aname": "Buffalo Woods Pond" }, "geometry": { "type": "Point", "coordinates": [ -87.849263815293511, 41.736816632857824 ] } },
{ "type": "Feature", "properties": { "activities_id": 1045, "atype": "recreational waterbody", "trail_info_id": null, "parking_info_id": 170, "poi_info_id": 383, "aname": "Axehead Lake" }, "geometry": { "type": "Point", "coordinates": [ -87.8665995847457, 42.008529883368773 ] } },
{ "type": "Feature", "properties": { "activities_id": 1046, "atype": "recreational waterbody", "trail_info_id": null, "parking_info_id": 147, "poi_info_id": 364, "aname": "Big Bend Lake" }, "geometry": { "type": "Point", "coordinates": [ -87.876076952823581, 42.051370156024419 ] } },
{ "type": "Feature", "properties": { "activities_id": 1047, "atype": "boat launch", "trail_info_id": null, "parking_info_id": 261, "poi_info_id": 324, "aname": "Saganashkee Slough Boat Launch" }, "geometry": { "type": "Point", "coordinates": [ -87.904773510615428, 41.696402029934511 ] } },
{ "type": "Feature", "properties": { "activities_id": 1048, "atype": "recreational waterbody", "trail_info_id": null, "parking_info_id": 257, "poi_info_id": 370, "aname": "Crawdad Slough" }, "geometry": { "type": "Point", "coordinates": [ -87.874577906830055, 41.716378829286235 ] } },
{ "type": "Feature", "properties": { "activities_id": 1049, "atype": "recreational waterbody", "trail_info_id": null, "parking_info_id": 252, "poi_info_id": 298, "aname": "Hidden Pond" }, "geometry": { "type": "Point", "coordinates": [ -87.849747345913343, 41.722144885387934 ] } },
{ "type": "Feature", "properties": { "activities_id": 1050, "atype": "recreational waterbody", "trail_info_id": null, "parking_info_id": 160, "poi_info_id": 197, "aname": "Barrington Road Pond" }, "geometry": { "type": "Point", "coordinates": [ -88.145588838821638, 42.056186958384878 ] } },
{ "type": "Feature", "properties": { "activities_id": 1051, "atype": "boating center", "trail_info_id": null, "parking_info_id": 313, "poi_info_id": 189, "aname": "Busse Lake Boating Center" }, "geometry": { "type": "Point", "coordinates": [ -88.015151796218859, 42.024502072493995 ] } },
{ "type": "Feature", "properties": { "activities_id": 1052, "atype": "boating center", "trail_info_id": null, "parking_info_id": 177, "poi_info_id": 378, "aname": "Maple Lake Boating Center" }, "geometry": { "type": "Point", "coordinates": [ -87.894505737948634, 41.712340279275288 ] } },
{ "type": "Feature", "properties": { "activities_id": 1053, "atype": "boating center", "trail_info_id": null, "parking_info_id": 272, "poi_info_id": 126, "aname": "Tampier Lake Boating Center" }, "geometry": { "type": "Point", "coordinates": [ -87.897742692556193, 41.65017985507091 ] } },
{ "type": "Feature", "properties": { "activities_id": 1054, "atype": "model airplane flying field", "trail_info_id": null, "parking_info_id": 264, "poi_info_id": 163, "aname": "Thorn Creek Model Airplane Flying Field" }, "geometry": { "type": "Point", "coordinates": [ -87.57675902672284, 41.5526331584121 ] } },
{ "type": "Feature", "properties": { "activities_id": 1055, "atype": "model airplane flying field", "trail_info_id": null, "parking_info_id": 286, "poi_info_id": 308, "aname": "Tinley Creek Model Airplane Flying Field" }, "geometry": { "type": "Point", "coordinates": [ -87.736916033483766, 41.537623390557712 ] } },
{ "type": "Feature", "properties": { "activities_id": 1056, "atype": "model airplane flying field", "trail_info_id": null, "parking_info_id": 223, "poi_info_id": 222, "aname": "Schiller Model Airplane Flying Field" }, "geometry": { "type": "Point", "coordinates": [ -87.842169233283968, 41.951660764765101 ] } },
{ "type": "Feature", "properties": { "activities_id": 1057, "atype": "model airplane flying field", "trail_info_id": null, "parking_info_id": 210, "poi_info_id": 199, "aname": "Poplar Creek Model Airplane Flying Field" }, "geometry": { "type": "Point", "coordinates": [ -88.160680540662497, 42.060260371622483 ] } },
{ "type": "Feature", "properties": { "activities_id": 1058, "atype": "equestrian parking", "trail_info_id": null, "parking_info_id": 214, "poi_info_id": 195, "aname": "Poplar Creek Equestrian Parking" }, "geometry": { "type": "Point", "coordinates": [ -88.214132072499964, 42.030979433625468 ] } },
{ "type": "Feature", "properties": { "activities_id": 1059, "atype": "equestrian parking", "trail_info_id": null, "parking_info_id": 192, "poi_info_id": 58, "aname": "Camp Kiwanis Equestrian Staging Area" }, "geometry": { "type": "Point", "coordinates": [ -87.873788160479336, 41.709576523560528 ] } },
{ "type": "Feature", "properties": { "activities_id": 1060, "atype": "equestrian parking", "trail_info_id": null, "parking_info_id": 197, "poi_info_id": 347, "aname": "Spring Lake Equestrian Parking" }, "geometry": { "type": "Point", "coordinates": [ -88.220180404735871, 42.136123151208608 ] } },
{ "type": "Feature", "properties": { "activities_id": 1061, "atype": "equestrian parking", "trail_info_id": null, "parking_info_id": 297, "poi_info_id": 398, "aname": "Sag Valley Equestrian Parking" }, "geometry": { "type": "Point", "coordinates": [ -87.924020885483998, 41.650278968724521 ] } },
{ "type": "Feature", "properties": { "activities_id": 1062, "atype": "boat launch", "trail_info_id": null, "parking_info_id": 301, "poi_info_id": 146, "aname": "Beaubien Woods Boat Launch" }, "geometry": { "type": "Point", "coordinates": [ -87.590383883487519, 41.65010889253967 ] } },
{ "type": "Feature", "properties": { "activities_id": 1063, "atype": "boat launch", "trail_info_id": null, "parking_info_id": 34, "poi_info_id": 253, "aname": "Plank Road Meadow Boat Launch" }, "geometry": { "type": "Point", "coordinates": [ -87.8318044364689, 41.817872443945177 ] } },
{ "type": "Feature", "properties": { "activities_id": 1064, "atype": "boat launch", "trail_info_id": null, "parking_info_id": 290, "poi_info_id": 143, "aname": "Little Calumet Boat Launch" }, "geometry": { "type": "Point", "coordinates": [ -87.659934304837876, 41.651675508098499 ] } },
{ "type": "Feature", "properties": { "activities_id": 1066, "atype": "trailhead", "trail_info_id": 411, "parking_info_id": 198, "poi_info_id": 393, "aname": "Horizon Farm" }, "geometry": { "type": "Point", "coordinates": [ -88.18707313225454, 42.12886981054077 ] } },
{ "type": "Feature", "properties": { "activities_id": 1067, "atype": "trailhead", "trail_info_id": 2149, "parking_info_id": 186, "poi_info_id": 179, "aname": "Camp Reinberg" }, "geometry": { "type": "Point", "coordinates": [ -88.061977790534868, 42.141639069541043 ] } },
{ "type": "Feature", "properties": { "activities_id": 1069, "atype": "trailhead", "trail_info_id": 2732, "parking_info_id": 128, "poi_info_id": 221, "aname": "Schiller Woods-East" }, "geometry": { "type": "Point", "coordinates": [ -87.839015453851118, 41.958583270240446 ] } },
{ "type": "Feature", "properties": { "activities_id": 1070, "atype": "trailhead", "trail_info_id": 258, "parking_info_id": 46, "poi_info_id": 250, "aname": "Bemis Woods-South" }, "geometry": { "type": "Point", "coordinates": [ -87.905232070699924, 41.822308107341101 ] } },
{ "type": "Feature", "properties": { "activities_id": 1071, "atype": "trailhead", "trail_info_id": 2299, "parking_info_id": 336, "poi_info_id": 254, "aname": "Cermak Woods" }, "geometry": { "type": "Point", "coordinates": [ -87.812510049381984, 41.818126703149211 ] } },
{ "type": "Feature", "properties": { "activities_id": 1072, "atype": "trailhead", "trail_info_id": 615, "parking_info_id": 197, "poi_info_id": 347, "aname": "Spring Lake Equestrian Parking" }, "geometry": { "type": "Point", "coordinates": [ -88.219398951803058, 42.135819444272471 ] } },
{ "type": "Feature", "properties": { "activities_id": 1073, "atype": "trailhead", "trail_info_id": 91, "parking_info_id": 162, "poi_info_id": 339, "aname": "Lake Avenue Woods-East" }, "geometry": { "type": "Point", "coordinates": [ -87.883418738950226, 42.091063939571754 ] } },
{ "type": "Feature", "properties": { "activities_id": 1075, "atype": "fitness stairs", "trail_info_id": null, "parking_info_id": 60, "poi_info_id": 123, "aname": "Swallow Cliff Stairs" }, "geometry": { "type": "Point", "coordinates": [ -87.86274246533462, 41.68065260178291 ] } },
{ "type": "Feature", "properties": { "activities_id": 1079, "atype": "trailhead", "trail_info_id": 1275, "parking_info_id": 350, "poi_info_id": 1078, "aname": "Oak Forest Heritage Preserve-West" }, "geometry": { "type": "Point", "coordinates": [ -87.728472298987683, 41.597895906856273 ] } },
{ "type": "Feature", "properties": { "activities_id": 1083, "atype": "pavilion", "trail_info_id": null, "parking_info_id": 188, "poi_info_id": 81, "aname": "Rolling Knolls Pavilion" }, "geometry": { "type": "Point", "coordinates": [ -88.230724504269148, 42.035384889171169 ] } },
{ "type": "Feature", "properties": { "activities_id": 1084, "atype": "sledding", "trail_info_id": null, "parking_info_id": 188, "poi_info_id": 81, "aname": "Rolling Knolls Sledding Hill" }, "geometry": { "type": "Point", "coordinates": [ -88.231714484456333, 42.035747850629221 ] } },
{ "type": "Feature", "properties": { "activities_id": 1085, "atype": "trailhead", "trail_info_id": 2608, "parking_info_id": 229, "poi_info_id": 263, "aname": "Chicago Botanic Garden" }, "geometry": { "type": "Point", "coordinates": [ -87.786515743133506, 42.149600305968121 ] } },
{ "type": "Feature", "properties": { "activities_id": 1097, "atype": "model airplane flying field", "trail_info_id": null, "parking_info_id": 353, "poi_info_id": 1011, "aname": "Miller Meadow Model Airplane Flying Field" }, "geometry": { "type": "Point", "coordinates": [ -87.829298470623328, 41.851644419597221 ] } },
{ "type": "Feature", "properties": { "activities_id": 1098, "atype": "canoe landing", "trail_info_id": null, "parking_info_id": 8, "poi_info_id": 234, "aname": "Maywood Grove Canoe Landing" }, "geometry": { "type": "Point", "coordinates": [ -87.832220801323018, 41.888451533219261 ] } },
{ "type": "Feature", "properties": { "activities_id": 1099, "atype": "recreational waterbody", "trail_info_id": null, "parking_info_id": 350, "poi_info_id": 1078, "aname": "Pogie Lake" }, "geometry": { "type": "Point", "coordinates": [ -87.725403488269478, 41.59853262670206 ] } },
{ "type": "Feature", "properties": { "activities_id": 1101, "atype": "bicycle rental", "trail_info_id": null, "parking_info_id": 160, "poi_info_id": 197, "aname": "Barrington Road Pond Bike Rental" }, "geometry": { "type": "Point", "coordinates": [ -88.144919, 42.056813 ] } },
{ "type": "Feature", "properties": { "activities_id": 1102, "atype": "bicycle rental", "trail_info_id": null, "parking_info_id": 151, "poi_info_id": 390, "aname": "Bemis Woods North Bike Rental" }, "geometry": { "type": "Point", "coordinates": [ -87.906951, 41.828061 ] } },
{ "type": "Feature", "properties": { "activities_id": 1103, "atype": "bicycle rental", "trail_info_id": null, "parking_info_id": 46, "poi_info_id": 250, "aname": "Bemis Woods South Bike Rental" }, "geometry": { "type": "Point", "coordinates": [ -87.904888, 41.82208 ] } },
{ "type": "Feature", "properties": { "activities_id": 1104, "atype": "bicycle rental", "trail_info_id": null, "parking_info_id": 213, "poi_info_id": 196, "aname": "Bode Lake Bike Rental" }, "geometry": { "type": "Point", "coordinates": [ -88.168901, 42.03965 ] } },
{ "type": "Feature", "properties": { "activities_id": 1105, "atype": "bicycle rental", "trail_info_id": null, "parking_info_id": 164, "poi_info_id": 138, "aname": "Bremen Grove Bike Rental" }, "geometry": { "type": "Point", "coordinates": [ -87.783483, 41.599564 ] } },
{ "type": "Feature", "properties": { "activities_id": 1106, "atype": "bicycle rental", "trail_info_id": null, "parking_info_id": 29, "poi_info_id": 247, "aname": "Brezina Woods Bike Rental" }, "geometry": { "type": "Point", "coordinates": [ -87.876762, 41.84479 ] } },
{ "type": "Feature", "properties": { "activities_id": 1107, "atype": "bicycle rental", "trail_info_id": null, "parking_info_id": 28, "poi_info_id": 243, "aname": "Brookfield Woods Bike Rental" }, "geometry": { "type": "Point", "coordinates": [ -87.839585, 41.836534 ] } },
{ "type": "Feature", "properties": { "activities_id": 1108, "atype": "bicycle rental", "trail_info_id": null, "parking_info_id": 118, "poi_info_id": 282, "aname": "Bunker Hill Bike Rental" }, "geometry": { "type": "Point", "coordinates": [ -87.784761, 42.002833 ] } },
{ "type": "Feature", "properties": { "activities_id": 1109, "atype": "bicycle rental", "trail_info_id": null, "parking_info_id": 166, "poi_info_id": 185, "aname": "Busse Forest Elk Pasture Bike Rental" }, "geometry": { "type": "Point", "coordinates": [ -87.986538, 42.031233 ] } },
{ "type": "Feature", "properties": { "activities_id": 1110, "atype": "bicycle rental", "trail_info_id": null, "parking_info_id": 313, "poi_info_id": 189, "aname": "Busse Lake Boating Center Bike Rental" }, "geometry": { "type": "Point", "coordinates": [ -88.0186797, 42.0248493 ] } },
{ "type": "Feature", "properties": { "activities_id": 1111, "atype": "bicycle rental", "trail_info_id": null, "parking_info_id": 334, "poi_info_id": 100, "aname": "Camp Bullfrog Lake Bike Rental" }, "geometry": { "type": "Point", "coordinates": [ -87.9017298, 41.710432 ] } },
{ "type": "Feature", "properties": { "activities_id": 1112, "atype": "bicycle rental", "trail_info_id": null, "parking_info_id": 171, "poi_info_id": 192, "aname": "Camp Dan Beard Bike Rental" }, "geometry": { "type": "Point", "coordinates": [ -87.8983727, 42.1498985 ] } },
{ "type": "Feature", "properties": { "activities_id": 1113, "atype": "bicycle rental", "trail_info_id": null, "parking_info_id": 186, "poi_info_id": 179, "aname": "Camp Reinberg Bike Rental" }, "geometry": { "type": "Point", "coordinates": [ -88.0614352, 42.1427542 ] } },
{ "type": "Feature", "properties": { "activities_id": 1114, "atype": "bicycle rental", "trail_info_id": null, "parking_info_id": 92, "poi_info_id": 113, "aname": "Camp Shabbona Woods Bike Rental" }, "geometry": { "type": "Point", "coordinates": [ -87.563502699999958, 41.60533 ] } },
{ "type": "Feature", "properties": { "activities_id": 1115, "atype": "bicycle rental", "trail_info_id": null, "parking_info_id": 181, "poi_info_id": 136, "aname": "Camp Sullivan Bike Rental" }, "geometry": { "type": "Point", "coordinates": [ -87.785887, 41.624546 ] } },
{ "type": "Feature", "properties": { "activities_id": 1116, "atype": "bicycle rental", "trail_info_id": null, "parking_info_id": 156, "poi_info_id": 194, "aname": "Carl R. Hansen Woods Bike Rental" }, "geometry": { "type": "Point", "coordinates": [ -88.195529, 42.052517 ] } },
{ "type": "Feature", "properties": { "activities_id": 1117, "atype": "bicycle rental", "trail_info_id": null, "parking_info_id": 279, "poi_info_id": 137, "aname": "Catalina Grove Bike Rental" }, "geometry": { "type": "Point", "coordinates": [ -87.801646, 41.61729 ] } },
{ "type": "Feature", "properties": { "activities_id": 1118, "atype": "bicycle rental", "trail_info_id": null, "parking_info_id": 336, "poi_info_id": 254, "aname": "Cermak Woods Bike Rental" }, "geometry": { "type": "Point", "coordinates": [ -87.812683, 41.817713 ] } },
{ "type": "Feature", "properties": { "activities_id": 1119, "atype": "bicycle rental", "trail_info_id": null, "parking_info_id": 0, "poi_info_id": 374, "aname": "Cummings Square Bike Rental" }, "geometry": { "type": "Point", "coordinates": [ -87.805427, 41.888824 ] } },
{ "type": "Feature", "properties": { "activities_id": 1120, "atype": "bicycle rental", "trail_info_id": null, "parking_info_id": 117, "poi_info_id": 181, "aname": "Deer Grove East Bike Rental" }, "geometry": { "type": "Point", "coordinates": [ -88.042406, 42.140953 ] } },
{ "type": "Feature", "properties": { "activities_id": 1121, "atype": "bicycle rental", "trail_info_id": null, "parking_info_id": 139, "poi_info_id": 315, "aname": "Eggers Grove Bike Rental" }, "geometry": { "type": "Point", "coordinates": [ -87.52816, 41.68814 ] } },
{ "type": "Feature", "properties": { "activities_id": 1122, "atype": "bicycle rental", "trail_info_id": null, "parking_info_id": 99, "poi_info_id": 268, "aname": "Erickson Woods Bike Rental" }, "geometry": { "type": "Point", "coordinates": [ -87.76552, 42.101884 ] } },
{ "type": "Feature", "properties": { "activities_id": 1123, "atype": "bicycle rental", "trail_info_id": null, "parking_info_id": 122, "poi_info_id": 288, "aname": "Forest Glen Woods Bike Rental" }, "geometry": { "type": "Point", "coordinates": [ -87.754973, 41.980766 ] } },
{ "type": "Feature", "properties": { "activities_id": 1124, "atype": "bicycle rental", "trail_info_id": null, "parking_info_id": 108, "poi_info_id": 160, "aname": "Glenwood Woods North Bike Rental" }, "geometry": { "type": "Point", "coordinates": [ -87.62094, 41.54804 ] } },
{ "type": "Feature", "properties": { "activities_id": 1125, "atype": "bicycle rental", "trail_info_id": null, "parking_info_id": 93, "poi_info_id": 153, "aname": "Green Lake Woods Bike Rental" }, "geometry": { "type": "Point", "coordinates": [ -87.55266, 41.6028 ] } },
{ "type": "Feature", "properties": { "activities_id": 1126, "atype": "bicycle rental", "trail_info_id": null, "parking_info_id": 101, "poi_info_id": 166, "aname": "Joe Orr Woods Bike Rental" }, "geometry": { "type": "Point", "coordinates": [ -87.63052, 41.520096 ] } },
{ "type": "Feature", "properties": { "activities_id": 1127, "atype": "bicycle rental", "trail_info_id": null, "parking_info_id": 175, "poi_info_id": 297, "aname": "John Husar I&M Canal Bike Rental" }, "geometry": { "type": "Point", "coordinates": [ -87.879783, 41.733076 ] } },
{ "type": "Feature", "properties": { "activities_id": 1128, "atype": "bicycle rental", "trail_info_id": null, "parking_info_id": 124, "poi_info_id": 56, "aname": "LaBagh Woods Bike Rental" }, "geometry": { "type": "Point", "coordinates": [ -87.74537, 41.978179 ] } },
{ "type": "Feature", "properties": { "activities_id": 1129, "atype": "bicycle rental", "trail_info_id": null, "parking_info_id": 322, "poi_info_id": 165, "aname": "Lansing Woods Bike Rental" }, "geometry": { "type": "Point", "coordinates": [ -87.55341, 41.55717 ] } },
{ "type": "Feature", "properties": { "activities_id": 1130, "atype": "bicycle rental", "trail_info_id": null, "parking_info_id": 293, "poi_info_id": 277, "aname": "Linne Woods Bike Rental" }, "geometry": { "type": "Point", "coordinates": [ -87.784655, 42.044218 ] } },
{ "type": "Feature", "properties": { "activities_id": 1131, "atype": "bicycle rental", "trail_info_id": null, "parking_info_id": 282, "poi_info_id": 305, "aname": "Midlothian Reservoir Bike Rental" }, "geometry": { "type": "Point", "coordinates": [ -87.73852, 41.58928 ] } },
{ "type": "Feature", "properties": { "activities_id": 1132, "atype": "bicycle rental", "trail_info_id": null, "parking_info_id": 7, "poi_info_id": 237, "aname": "Miller Meadow South Bike Rental" }, "geometry": { "type": "Point", "coordinates": [ -87.830182, 41.85838 ] } },
{ "type": "Feature", "properties": { "activities_id": 1133, "atype": "bicycle rental", "trail_info_id": null, "parking_info_id": 276, "poi_info_id": 379, "aname": "Orland Grassland Bike Rental" }, "geometry": { "type": "Point", "coordinates": [ -87.854197, 41.586416 ] } },
{ "type": "Feature", "properties": { "activities_id": 1134, "atype": "bicycle rental", "trail_info_id": null, "parking_info_id": 84, "poi_info_id": 132, "aname": "Rubio Woods Bike Rental" }, "geometry": { "type": "Point", "coordinates": [ -87.76617, 41.632679 ] } },
{ "type": "Feature", "properties": { "activities_id": 1135, "atype": "bicycle rental", "trail_info_id": null, "parking_info_id": 262, "poi_info_id": 333, "aname": "Sag Quarries Bike Rental" }, "geometry": { "type": "Point", "coordinates": [ -87.932734, 41.690564 ] } },
{ "type": "Feature", "properties": { "activities_id": 1136, "atype": "bicycle rental", "trail_info_id": null, "parking_info_id": 107, "poi_info_id": 168, "aname": "Sauk Trail Woods-Central Bike Rental" }, "geometry": { "type": "Point", "coordinates": [ -87.651221, 41.4859 ] } },
{ "type": "Feature", "properties": { "activities_id": 1137, "atype": "bicycle rental", "trail_info_id": null, "parking_info_id": 61, "poi_info_id": 112, "aname": "Teason's Woods Bike Rental" }, "geometry": { "type": "Point", "coordinates": [ -87.874359, 41.684302 ] } },
{ "type": "Feature", "properties": { "activities_id": 1138, "atype": "bicycle rental", "trail_info_id": null, "parking_info_id": 121, "poi_info_id": 52, "aname": "Thaddeus S. \"Ted\" Lechowicz Woods Bike Rental" }, "geometry": { "type": "Point", "coordinates": [ -87.76538, 41.988876 ] } },
{ "type": "Feature", "properties": { "activities_id": 1139, "atype": "bicycle rental", "trail_info_id": null, "parking_info_id": 95, "poi_info_id": 262, "aname": "Turnbull Woods Bike Rental" }, "geometry": { "type": "Point", "coordinates": [ -87.772556, 42.152254 ] } },
{ "type": "Feature", "properties": { "activities_id": 1140, "atype": "bicycle rental", "trail_info_id": null, "parking_info_id": 306, "poi_info_id": 246, "aname": "Twenty-Sixth Street Woods West Bike Rental" }, "geometry": { "type": "Point", "coordinates": [ -87.857782, 41.842267 ] } },
{ "type": "Feature", "properties": { "activities_id": 1141, "atype": "bicycle rental", "trail_info_id": null, "parking_info_id": 114, "poi_info_id": 309, "aname": "Vollmer Road Grove Bike Rental" }, "geometry": { "type": "Point", "coordinates": [ -87.71868, 41.52911 ] } },
{ "type": "Feature", "properties": { "activities_id": 1142, "atype": "bicycle rental", "trail_info_id": null, "parking_info_id": 89, "poi_info_id": 141, "aname": "Whistler Woods Bike Rental" }, "geometry": { "type": "Point", "coordinates": [ -87.63947, 41.65255 ] } },
{ "type": "Feature", "properties": { "activities_id": 1143, "atype": "boat rental", "trail_info_id": null, "parking_info_id": 261, "poi_info_id": 324, "aname": "Saganashkee Slough Kayak\/Canoe Rental" }, "geometry": { "type": "Point", "coordinates": [ -87.905254, 41.696309 ] } },
{ "type": "Feature", "properties": { "activities_id": 1144, "atype": "fitness stairs", "trail_info_id": null, "parking_info_id": 137, "poi_info_id": 313, "aname": "Dan Ryan Stairs" }, "geometry": { "type": "Point", "coordinates": [ -87.679574051413226, 41.73626024566672 ] } },
{ "type": "Feature", "properties": { "activities_id": 1145, "atype": "trailhead", "trail_info_id": 3073, "parking_info_id": 27, "poi_info_id": 232, "aname": "Thatcher Woods" }, "geometry": { "type": "Point", "coordinates": [ -87.828580830032195, 41.897395332111138 ] } }
]
}
