{
"type": "FeatureCollection",
"name": "sql_statement",
"crs": { "type": "name", "properties": { "name": "urn:ogc:def:crs:OGC:1.3:CRS84" } },
"features": [
{ "type": "Feature", "properties": { "activities_id": 1, "atype": "recreational waterbody", "trail_info_id": null, "parking_info_id": 106, "poi_info_id": 169, "aname": "Sauk Lake", "accessible": 0 }, "geometry": { "type": "Point", "coordinates": [ -87.655504222432441, 41.487616864330079 ] } },
{ "type": "Feature", "properties": { "activities_id": 12, "atype": "golf course", "trail_info_id": null, "parking_info_id": 280, "poi_info_id": 12, "aname": "George W. Dunne National Golf Course", "accessible": 0 }, "geometry": { "type": "Point", "coordinates": [ -87.76385820692218, 41.600149063954419 ] } },
{ "type": "Feature", "properties": { "activities_id": 14, "atype": "recreational waterbody", "trail_info_id": null, "parking_info_id": 321, "poi_info_id": 147, "aname": "Flatfoot Lake", "accessible": 1 }, "geometry": { "type": "Point", "coordinates": [ -87.585007379810435, 41.650506246362099 ] } },
{ "type": "Feature", "properties": { "activities_id": 15, "atype": "aquatic center", "trail_info_id": null, "parking_info_id": 90, "poi_info_id": 15, "aname": "Green Lake Family Aquatic Center", "accessible": 0 }, "geometry": { "type": "Point", "coordinates": [ -87.553421074799971, 41.60264043712656 ] } },
{ "type": "Feature", "properties": { "activities_id": 24, "atype": "recreational waterbody", "trail_info_id": null, "parking_info_id": 157, "poi_info_id": 180, "aname": "Deer Grove Lake", "accessible": 1 }, "geometry": { "type": "Point", "coordinates": [ -88.070405147331343, 42.145606271842077 ] } },
{ "type": "Feature", "properties": { "activities_id": 32, "atype": "recreational waterbody", "trail_info_id": null, "parking_info_id": 158, "poi_info_id": 206, "aname": "Potawatomi Pond", "accessible": 0 }, "geometry": { "type": "Point", "coordinates": [ -87.902217407701016, 42.144263698028951 ] } },
{ "type": "Feature", "properties": { "activities_id": 33, "atype": "recreational waterbody", "trail_info_id": null, "parking_info_id": 233, "poi_info_id": 267, "aname": "Skokie Lagoons", "accessible": 1 }, "geometry": { "type": "Point", "coordinates": [ -87.769216190825404, 42.118737148622166 ] } },
{ "type": "Feature", "properties": { "activities_id": 36, "atype": "recreational waterbody", "trail_info_id": null, "parking_info_id": 128, "poi_info_id": 221, "aname": "Schiller Pond", "accessible": 1 }, "geometry": { "type": "Point", "coordinates": [ -87.839455806769564, 41.957044553987117 ] } },
{ "type": "Feature", "properties": { "activities_id": 41, "atype": "special activity", "trail_info_id": null, "parking_info_id": 337, "poi_info_id": 41, "aname": "Brookfield Zoo", "accessible": 0 }, "geometry": { "type": "Point", "coordinates": [ -87.835996480003715, 41.832852058404292 ] } },
{ "type": "Feature", "properties": { "activities_id": 44, "atype": "aquatic center", "trail_info_id": null, "parking_info_id": 336, "poi_info_id": 44, "aname": "Cermak Family Aquatic Center", "accessible": 0 }, "geometry": { "type": "Point", "coordinates": [ -87.811777138153246, 41.818976694112791 ] } },
{ "type": "Feature", "properties": { "activities_id": 45, "atype": "recreational waterbody", "trail_info_id": null, "parking_info_id": 336, "poi_info_id": 254, "aname": "Cermak Quarry", "accessible": 1 }, "geometry": { "type": "Point", "coordinates": [ -87.81351408451313, 41.818941263433011 ] } },
{ "type": "Feature", "properties": { "activities_id": 51, "atype": "golf course", "trail_info_id": null, "parking_info_id": 242, "poi_info_id": 51, "aname": "Edgebrook Golf Course", "accessible": 0 }, "geometry": { "type": "Point", "coordinates": [ -87.770513013041523, 41.992960158822633 ] } },
{ "type": "Feature", "properties": { "activities_id": 54, "atype": "recreational waterbody", "trail_info_id": null, "parking_info_id": 81, "poi_info_id": 290, "aname": "Ida Lake", "accessible": 0 }, "geometry": { "type": "Point", "coordinates": [ -87.870962290178554, 41.770720883503706 ] } },
{ "type": "Feature", "properties": { "activities_id": 66, "atype": "recreational waterbody", "trail_info_id": null, "parking_info_id": 313, "poi_info_id": 189, "aname": "Busse Lake North Pool", "accessible": 1 }, "geometry": { "type": "Point", "coordinates": [ -88.023885275043639, 42.031647621255509 ] } },
{ "type": "Feature", "properties": { "activities_id": 69, "atype": "recreational waterbody", "trail_info_id": null, "parking_info_id": 313, "poi_info_id": 189, "aname": "Busse Lake South Pool", "accessible": 1 }, "geometry": { "type": "Point", "coordinates": [ -88.02130895290324, 42.023241045748584 ] } },
{ "type": "Feature", "properties": { "activities_id": 72, "atype": "recreational waterbody", "trail_info_id": null, "parking_info_id": 313, "poi_info_id": 189, "aname": "Busse Lake Main Pool", "accessible": 1 }, "geometry": { "type": "Point", "coordinates": [ -88.012255745475329, 42.027363261448706 ] } },
{ "type": "Feature", "properties": { "activities_id": 73, "atype": "recreational waterbody", "trail_info_id": null, "parking_info_id": 90, "poi_info_id": 153, "aname": "Green Lake", "accessible": 0 }, "geometry": { "type": "Point", "coordinates": [ -87.554911120642288, 41.601555031347225 ] } },
{ "type": "Feature", "properties": { "activities_id": 94, "atype": "recreational waterbody", "trail_info_id": null, "parking_info_id": 177, "poi_info_id": 378, "aname": "Maple Lake", "accessible": 1 }, "geometry": { "type": "Point", "coordinates": [ -87.890791740599141, 41.714527695398431 ] } },
{ "type": "Feature", "properties": { "activities_id": 98, "atype": "boat launch", "trail_info_id": null, "parking_info_id": 147, "poi_info_id": 364, "aname": "Big Bend Lake Boat Launch", "accessible": 0 }, "geometry": { "type": "Point", "coordinates": [ -87.874992051402629, 42.052928555586114 ] } },
{ "type": "Feature", "properties": { "activities_id": 100, "atype": "camp", "trail_info_id": null, "parking_info_id": 334, "poi_info_id": 100, "aname": "Camp Bullfrog Lake", "accessible": 1 }, "geometry": { "type": "Point", "coordinates": [ -87.903191507066381, 41.709121919373843 ] } },
{ "type": "Feature", "properties": { "activities_id": 113, "atype": "camp", "trail_info_id": null, "parking_info_id": 92, "poi_info_id": 113, "aname": "Camp Shabbona Woods", "accessible": 1 }, "geometry": { "type": "Point", "coordinates": [ -87.563037210153027, 41.605377793895379 ] } },
{ "type": "Feature", "properties": { "activities_id": 136, "atype": "camp", "trail_info_id": null, "parking_info_id": 181, "poi_info_id": 136, "aname": "Camp Sullivan", "accessible": 1 }, "geometry": { "type": "Point", "coordinates": [ -87.787539904059784, 41.625471123884076 ] } },
{ "type": "Feature", "properties": { "activities_id": 142, "atype": "golf course", "trail_info_id": null, "parking_info_id": 266, "poi_info_id": 142, "aname": "Joe Louis \"The Champ\" Golf Course", "accessible": 0 }, "geometry": { "type": "Point", "coordinates": [ -87.644094114080502, 41.653712912864854 ] } },
{ "type": "Feature", "properties": { "activities_id": 148, "atype": "golf course", "trail_info_id": null, "parking_info_id": 299, "poi_info_id": 148, "aname": "Burnham Woods Golf Course", "accessible": 0 }, "geometry": { "type": "Point", "coordinates": [ -87.534933324842484, 41.635699412458244 ] } },
{ "type": "Feature", "properties": { "activities_id": 150, "atype": "nature center", "trail_info_id": 3093, "parking_info_id": 303, "poi_info_id": 150, "aname": "Sand Ridge Nature Center", "accessible": 0 }, "geometry": { "type": "Point", "coordinates": [ -87.565749456206646, 41.605933010548277 ] } },
{ "type": "Feature", "properties": { "activities_id": 156, "atype": "golf course", "trail_info_id": null, "parking_info_id": 304, "poi_info_id": 156, "aname": "River Oaks Golf Course", "accessible": 0 }, "geometry": { "type": "Point", "coordinates": [ -87.57572763869041, 41.599191687739037 ] } },
{ "type": "Feature", "properties": { "activities_id": 179, "atype": "camp", "trail_info_id": null, "parking_info_id": 186, "poi_info_id": 179, "aname": "Camp Reinberg", "accessible": 1 }, "geometry": { "type": "Point", "coordinates": [ -88.06152827608507, 42.142533141869578 ] } },
{ "type": "Feature", "properties": { "activities_id": 182, "atype": "golf course", "trail_info_id": null, "parking_info_id": 208, "poi_info_id": 182, "aname": "Highland Woods Golf Course", "accessible": 0 }, "geometry": { "type": "Point", "coordinates": [ -88.082943159619674, 42.074728525979694 ] } },
{ "type": "Feature", "properties": { "activities_id": 192, "atype": "camp", "trail_info_id": null, "parking_info_id": 171, "poi_info_id": 192, "aname": "Camp Dan Beard", "accessible": 1 }, "geometry": { "type": "Point", "coordinates": [ -87.897778764152065, 42.15027670284001 ] } },
{ "type": "Feature", "properties": { "activities_id": 225, "atype": "golf course", "trail_info_id": null, "parking_info_id": 225, "poi_info_id": 225, "aname": "Indian Boundary Golf Course", "accessible": 0 }, "geometry": { "type": "Point", "coordinates": [ -87.843936152409569, 41.941693169464855 ] } },
{ "type": "Feature", "properties": { "activities_id": 233, "atype": "nature center", "trail_info_id": 2860, "parking_info_id": 172, "poi_info_id": 233, "aname": "Trailside Museum of Natural History", "accessible": 0 }, "geometry": { "type": "Point", "coordinates": [ -87.826305459421249, 41.893245350076455 ] } },
{ "type": "Feature", "properties": { "activities_id": 252, "atype": "golf course", "trail_info_id": null, "parking_info_id": 249, "poi_info_id": 252, "aname": "Meadowlark Golf Course", "accessible": 0 }, "geometry": { "type": "Point", "coordinates": [ -87.911161031963317, 41.832482847610606 ] } },
{ "type": "Feature", "properties": { "activities_id": 263, "atype": "special activity", "trail_info_id": null, "parking_info_id": 229, "poi_info_id": 263, "aname": "Chicago Botanic Garden", "accessible": 0 }, "geometry": { "type": "Point", "coordinates": [ -87.788442864522736, 42.150333383152095 ] } },
{ "type": "Feature", "properties": { "activities_id": 276, "atype": "golf course", "trail_info_id": null, "parking_info_id": 239, "poi_info_id": 276, "aname": "Chick Evans Golf Course", "accessible": 0 }, "geometry": { "type": "Point", "coordinates": [ -87.779076493441394, 42.054023715871359 ] } },
{ "type": "Feature", "properties": { "activities_id": 284, "atype": "aquatic center", "trail_info_id": null, "parking_info_id": 241, "poi_info_id": 284, "aname": "Whealan Pool Aquatic Center", "accessible": 0 }, "geometry": { "type": "Point", "coordinates": [ -87.782868064520059, 41.997888266728452 ] } },
{ "type": "Feature", "properties": { "activities_id": 286, "atype": "golf course", "trail_info_id": null, "parking_info_id": 243, "poi_info_id": 286, "aname": "Billy Caldwell Golf Course", "accessible": 0 }, "geometry": { "type": "Point", "coordinates": [ -87.759677322401117, 41.990176184027796 ] } },
{ "type": "Feature", "properties": { "activities_id": 319, "atype": "nature center", "trail_info_id": 3042, "parking_info_id": 190, "poi_info_id": 319, "aname": "Little Red Schoolhouse Nature Center", "accessible": 0 }, "geometry": { "type": "Point", "coordinates": [ -87.877152722581627, 41.708967426476292 ] } },
{ "type": "Feature", "properties": { "activities_id": 334, "atype": "nature center", "trail_info_id": 2951, "parking_info_id": 267, "poi_info_id": 334, "aname": "Sagawau Environmental Learning Center", "accessible": 0 }, "geometry": { "type": "Point", "coordinates": [ -87.925714269680014, 41.689266770205492 ] } },
{ "type": "Feature", "properties": { "activities_id": 338, "atype": "nature center", "trail_info_id": 2979, "parking_info_id": 195, "poi_info_id": 338, "aname": "River Trail Nature Center", "accessible": 0 }, "geometry": { "type": "Point", "coordinates": [ -87.884845280394288, 42.09501104921889 ] } },
{ "type": "Feature", "properties": { "activities_id": 344, "atype": "golf driving range", "trail_info_id": null, "parking_info_id": 194, "poi_info_id": 344, "aname": "Harry H. Semrow Driving Range", "accessible": 0 }, "geometry": { "type": "Point", "coordinates": [ -87.896735961653718, 42.055475106577092 ] } },
{ "type": "Feature", "properties": { "activities_id": 348, "atype": "nature center", "trail_info_id": 2905, "parking_info_id": 199, "poi_info_id": 348, "aname": "Crabtree Nature Center", "accessible": 0 }, "geometry": { "type": "Point", "coordinates": [ -88.163575110288804, 42.11563369368784 ] } },
{ "type": "Feature", "properties": { "activities_id": 395, "atype": "headquarters", "trail_info_id": null, "parking_info_id": 26, "poi_info_id": 395, "aname": "General Headquarters & Permit Office", "accessible": 0 }, "geometry": { "type": "Point", "coordinates": [ -87.80567831372197, 41.889506531226402 ] } },
{ "type": "Feature", "properties": { "activities_id": 397, "atype": "volunteer center", "trail_info_id": null, "parking_info_id": 242, "poi_info_id": 397, "aname": "Mathew Bieszczat Volunteer Resource Center", "accessible": 0 }, "geometry": { "type": "Point", "coordinates": [ -87.768625980876735, 41.992010958615218 ] } },
{ "type": "Feature", "properties": { "activities_id": 802, "atype": "trailhead", "trail_info_id": 1175, "parking_info_id": 61, "poi_info_id": 112, "aname": "Teason's Woods", "accessible": 0 }, "geometry": { "type": "Point", "coordinates": [ -87.874416348893789, 41.684201053772412 ] } },
{ "type": "Feature", "properties": { "activities_id": 803, "atype": "trailhead", "trail_info_id": 305, "parking_info_id": 14, "poi_info_id": 269, "aname": "Blue Star Memorial Woods", "accessible": 1 }, "geometry": { "type": "Point", "coordinates": [ -87.776034902537063, 42.07923676152194 ] } },
{ "type": "Feature", "properties": { "activities_id": 804, "atype": "trailhead", "trail_info_id": 760, "parking_info_id": 67, "poi_info_id": 299, "aname": "Country Lane Woods", "accessible": 0 }, "geometry": { "type": "Point", "coordinates": [ -87.866161608526738, 41.71650897613916 ] } },
{ "type": "Feature", "properties": { "activities_id": 805, "atype": "trailhead", "trail_info_id": 2200, "parking_info_id": 94, "poi_info_id": 265, "aname": "Forest Way Grove", "accessible": 0 }, "geometry": { "type": "Point", "coordinates": [ -87.774438651267545, 42.12873251408999 ] } },
{ "type": "Feature", "properties": { "activities_id": 806, "atype": "trailhead", "trail_info_id": 2068, "parking_info_id": 313, "poi_info_id": 189, "aname": "Busse Lake Boating Center", "accessible": 1 }, "geometry": { "type": "Point", "coordinates": [ -88.018294827585123, 42.02477034773581 ] } },
{ "type": "Feature", "properties": { "activities_id": 808, "atype": "warming shelter", "trail_info_id": null, "parking_info_id": 119, "poi_info_id": 283, "aname": "Caldwell Woods Warming Shelter", "accessible": 0 }, "geometry": { "type": "Point", "coordinates": [ -87.78634942857623, 41.997838180840112 ] } },
{ "type": "Feature", "properties": { "activities_id": 809, "atype": "sledding", "trail_info_id": null, "parking_info_id": 119, "poi_info_id": 283, "aname": "Caldwell Woods Sledding Hill", "accessible": 0 }, "geometry": { "type": "Point", "coordinates": [ -87.785671670092668, 41.99792517193336 ] } },
{ "type": "Feature", "properties": { "activities_id": 810, "atype": "trailhead", "trail_info_id": 178, "parking_info_id": 96, "poi_info_id": 272, "aname": "Harms Woods-Central", "accessible": 0 }, "geometry": { "type": "Point", "coordinates": [ -87.77093386934169, 42.060126897927098 ] } },
{ "type": "Feature", "properties": { "activities_id": 811, "atype": "trailhead", "trail_info_id": 1212, "parking_info_id": 99, "poi_info_id": 268, "aname": "Erickson Woods", "accessible": 0 }, "geometry": { "type": "Point", "coordinates": [ -87.76488631311814, 42.102121891251834 ] } },
{ "type": "Feature", "properties": { "activities_id": 812, "atype": "trailhead", "trail_info_id": 2114, "parking_info_id": 211, "poi_info_id": 200, "aname": "Great Egret Family Picnic Area", "accessible": 0 }, "geometry": { "type": "Point", "coordinates": [ -88.19151137057824, 42.061529757296626 ] } },
{ "type": "Feature", "properties": { "activities_id": 814, "atype": "trailhead", "trail_info_id": 2085, "parking_info_id": 315, "poi_info_id": 191, "aname": "Busse Forest-Central", "accessible": 0 }, "geometry": { "type": "Point", "coordinates": [ -88.007475603494839, 42.031477528648196 ] } },
{ "type": "Feature", "properties": { "activities_id": 815, "atype": "trailhead", "trail_info_id": 2090, "parking_info_id": 314, "poi_info_id": 190, "aname": "Busse Forest-West", "accessible": 1 }, "geometry": { "type": "Point", "coordinates": [ -88.014406590458904, 42.032760089793172 ] } },
{ "type": "Feature", "properties": { "activities_id": 816, "atype": "trailhead", "trail_info_id": 2670, "parking_info_id": 98, "poi_info_id": 273, "aname": "Harms Woods-South", "accessible": 0 }, "geometry": { "type": "Point", "coordinates": [ -87.768368457668714, 42.058634491337301 ] } },
{ "type": "Feature", "properties": { "activities_id": 817, "atype": "trailhead", "trail_info_id": 2605, "parking_info_id": 59, "poi_info_id": 122, "aname": "Palos Park Woods-North", "accessible": 1 }, "geometry": { "type": "Point", "coordinates": [ -87.843275275373969, 41.681018464986565 ] } },
{ "type": "Feature", "properties": { "activities_id": 818, "atype": "dog park", "trail_info_id": null, "parking_info_id": 219, "poi_info_id": 343, "aname": "Beck Lake Dog Park", "accessible": 0 }, "geometry": { "type": "Point", "coordinates": [ -87.868113241027245, 42.069276811030122 ] } },
{ "type": "Feature", "properties": { "activities_id": 819, "atype": "trailhead", "trail_info_id": 576, "parking_info_id": 122, "poi_info_id": 288, "aname": "Forest Glen Woods", "accessible": 1 }, "geometry": { "type": "Point", "coordinates": [ -87.755739468245821, 41.981366135473017 ] } },
{ "type": "Feature", "properties": { "activities_id": 820, "atype": "snowmobiling", "trail_info_id": null, "parking_info_id": 143, "poi_info_id": 29, "aname": "Ned Brown Snowmobiling", "accessible": 0 }, "geometry": { "type": "Point", "coordinates": [ -88.024509, 42.046054000002641 ] } },
{ "type": "Feature", "properties": { "activities_id": 821, "atype": "boat rental", "trail_info_id": null, "parking_info_id": 178, "poi_info_id": 100, "aname": "Camp Bullfrog Lake Boat Rental", "accessible": 1 }, "geometry": { "type": "Point", "coordinates": [ -87.901755, 41.710310000002409 ] } },
{ "type": "Feature", "properties": { "activities_id": 822, "atype": "trailhead", "trail_info_id": 127, "parking_info_id": 123, "poi_info_id": 375, "aname": "Irene C. Hernandez", "accessible": 1 }, "geometry": { "type": "Point", "coordinates": [ -87.737987, 41.975591000002588 ] } },
{ "type": "Feature", "properties": { "activities_id": 823, "atype": "trailhead", "trail_info_id": 226, "parking_info_id": null, "poi_info_id": 56, "aname": "Future LaBagh Woods", "accessible": 1 }, "geometry": null },
{ "type": "Feature", "properties": { "activities_id": 824, "atype": "pavilion", "trail_info_id": null, "parking_info_id": 27, "poi_info_id": 232, "aname": "Thatcher Woods Pavilion", "accessible": 0 }, "geometry": { "type": "Point", "coordinates": [ -87.829553147433586, 41.897315821309341 ] } },
{ "type": "Feature", "properties": { "activities_id": 825, "atype": "trailhead", "trail_info_id": 1069, "parking_info_id": 213, "poi_info_id": 196, "aname": "Bode Lake", "accessible": 0 }, "geometry": { "type": "Point", "coordinates": [ -88.168891406453767, 42.039791634565574 ] } },
{ "type": "Feature", "properties": { "activities_id": 826, "atype": "dog park", "trail_info_id": null, "parking_info_id": 7, "poi_info_id": 237, "aname": "Miller Meadow Dog Park", "accessible": 1 }, "geometry": { "type": "Point", "coordinates": [ -87.830498863811357, 41.854809718629987 ] } },
{ "type": "Feature", "properties": { "activities_id": 828, "atype": "trailhead", "trail_info_id": 1355, "parking_info_id": 104, "poi_info_id": 170, "aname": "Sauk Trail Woods-South", "accessible": 0 }, "geometry": { "type": "Point", "coordinates": [ -87.651418022361128, 41.484615328491145 ] } },
{ "type": "Feature", "properties": { "activities_id": 829, "atype": "trailhead", "trail_info_id": 1264, "parking_info_id": 107, "poi_info_id": 168, "aname": "Sauk Trail Woods-Central", "accessible": 0 }, "geometry": { "type": "Point", "coordinates": [ -87.651289687716101, 41.485977253692951 ] } },
{ "type": "Feature", "properties": { "activities_id": 830, "atype": "trailhead", "trail_info_id": 410, "parking_info_id": 105, "poi_info_id": 167, "aname": "Sauk Trail Woods-East", "accessible": 0 }, "geometry": { "type": "Point", "coordinates": [ -87.647567679215783, 41.488022974070901 ] } },
{ "type": "Feature", "properties": { "activities_id": 832, "atype": "trailhead", "trail_info_id": 27, "parking_info_id": 159, "poi_info_id": 317, "aname": "Dam No. 1 Woods-East", "accessible": 0 }, "geometry": { "type": "Point", "coordinates": [ -87.89381291829352, 42.121636555075497 ] } },
{ "type": "Feature", "properties": { "activities_id": 834, "atype": "boat rental", "trail_info_id": null, "parking_info_id": 232, "poi_info_id": 266, "aname": "Tower Road Kayak\/Canoe Rental", "accessible": 0 }, "geometry": { "type": "Point", "coordinates": [ -87.771346975765383, 42.115707699190757 ] } },
{ "type": "Feature", "properties": { "activities_id": 835, "atype": "trailhead", "trail_info_id": 117, "parking_info_id": 161, "poi_info_id": 337, "aname": "Allison Woods", "accessible": 1 }, "geometry": { "type": "Point", "coordinates": [ -87.885398689662765, 42.10075629172141 ] } },
{ "type": "Feature", "properties": { "activities_id": 836, "atype": "dog park", "trail_info_id": null, "parking_info_id": 164, "poi_info_id": 138, "aname": "Bremen Grove Dog Park", "accessible": 1 }, "geometry": { "type": "Point", "coordinates": [ -87.782794616556146, 41.598017001296384 ] } },
{ "type": "Feature", "properties": { "activities_id": 838, "atype": "trailhead", "trail_info_id": 2183, "parking_info_id": 108, "poi_info_id": 160, "aname": "Glenwood Woods-North", "accessible": 0 }, "geometry": { "type": "Point", "coordinates": [ -87.621825982816674, 41.548126274345421 ] } },
{ "type": "Feature", "properties": { "activities_id": 839, "atype": "trailhead", "trail_info_id": 31, "parking_info_id": 158, "poi_info_id": 206, "aname": "Potawatomi Woods", "accessible": 0 }, "geometry": { "type": "Point", "coordinates": [ -87.903235842600694, 42.141204652182658 ] } },
{ "type": "Feature", "properties": { "activities_id": 840, "atype": "trailhead", "trail_info_id": 1388, "parking_info_id": 333, "poi_info_id": 35, "aname": "Bode East", "accessible": 0 }, "geometry": { "type": "Point", "coordinates": [ -88.150436897669067, 42.039514323826964 ] } },
{ "type": "Feature", "properties": { "activities_id": 841, "atype": "trailhead", "trail_info_id": 2635, "parking_info_id": 176, "poi_info_id": 328, "aname": "Pulaski Woods-South", "accessible": 0 }, "geometry": { "type": "Point", "coordinates": [ -87.893623768258408, 41.707570028252327 ] } },
{ "type": "Feature", "properties": { "activities_id": 842, "atype": "trailhead", "trail_info_id": 1752, "parking_info_id": 182, "poi_info_id": 133, "aname": "Goeselville Grove Family Picnic Area", "accessible": 0 }, "geometry": { "type": "Point", "coordinates": [ -87.777705194430538, 41.62942807044405 ] } },
{ "type": "Feature", "properties": { "activities_id": 843, "atype": "trailhead", "trail_info_id": 1919, "parking_info_id": 177, "poi_info_id": 378, "aname": "Maple Lake Boating Center", "accessible": 1 }, "geometry": { "type": "Point", "coordinates": [ -87.891023209874021, 41.711824688634088 ] } },
{ "type": "Feature", "properties": { "activities_id": 845, "atype": "trailhead", "trail_info_id": 1914, "parking_info_id": 142, "poi_info_id": 282, "aname": "Bunker Hill", "accessible": 1 }, "geometry": { "type": "Point", "coordinates": [ -87.784198649533266, 42.001552045337121 ] } },
{ "type": "Feature", "properties": { "activities_id": 846, "atype": "trailhead", "trail_info_id": 541, "parking_info_id": 7, "poi_info_id": 237, "aname": "Miller Meadow-South", "accessible": 1 }, "geometry": { "type": "Point", "coordinates": [ -87.831567571295523, 41.853450220890394 ] } },
{ "type": "Feature", "properties": { "activities_id": 847, "atype": "trailhead", "trail_info_id": 1107, "parking_info_id": 196, "poi_info_id": 161, "aname": "Glenwood Woods-South", "accessible": 0 }, "geometry": { "type": "Point", "coordinates": [ -87.619566632727626, 41.547539201625 ] } },
{ "type": "Feature", "properties": { "activities_id": 848, "atype": "pavilion", "trail_info_id": null, "parking_info_id": 137, "poi_info_id": 313, "aname": "Dan Ryan Woods Pavilion", "accessible": 0 }, "geometry": { "type": "Point", "coordinates": [ -87.679502221845766, 41.737142246725412 ] } },
{ "type": "Feature", "properties": { "activities_id": 849, "atype": "trailhead", "trail_info_id": 1733, "parking_info_id": 87, "poi_info_id": 129, "aname": "Cooper's Hawk Family Picnic Area", "accessible": 0 }, "geometry": { "type": "Point", "coordinates": [ -87.77058695620407, 41.645349203051559 ] } },
{ "type": "Feature", "properties": { "activities_id": 850, "atype": "equestrian center", "trail_info_id": null, "parking_info_id": 238, "poi_info_id": 274, "aname": "Glen Grove Equestrian Center", "accessible": 0 }, "geometry": { "type": "Point", "coordinates": [ -87.765215444942868, 42.054597908183155 ] } },
{ "type": "Feature", "properties": { "activities_id": 851, "atype": "trailhead", "trail_info_id": 178, "parking_info_id": 97, "poi_info_id": 271, "aname": "Harms Woods-North", "accessible": 1 }, "geometry": { "type": "Point", "coordinates": [ -87.77073277317885, 42.06189570396787 ] } },
{ "type": "Feature", "properties": { "activities_id": 852, "atype": "trailhead", "trail_info_id": 76, "parking_info_id": 130, "poi_info_id": 219, "aname": "Schiller Woods-South", "accessible": 0 }, "geometry": { "type": "Point", "coordinates": [ -87.853731900740627, 41.951131932228435 ] } },
{ "type": "Feature", "properties": { "activities_id": 853, "atype": "trailhead", "trail_info_id": 2367, "parking_info_id": 64, "poi_info_id": 293, "aname": "Buffalo Woods-Central", "accessible": 0 }, "geometry": { "type": "Point", "coordinates": [ -87.850562331179518, 41.735437735402883 ] } },
{ "type": "Feature", "properties": { "activities_id": 854, "atype": "trailhead", "trail_info_id": 2367, "parking_info_id": 65, "poi_info_id": 294, "aname": "Buffalo Woods-South", "accessible": 0 }, "geometry": { "type": "Point", "coordinates": [ -87.848179223780548, 41.734298523160938 ] } },
{ "type": "Feature", "properties": { "activities_id": 855, "atype": "trailhead", "trail_info_id": 1799, "parking_info_id": 255, "poi_info_id": 304, "aname": "Dan McMahon Woods", "accessible": 0 }, "geometry": { "type": "Point", "coordinates": [ -87.865444312614741, 41.695800624613376 ] } },
{ "type": "Feature", "properties": { "activities_id": 857, "atype": "trailhead", "trail_info_id": 2354, "parking_info_id": 192, "poi_info_id": 58, "aname": "Camp Kiwanis Equestrian Staging Area", "accessible": 0 }, "geometry": { "type": "Point", "coordinates": [ -87.873848236434398, 41.708283208826465 ] } },
{ "type": "Feature", "properties": { "activities_id": 858, "atype": "trailhead", "trail_info_id": 1738, "parking_info_id": 259, "poi_info_id": 327, "aname": "Henry De Tonty Woods", "accessible": 0 }, "geometry": { "type": "Point", "coordinates": [ -87.913606664034901, 41.713887038879434 ] } },
{ "type": "Feature", "properties": { "activities_id": 859, "atype": "trailhead", "trail_info_id": 726, "parking_info_id": 289, "poi_info_id": 145, "aname": "Kickapoo Woods", "accessible": 0 }, "geometry": { "type": "Point", "coordinates": [ -87.645723197352808, 41.630181913007711 ] } },
{ "type": "Feature", "properties": { "activities_id": 860, "atype": "trailhead", "trail_info_id": 369, "parking_info_id": 293, "poi_info_id": 277, "aname": "Linne Woods", "accessible": 0 }, "geometry": { "type": "Point", "coordinates": [ -87.785810693369982, 42.041794460795579 ] } },
{ "type": "Feature", "properties": { "activities_id": 861, "atype": "trailhead", "trail_info_id": 1928, "parking_info_id": 295, "poi_info_id": 280, "aname": "Miami Woods", "accessible": 0 }, "geometry": { "type": "Point", "coordinates": [ -87.793291814948091, 42.027017863546881 ] } },
{ "type": "Feature", "properties": { "activities_id": 862, "atype": "trailhead", "trail_info_id": 635, "parking_info_id": 305, "poi_info_id": 228, "aname": "Jerome Huppert Woods", "accessible": 0 }, "geometry": { "type": "Point", "coordinates": [ -87.832785197615394, 41.92036461830876 ] } },
{ "type": "Feature", "properties": { "activities_id": 863, "atype": "trailhead", "trail_info_id": 1172, "parking_info_id": 72, "poi_info_id": 316, "aname": "Pioneer Woods", "accessible": 0 }, "geometry": { "type": "Point", "coordinates": [ -87.869157905047203, 41.701218435184629 ] } },
{ "type": "Feature", "properties": { "activities_id": 864, "atype": "trailhead", "trail_info_id": 1540, "parking_info_id": 74, "poi_info_id": 295, "aname": "Spears Woods", "accessible": 0 }, "geometry": { "type": "Point", "coordinates": [ -87.853345108858889, 41.72568293970879 ] } },
{ "type": "Feature", "properties": { "activities_id": 865, "atype": "trailhead", "trail_info_id": 2390, "parking_info_id": 84, "poi_info_id": 132, "aname": "Rubio Woods", "accessible": 1 }, "geometry": { "type": "Point", "coordinates": [ -87.766769320162837, 41.636306940335864 ] } },
{ "type": "Feature", "properties": { "activities_id": 866, "atype": "trailhead", "trail_info_id": 304, "parking_info_id": 129, "poi_info_id": 218, "aname": "Schiller Woods-West", "accessible": 1 }, "geometry": { "type": "Point", "coordinates": [ -87.846610955437257, 41.96090289828998 ] } },
{ "type": "Feature", "properties": { "activities_id": 867, "atype": "trailhead", "trail_info_id": 1105, "parking_info_id": 101, "poi_info_id": 166, "aname": "Joe Orr Woods", "accessible": 0 }, "geometry": { "type": "Point", "coordinates": [ -87.630435447670919, 41.520248521444934 ] } },
{ "type": "Feature", "properties": { "activities_id": 868, "atype": "trailhead", "trail_info_id": 1361, "parking_info_id": 141, "poi_info_id": 216, "aname": "Robinson Woods-South", "accessible": 0 }, "geometry": { "type": "Point", "coordinates": [ -87.854098038393346, 41.965576957275118 ] } },
{ "type": "Feature", "properties": { "activities_id": 869, "atype": "trailhead", "trail_info_id": 1371, "parking_info_id": 102, "poi_info_id": 164, "aname": "North Creek Meadow", "accessible": 0 }, "geometry": { "type": "Point", "coordinates": [ -87.562159220749763, 41.546391465463103 ] } },
{ "type": "Feature", "properties": { "activities_id": 870, "atype": "trailhead", "trail_info_id": 2130, "parking_info_id": 103, "poi_info_id": 28, "aname": "Plum Creek Meadow", "accessible": 1 }, "geometry": { "type": "Point", "coordinates": [ -87.537555330592994, 41.485556016341178 ] } },
{ "type": "Feature", "properties": { "activities_id": 871, "atype": "trailhead", "trail_info_id": 1286, "parking_info_id": 106, "poi_info_id": 169, "aname": "Sauk Trail Woods-North", "accessible": 0 }, "geometry": { "type": "Point", "coordinates": [ -87.650853543602693, 41.49073349843021 ] } },
{ "type": "Feature", "properties": { "activities_id": 872, "atype": "trailhead", "trail_info_id": 2150, "parking_info_id": 117, "poi_info_id": 181, "aname": "Deer Grove-East", "accessible": 0 }, "geometry": { "type": "Point", "coordinates": [ -88.042171302550358, 42.141292467645471 ] } },
{ "type": "Feature", "properties": { "activities_id": 873, "atype": "trailhead", "trail_info_id": 1620, "parking_info_id": 119, "poi_info_id": 283, "aname": "Caldwell Woods", "accessible": 0 }, "geometry": { "type": "Point", "coordinates": [ -87.787404922173508, 41.998361255783259 ] } },
{ "type": "Feature", "properties": { "activities_id": 874, "atype": "trailhead", "trail_info_id": 20, "parking_info_id": 4, "poi_info_id": 212, "aname": "Dam No. 4 Woods-East", "accessible": 1 }, "geometry": { "type": "Point", "coordinates": [ -87.857487946093073, 42.00067555608581 ] } },
{ "type": "Feature", "properties": { "activities_id": 875, "atype": "trailhead", "trail_info_id": 2280, "parking_info_id": 322, "poi_info_id": 165, "aname": "Lansing Woods", "accessible": 0 }, "geometry": { "type": "Point", "coordinates": [ -87.553310682368434, 41.557036974882095 ] } },
{ "type": "Feature", "properties": { "activities_id": 876, "atype": "trailhead", "trail_info_id": 1283, "parking_info_id": 17, "poi_info_id": 171, "aname": "Schubert's Woods", "accessible": 0 }, "geometry": { "type": "Point", "coordinates": [ -87.659290974846314, 41.480377196537361 ] } },
{ "type": "Feature", "properties": { "activities_id": 877, "atype": "trailhead", "trail_info_id": 861, "parking_info_id": 19, "poi_info_id": 229, "aname": "Evans Field", "accessible": 0 }, "geometry": { "type": "Point", "coordinates": [ -87.828303097641111, 41.913201514401976 ] } },
{ "type": "Feature", "properties": { "activities_id": 878, "atype": "trailhead", "trail_info_id": 1180, "parking_info_id": 20, "poi_info_id": 227, "aname": "Fullerton Woods", "accessible": 0 }, "geometry": { "type": "Point", "coordinates": [ -87.836299571458895, 41.92265739968645 ] } },
{ "type": "Feature", "properties": { "activities_id": 880, "atype": "trailhead", "trail_info_id": 1270, "parking_info_id": 155, "poi_info_id": 326, "aname": "Red Gate Woods", "accessible": 0 }, "geometry": { "type": "Point", "coordinates": [ -87.913996380951133, 41.7100340638207 ] } },
{ "type": "Feature", "properties": { "activities_id": 881, "atype": "trailhead", "trail_info_id": 1795, "parking_info_id": 58, "poi_info_id": 120, "aname": "Palos Park Woods-South", "accessible": 0 }, "geometry": { "type": "Point", "coordinates": [ -87.838540776553629, 41.676304801212822 ] } },
{ "type": "Feature", "properties": { "activities_id": 882, "atype": "trailhead", "trail_info_id": 226, "parking_info_id": 124, "poi_info_id": 56, "aname": "LaBagh Woods", "accessible": 1 }, "geometry": { "type": "Point", "coordinates": [ -87.745791758105113, 41.978538372583721 ] } },
{ "type": "Feature", "properties": { "activities_id": 883, "atype": "trailhead", "trail_info_id": 601, "parking_info_id": 131, "poi_info_id": 193, "aname": "Dan Ryan Woods-Central", "accessible": 1 }, "geometry": { "type": "Point", "coordinates": [ -87.680306089442183, 41.742483813769624 ] } },
{ "type": "Feature", "properties": { "activities_id": 884, "atype": "trailhead", "trail_info_id": 970, "parking_info_id": 134, "poi_info_id": 311, "aname": "Dan Ryan Woods-North", "accessible": 0 }, "geometry": { "type": "Point", "coordinates": [ -87.679095724172342, 41.743378915129227 ] } },
{ "type": "Feature", "properties": { "activities_id": 888, "atype": "trailhead", "trail_info_id": 2402, "parking_info_id": 164, "poi_info_id": 138, "aname": "Bremen Grove", "accessible": 1 }, "geometry": { "type": "Point", "coordinates": [ -87.783258061594424, 41.599588590062858 ] } },
{ "type": "Feature", "properties": { "activities_id": 891, "atype": "welcome center", "trail_info_id": null, "parking_info_id": 137, "poi_info_id": 313, "aname": "Dan Ryan Woods Visitor Center", "accessible": 0 }, "geometry": { "type": "Point", "coordinates": [ -87.680107023720097, 41.735936524166497 ] } },
{ "type": "Feature", "properties": { "activities_id": 892, "atype": "trailhead", "trail_info_id": 551, "parking_info_id": 160, "poi_info_id": 197, "aname": "Barrington Road Pond", "accessible": 1 }, "geometry": { "type": "Point", "coordinates": [ -88.145052335342811, 42.057171804285908 ] } },
{ "type": "Feature", "properties": { "activities_id": 893, "atype": "trailhead", "trail_info_id": 2706, "parking_info_id": 165, "poi_info_id": 140, "aname": "Yankee Woods", "accessible": 0 }, "geometry": { "type": "Point", "coordinates": [ -87.758757058159091, 41.592444235846727 ] } },
{ "type": "Feature", "properties": { "activities_id": 894, "atype": "trailhead", "trail_info_id": 586, "parking_info_id": 55, "poi_info_id": 117, "aname": "Swallow Cliff Woods-South", "accessible": 0 }, "geometry": { "type": "Point", "coordinates": [ -87.860132639979199, 41.674048870185416 ] } },
{ "type": "Feature", "properties": { "activities_id": 895, "atype": "trailhead", "trail_info_id": 2379, "parking_info_id": 54, "poi_info_id": 118, "aname": "Forty Acre Woods", "accessible": 0 }, "geometry": { "type": "Point", "coordinates": [ -87.853006821496407, 41.673894327392723 ] } },
{ "type": "Feature", "properties": { "activities_id": 896, "atype": "trailhead", "trail_info_id": 1013, "parking_info_id": 56, "poi_info_id": 119, "aname": "McClaughrey Springs Woods", "accessible": 0 }, "geometry": { "type": "Point", "coordinates": [ -87.844043888845547, 41.677442062635514 ] } },
{ "type": "Feature", "properties": { "activities_id": 897, "atype": "trailhead", "trail_info_id": 2634, "parking_info_id": 57, "poi_info_id": 121, "aname": "Paddock Woods", "accessible": 0 }, "geometry": { "type": "Point", "coordinates": [ -87.831620224116136, 41.678294602108828 ] } },
{ "type": "Feature", "properties": { "activities_id": 898, "atype": "trailhead", "trail_info_id": 2704, "parking_info_id": 297, "poi_info_id": 398, "aname": "Sag Valley Equestrian Parking", "accessible": 0 }, "geometry": { "type": "Point", "coordinates": [ -87.923722918414057, 41.649786790875019 ] } },
{ "type": "Feature", "properties": { "activities_id": 899, "atype": "trailhead", "trail_info_id": 1609, "parking_info_id": 219, "poi_info_id": 343, "aname": "Beck Lake", "accessible": 0 }, "geometry": { "type": "Point", "coordinates": [ -87.87426721452394, 42.071035742343753 ] } },
{ "type": "Feature", "properties": { "activities_id": 900, "atype": "trailhead", "trail_info_id": 1263, "parking_info_id": 256, "poi_info_id": 323, "aname": "Saganashkee Slough-East", "accessible": 1 }, "geometry": { "type": "Point", "coordinates": [ -87.875065735607862, 41.688990670693919 ] } },
{ "type": "Feature", "properties": { "activities_id": 901, "atype": "trailhead", "trail_info_id": 621, "parking_info_id": 262, "poi_info_id": 333, "aname": "Sag Quarries", "accessible": 0 }, "geometry": { "type": "Point", "coordinates": [ -87.932686088069346, 41.690512001371239 ] } },
{ "type": "Feature", "properties": { "activities_id": 902, "atype": "trailhead", "trail_info_id": 236, "parking_info_id": 269, "poi_info_id": 115, "aname": "Horsetail Lake", "accessible": 0 }, "geometry": { "type": "Point", "coordinates": [ -87.871942393098948, 41.668187383978953 ] } },
{ "type": "Feature", "properties": { "activities_id": 903, "atype": "trailhead", "trail_info_id": 2314, "parking_info_id": 282, "poi_info_id": 305, "aname": "Midlothian Reservoir", "accessible": 0 }, "geometry": { "type": "Point", "coordinates": [ -87.738296815221503, 41.589030926200572 ] } },
{ "type": "Feature", "properties": { "activities_id": 904, "atype": "trailhead", "trail_info_id": 1160, "parking_info_id": 142, "poi_info_id": 282, "aname": "Bunker Hill", "accessible": 1 }, "geometry": { "type": "Point", "coordinates": [ -87.79121652113291, 42.008821702701781 ] } },
{ "type": "Feature", "properties": { "activities_id": 905, "atype": "trailhead", "trail_info_id": 2360, "parking_info_id": 63, "poi_info_id": 292, "aname": "Buffalo Woods-North", "accessible": 0 }, "geometry": { "type": "Point", "coordinates": [ -87.851088532730046, 41.737915653423151 ] } },
{ "type": "Feature", "properties": { "activities_id": 906, "atype": "trailhead", "trail_info_id": 739, "parking_info_id": 306, "poi_info_id": 246, "aname": "Twenty-Sixth Street Woods-West", "accessible": 0 }, "geometry": { "type": "Point", "coordinates": [ -87.857755561651842, 41.842350880137893 ] } },
{ "type": "Feature", "properties": { "activities_id": 907, "atype": "trailhead", "trail_info_id": 2689, "parking_info_id": 309, "poi_info_id": 188, "aname": "Woodland Meadow", "accessible": 0 }, "geometry": { "type": "Point", "coordinates": [ -88.031013150251979, 42.007147727063447 ] } },
{ "type": "Feature", "properties": { "activities_id": 908, "atype": "trailhead", "trail_info_id": 206, "parking_info_id": 175, "poi_info_id": 297, "aname": "John Husar I&M Canal Bicycle Trail Parking Lot", "accessible": 0 }, "geometry": { "type": "Point", "coordinates": [ -87.879427384917278, 41.733593049258474 ] } },
{ "type": "Feature", "properties": { "activities_id": 909, "atype": "trailhead", "trail_info_id": 1184, "parking_info_id": 140, "poi_info_id": 214, "aname": "Catherine Chevalier Woods", "accessible": 0 }, "geometry": { "type": "Point", "coordinates": [ -87.851579979957577, 41.977485037159745 ] } },
{ "type": "Feature", "properties": { "activities_id": 910, "atype": "trailhead", "trail_info_id": 267, "parking_info_id": 144, "poi_info_id": 187, "aname": "Busse Lake Beisner Road Access", "accessible": 1 }, "geometry": { "type": "Point", "coordinates": [ -88.017815854679682, 42.016203499613262 ] } },
{ "type": "Feature", "properties": { "activities_id": 911, "atype": "trailhead", "trail_info_id": 2066, "parking_info_id": 145, "poi_info_id": 186, "aname": "Busse Forest Main Dam", "accessible": 1 }, "geometry": { "type": "Point", "coordinates": [ -87.996265649444794, 42.01616431745741 ] } },
{ "type": "Feature", "properties": { "activities_id": 912, "atype": "trailhead", "trail_info_id": 2484, "parking_info_id": 156, "poi_info_id": 194, "aname": "Carl R. Hansen Woods", "accessible": 0 }, "geometry": { "type": "Point", "coordinates": [ -88.194436199763132, 42.053499265081534 ] } },
{ "type": "Feature", "properties": { "activities_id": 913, "atype": "trailhead", "trail_info_id": 2229, "parking_info_id": 121, "poi_info_id": 52, "aname": "Thaddeus S. \"Ted\" Lechowicz Woods", "accessible": 0 }, "geometry": { "type": "Point", "coordinates": [ -87.765744155042668, 41.988926678650749 ] } },
{ "type": "Feature", "properties": { "activities_id": 914, "atype": "trailhead", "trail_info_id": 1285, "parking_info_id": 71, "poi_info_id": 331, "aname": "Maple Lake-East - Mountain Bike Staging Area", "accessible": 0 }, "geometry": { "type": "Point", "coordinates": [ -87.8819598042069, 41.716825860254318 ] } },
{ "type": "Feature", "properties": { "activities_id": 915, "atype": "trailhead", "trail_info_id": 2611, "parking_info_id": 79, "poi_info_id": 391, "aname": "Arie Crown Forest", "accessible": 0 }, "geometry": { "type": "Point", "coordinates": [ -87.873478809052955, 41.762924868046007 ] } },
{ "type": "Feature", "properties": { "activities_id": 916, "atype": "trailhead", "trail_info_id": 1786, "parking_info_id": 203, "poi_info_id": 351, "aname": "Deer Grove-West", "accessible": 0 }, "geometry": { "type": "Point", "coordinates": [ -88.092432600760446, 42.136080135547246 ] } },
{ "type": "Feature", "properties": { "activities_id": 917, "atype": "trailhead", "trail_info_id": 636, "parking_info_id": 90, "poi_info_id": 153, "aname": "Green Lake Woods", "accessible": 0 }, "geometry": { "type": "Point", "coordinates": [ -87.551829291473979, 41.601262481048423 ] } },
{ "type": "Feature", "properties": { "activities_id": 918, "atype": "trailhead", "trail_info_id": 341, "parking_info_id": 28, "poi_info_id": 243, "aname": "Brookfield Woods", "accessible": 1 }, "geometry": { "type": "Point", "coordinates": [ -87.839510730654339, 41.83671097016525 ] } },
{ "type": "Feature", "properties": { "activities_id": 919, "atype": "trailhead", "trail_info_id": 2230, "parking_info_id": 29, "poi_info_id": 247, "aname": "Brezina Woods", "accessible": 1 }, "geometry": { "type": "Point", "coordinates": [ -87.876930438796279, 41.844691543440177 ] } },
{ "type": "Feature", "properties": { "activities_id": 920, "atype": "trailhead", "trail_info_id": 1340, "parking_info_id": 47, "poi_info_id": 175, "aname": "Turtlehead Lake", "accessible": 0 }, "geometry": { "type": "Point", "coordinates": [ -87.800308993233386, 41.642751400677916 ] } },
{ "type": "Feature", "properties": { "activities_id": 921, "atype": "trailhead", "trail_info_id": 1378, "parking_info_id": 48, "poi_info_id": 128, "aname": "Arrowhead Lake", "accessible": 1 }, "geometry": { "type": "Point", "coordinates": [ -87.791517802388725, 41.650289528857307 ] } },
{ "type": "Feature", "properties": { "activities_id": 922, "atype": "trailhead", "trail_info_id": 2613, "parking_info_id": 138, "poi_info_id": 314, "aname": "Dan Ryan Woods-91st Street", "accessible": 0 }, "geometry": { "type": "Point", "coordinates": [ -87.667314480691644, 41.728847604235824 ] } },
{ "type": "Feature", "properties": { "activities_id": 923, "atype": "snowmobiling", "trail_info_id": null, "parking_info_id": 47, "poi_info_id": 175, "aname": "Turtlehead Lake Snowmobiling", "accessible": 0 }, "geometry": { "type": "Point", "coordinates": [ -87.801560768042606, 41.641234005712178 ] } },
{ "type": "Feature", "properties": { "activities_id": 924, "atype": "trailhead", "trail_info_id": 858, "parking_info_id": 204, "poi_info_id": 178, "aname": "Camp Alphonse", "accessible": 0 }, "geometry": { "type": "Point", "coordinates": [ -88.077776912555223, 42.137577533861808 ] } },
{ "type": "Feature", "properties": { "activities_id": 925, "atype": "trailhead", "trail_info_id": 982, "parking_info_id": 245, "poi_info_id": 260, "aname": "Chicago Portage National Historic Site", "accessible": 0 }, "geometry": { "type": "Point", "coordinates": [ -87.802595187037667, 41.805571965152225 ] } },
{ "type": "Feature", "properties": { "activities_id": 927, "atype": "snowmobiling", "trail_info_id": null, "parking_info_id": 254, "poi_info_id": 303, "aname": "Morrill Meadow Snowmobiling", "accessible": 0 }, "geometry": { "type": "Point", "coordinates": [ -87.8571650083652, 41.692464663543639 ] } },
{ "type": "Feature", "properties": { "activities_id": 928, "atype": "sledding", "trail_info_id": null, "parking_info_id": 72, "poi_info_id": 316, "aname": "Pioneer Woods Sledding Hill", "accessible": 0 }, "geometry": { "type": "Point", "coordinates": [ -87.868566846546216, 41.697020510725395 ] } },
{ "type": "Feature", "properties": { "activities_id": 929, "atype": "sledding", "trail_info_id": null, "parking_info_id": 60, "poi_info_id": 123, "aname": "Swallow Cliff Woods-North Sledding Hill", "accessible": 0 }, "geometry": { "type": "Point", "coordinates": [ -87.863270213043492, 41.679949809538662 ] } },
{ "type": "Feature", "properties": { "activities_id": 930, "atype": "pavilion", "trail_info_id": null, "parking_info_id": 60, "poi_info_id": 123, "aname": "Swallow Cliff Woods Pavilion & Cafe", "accessible": 0 }, "geometry": { "type": "Point", "coordinates": [ -87.862592835845064, 41.680347857414333 ] } },
{ "type": "Feature", "properties": { "activities_id": 931, "atype": "trailhead", "trail_info_id": 2640, "parking_info_id": 148, "poi_info_id": 207, "aname": "Camp Ground Road Woods", "accessible": 0 }, "geometry": { "type": "Point", "coordinates": [ -87.872856343737496, 42.02923654683169 ] } },
{ "type": "Feature", "properties": { "activities_id": 932, "atype": "trailhead", "trail_info_id": 1579, "parking_info_id": 151, "poi_info_id": 390, "aname": "Bemis Woods-North", "accessible": 0 }, "geometry": { "type": "Point", "coordinates": [ -87.907109452858776, 41.82806965388933 ] } },
{ "type": "Feature", "properties": { "activities_id": 933, "atype": "trailhead", "trail_info_id": 844, "parking_info_id": 157, "poi_info_id": 180, "aname": "Deer Grove", "accessible": 1 }, "geometry": { "type": "Point", "coordinates": [ -88.066694969215987, 42.140419232056146 ] } },
{ "type": "Feature", "properties": { "activities_id": 934, "atype": "trailhead", "trail_info_id": 1798, "parking_info_id": 157, "poi_info_id": 180, "aname": "Deer Grove", "accessible": 1 }, "geometry": { "type": "Point", "coordinates": [ -88.074160633574238, 42.147535933811 ] } },
{ "type": "Feature", "properties": { "activities_id": 935, "atype": "trailhead", "trail_info_id": 1311, "parking_info_id": 66, "poi_info_id": 376, "aname": "Columbia Woods", "accessible": 0 }, "geometry": { "type": "Point", "coordinates": [ -87.882381477778139, 41.735985246697119 ] } },
{ "type": "Feature", "properties": { "activities_id": 936, "atype": "trailhead", "trail_info_id": 1152, "parking_info_id": 46, "poi_info_id": 250, "aname": "Bemis Woods-South", "accessible": 1 }, "geometry": { "type": "Point", "coordinates": [ -87.90939737185866, 41.825281685978901 ] } },
{ "type": "Feature", "properties": { "activities_id": 938, "atype": "trailhead", "trail_info_id": 764, "parking_info_id": 200, "poi_info_id": 173, "aname": "Old Stover Trailhead", "accessible": 0 }, "geometry": { "type": "Point", "coordinates": [ -88.160696731424707, 42.11009887227798 ] } },
{ "type": "Feature", "properties": { "activities_id": 940, "atype": "sledding", "trail_info_id": null, "parking_info_id": 157, "poi_info_id": 180, "aname": "Deer Grove Sledding Hill", "accessible": 1 }, "geometry": { "type": "Point", "coordinates": [ -88.074031491568064, 42.146532893462336 ] } },
{ "type": "Feature", "properties": { "activities_id": 942, "atype": "trailhead", "trail_info_id": 2351, "parking_info_id": 139, "poi_info_id": 315, "aname": "Eggers Grove", "accessible": 0 }, "geometry": { "type": "Point", "coordinates": [ -87.528976087984447, 41.688036687955112 ] } },
{ "type": "Feature", "properties": { "activities_id": 943, "atype": "trailhead", "trail_info_id": 2268, "parking_info_id": 111, "poi_info_id": 162, "aname": "Jurgensen Woods", "accessible": 0 }, "geometry": { "type": "Point", "coordinates": [ -87.59230645059246, 41.554251780920744 ] } },
{ "type": "Feature", "properties": { "activities_id": 945, "atype": "zip line", "trail_info_id": null, "parking_info_id": 46, "poi_info_id": 250, "aname": "Go Ape Zipline & Adventure Park", "accessible": 1 }, "geometry": { "type": "Point", "coordinates": [ -87.905862773133265, 41.822767836978215 ] } },
{ "type": "Feature", "properties": { "activities_id": 946, "atype": "trailhead", "trail_info_id": 1558, "parking_info_id": 147, "poi_info_id": 364, "aname": "Big Bend Lake", "accessible": 0 }, "geometry": { "type": "Point", "coordinates": [ -87.870058163464464, 42.052114014398548 ] } },
{ "type": "Feature", "properties": { "activities_id": 947, "atype": "trailhead", "trail_info_id": 2233, "parking_info_id": 281, "poi_info_id": 377, "aname": "St. Mihiel Woods-East", "accessible": 0 }, "geometry": { "type": "Point", "coordinates": [ -87.754442936858283, 41.586040184547606 ] } },
{ "type": "Feature", "properties": { "activities_id": 949, "atype": "trailhead", "trail_info_id": 929, "parking_info_id": 236, "poi_info_id": 270, "aname": "Glenview Woods", "accessible": 0 }, "geometry": { "type": "Point", "coordinates": [ -87.771826940253817, 42.067576661087159 ] } },
{ "type": "Feature", "properties": { "activities_id": 951, "atype": "trailhead", "trail_info_id": 2362, "parking_info_id": 252, "poi_info_id": 298, "aname": "Hidden Pond Woods-West", "accessible": 0 }, "geometry": { "type": "Point", "coordinates": [ -87.851549329719148, 41.723262311270638 ] } },
{ "type": "Feature", "properties": { "activities_id": 952, "atype": "trailhead", "trail_info_id": 309, "parking_info_id": 276, "poi_info_id": 379, "aname": "Orland Grassland Land and Water Reserve", "accessible": 0 }, "geometry": { "type": "Point", "coordinates": [ -87.854271825980604, 41.586360862767812 ] } },
{ "type": "Feature", "properties": { "activities_id": 953, "atype": "trailhead", "trail_info_id": 993, "parking_info_id": 277, "poi_info_id": 372, "aname": "Orland Grassland South", "accessible": 0 }, "geometry": { "type": "Point", "coordinates": [ -87.869744914500899, 41.562542689431289 ] } },
{ "type": "Feature", "properties": { "activities_id": 954, "atype": "frisbee golf", "trail_info_id": null, "parking_info_id": 188, "poi_info_id": 81, "aname": "Rolling Knolls Disc Golf", "accessible": 0 }, "geometry": { "type": "Point", "coordinates": [ -88.231050256675431, 42.037037740227525 ] } },
{ "type": "Feature", "properties": { "activities_id": 955, "atype": "sledding", "trail_info_id": null, "parking_info_id": 128, "poi_info_id": 221, "aname": "Schiller Woods-East Sledding Hill", "accessible": 1 }, "geometry": { "type": "Point", "coordinates": [ -87.841468525056015, 41.955837825686089 ] } },
{ "type": "Feature", "properties": { "activities_id": 956, "atype": "trailhead", "trail_info_id": 1077, "parking_info_id": 209, "poi_info_id": 198, "aname": "Poplar Creek Bicycle Lot", "accessible": 0 }, "geometry": { "type": "Point", "coordinates": [ -88.149444955207969, 42.061748998811282 ] } },
{ "type": "Feature", "properties": { "activities_id": 957, "atype": "trailhead", "trail_info_id": 2124, "parking_info_id": 214, "poi_info_id": 195, "aname": "Poplar Creek Equestrian Parking", "accessible": 0 }, "geometry": { "type": "Point", "coordinates": [ -88.213758979788608, 42.030423164679561 ] } },
{ "type": "Feature", "properties": { "activities_id": 958, "atype": "trailhead", "trail_info_id": 1718, "parking_info_id": 283, "poi_info_id": 365, "aname": "Oak Forest Heritage Preserve-East", "accessible": 0 }, "geometry": { "type": "Point", "coordinates": [ -87.716856016571711, 41.597757179704878 ] } },
{ "type": "Feature", "properties": { "activities_id": 959, "atype": "trailhead", "trail_info_id": 2111, "parking_info_id": 146, "poi_info_id": 183, "aname": "Grassy Ridge Meadow", "accessible": 0 }, "geometry": { "type": "Point", "coordinates": [ -88.113844582495702, 42.067845919879659 ] } },
{ "type": "Feature", "properties": { "activities_id": 960, "atype": "trailhead", "trail_info_id": 2094, "parking_info_id": 143, "poi_info_id": 29, "aname": "Busse Forest And Ned Brown Meadow", "accessible": 0 }, "geometry": { "type": "Point", "coordinates": [ -88.023439260947001, 42.050378904136373 ] } },
{ "type": "Feature", "properties": { "activities_id": 961, "atype": "sledding", "trail_info_id": null, "parking_info_id": 137, "poi_info_id": 313, "aname": "Dan Ryan Sledding Hill", "accessible": 0 }, "geometry": { "type": "Point", "coordinates": [ -87.679058333130868, 41.736532759088057 ] } },
{ "type": "Feature", "properties": { "activities_id": 962, "atype": "snowmobiling", "trail_info_id": null, "parking_info_id": 102, "poi_info_id": 164, "aname": "North Creek Meadow Snowmobiling", "accessible": 0 }, "geometry": { "type": "Point", "coordinates": [ -87.564868585043257, 41.545279293084242 ] } },
{ "type": "Feature", "properties": { "activities_id": 963, "atype": "sledding", "trail_info_id": null, "parking_info_id": 11, "poi_info_id": 42, "aname": "Westchester Woods Sledding Hill", "accessible": 0 }, "geometry": { "type": "Point", "coordinates": [ -87.866382766816599, 41.847217388675517 ] } },
{ "type": "Feature", "properties": { "activities_id": 965, "atype": "trailhead", "trail_info_id": 117, "parking_info_id": 195, "poi_info_id": 338, "aname": "River Trail Nature Center", "accessible": 0 }, "geometry": { "type": "Point", "coordinates": [ -87.882591300708114, 42.095707405280528 ] } },
{ "type": "Feature", "properties": { "activities_id": 966, "atype": "trailhead", "trail_info_id": 2337, "parking_info_id": 83, "poi_info_id": 306, "aname": "Midlothian Meadows", "accessible": 1 }, "geometry": { "type": "Point", "coordinates": [ -87.718022958466022, 41.614006369678663 ] } },
{ "type": "Feature", "properties": { "activities_id": 967, "atype": "trailhead", "trail_info_id": 791, "parking_info_id": 89, "poi_info_id": 141, "aname": "Whistler Woods", "accessible": 0 }, "geometry": { "type": "Point", "coordinates": [ -87.636432332776081, 41.655567879936342 ] } },
{ "type": "Feature", "properties": { "activities_id": 968, "atype": "trailhead", "trail_info_id": 599, "parking_info_id": 206, "poi_info_id": 202, "aname": "Beverly Lake", "accessible": 0 }, "geometry": { "type": "Point", "coordinates": [ -88.230811224664464, 42.083770009852046 ] } },
{ "type": "Feature", "properties": { "activities_id": 969, "atype": "trailhead", "trail_info_id": 2654, "parking_info_id": 76, "poi_info_id": 296, "aname": "Willow Springs Woods", "accessible": 0 }, "geometry": { "type": "Point", "coordinates": [ -87.873723149423014, 41.727406233312522 ] } },
{ "type": "Feature", "properties": { "activities_id": 970, "atype": "trailhead", "trail_info_id": 1041, "parking_info_id": 77, "poi_info_id": 320, "aname": "Wolf Road Woods", "accessible": 0 }, "geometry": { "type": "Point", "coordinates": [ -87.89777242874159, 41.704352711199547 ] } },
{ "type": "Feature", "properties": { "activities_id": 971, "atype": "trailhead", "trail_info_id": 276, "parking_info_id": 81, "poi_info_id": 290, "aname": "Sundown Meadow", "accessible": 0 }, "geometry": { "type": "Point", "coordinates": [ -87.872267898931469, 41.769460354923254 ] } },
{ "type": "Feature", "properties": { "activities_id": 972, "atype": "trailhead", "trail_info_id": 1843, "parking_info_id": 100, "poi_info_id": 367, "aname": "Woodrow Wilson Woods", "accessible": 0 }, "geometry": { "type": "Point", "coordinates": [ -87.644935736725003, 41.506724139622158 ] } },
{ "type": "Feature", "properties": { "activities_id": 973, "atype": "trailhead", "trail_info_id": 956, "parking_info_id": 112, "poi_info_id": 159, "aname": "Sweet Woods", "accessible": 1 }, "geometry": { "type": "Point", "coordinates": [ -87.597574923470333, 41.556095805841885 ] } },
{ "type": "Feature", "properties": { "activities_id": 974, "atype": "trailhead", "trail_info_id": 303, "parking_info_id": 114, "poi_info_id": 309, "aname": "Vollmer Road Grove", "accessible": 1 }, "geometry": { "type": "Point", "coordinates": [ -87.718770863007379, 41.529202495668741 ] } },
{ "type": "Feature", "properties": { "activities_id": 975, "atype": "trailhead", "trail_info_id": 21, "parking_info_id": 15, "poi_info_id": 342, "aname": "Camp Pine Woods", "accessible": 0 }, "geometry": { "type": "Point", "coordinates": [ -87.886874965590025, 42.086855675285314 ] } },
{ "type": "Feature", "properties": { "activities_id": 976, "atype": "trailhead", "trail_info_id": 1255, "parking_info_id": 60, "poi_info_id": 123, "aname": "Swallow Cliff Woods-North", "accessible": 0 }, "geometry": { "type": "Point", "coordinates": [ -87.861377449350925, 41.683418802356066 ] } },
{ "type": "Feature", "properties": { "activities_id": 977, "atype": "trailhead", "trail_info_id": 2171, "parking_info_id": 233, "poi_info_id": 267, "aname": "Tower Road Accessible Boat Launch", "accessible": 1 }, "geometry": { "type": "Point", "coordinates": [ -87.775081980951782, 42.113274412398574 ] } },
{ "type": "Feature", "properties": { "activities_id": 978, "atype": "trailhead", "trail_info_id": 1862, "parking_info_id": 237, "poi_info_id": 275, "aname": "Calvin R. Sutker Grove", "accessible": 0 }, "geometry": { "type": "Point", "coordinates": [ -87.762186662483956, 42.056542810200575 ] } },
{ "type": "Feature", "properties": { "activities_id": 979, "atype": "trailhead", "trail_info_id": 2304, "parking_info_id": 244, "poi_info_id": 259, "aname": "Stony Ford Canoe Landing", "accessible": 0 }, "geometry": { "type": "Point", "coordinates": [ -87.811029492056136, 41.813461210043073 ] } },
{ "type": "Feature", "properties": { "activities_id": 980, "atype": "trailhead", "trail_info_id": 1639, "parking_info_id": 279, "poi_info_id": 137, "aname": "Catalina Grove Family Picnic Area", "accessible": 0 }, "geometry": { "type": "Point", "coordinates": [ -87.801632448440202, 41.617130799656309 ] } },
{ "type": "Feature", "properties": { "activities_id": 981, "atype": "trailhead", "trail_info_id": 1426, "parking_info_id": 287, "poi_info_id": 310, "aname": "Flossmoor Road Bicycle Lot", "accessible": 0 }, "geometry": { "type": "Point", "coordinates": [ -87.721214782664546, 41.541729483110672 ] } },
{ "type": "Feature", "properties": { "activities_id": 982, "atype": "trailhead", "trail_info_id": 2085, "parking_info_id": 316, "poi_info_id": 184, "aname": "Busse Forest-North", "accessible": 0 }, "geometry": { "type": "Point", "coordinates": [ -87.999515832077748, 42.036837577966516 ] } },
{ "type": "Feature", "properties": { "activities_id": 985, "atype": "trailhead", "trail_info_id": 232, "parking_info_id": 334, "poi_info_id": 100, "aname": "Camp Bullfrog Lake", "accessible": 1 }, "geometry": { "type": "Point", "coordinates": [ -87.904744655217712, 41.70897929975412 ] } },
{ "type": "Feature", "properties": { "activities_id": 986, "atype": "trailhead", "trail_info_id": 1137, "parking_info_id": 178, "poi_info_id": 325, "aname": "Bullfrog Lake", "accessible": 0 }, "geometry": { "type": "Point", "coordinates": [ -87.898571959042911, 41.711348825359515 ] } },
{ "type": "Feature", "properties": { "activities_id": 988, "atype": "sledding", "trail_info_id": null, "parking_info_id": 121, "poi_info_id": 52, "aname": "Thaddeus S. \"Ted\" Lechowicz Woods Sledding Hill", "accessible": 0 }, "geometry": { "type": "Point", "coordinates": [ -87.763638255742805, 41.988580272342325 ] } },
{ "type": "Feature", "properties": { "activities_id": 989, "atype": "trailhead", "trail_info_id": 2174, "parking_info_id": 232, "poi_info_id": 266, "aname": "Tower Road Kayak\/Canoe Rental", "accessible": 0 }, "geometry": { "type": "Point", "coordinates": [ -87.770749615199136, 42.115934937496334 ] } },
{ "type": "Feature", "properties": { "activities_id": 990, "atype": "trailhead", "trail_info_id": 48, "parking_info_id": 23, "poi_info_id": 230, "aname": "Sunset Bridge Meadow", "accessible": 1 }, "geometry": { "type": "Point", "coordinates": [ -87.832257489688331, 41.909681796991855 ] } },
{ "type": "Feature", "properties": { "activities_id": 994, "atype": "bicycle lot", "trail_info_id": null, "parking_info_id": 71, "poi_info_id": 331, "aname": "Maple Lake Mountain Bike Staging Area", "accessible": 0 }, "geometry": { "type": "Point", "coordinates": [ -87.88211042531465, 41.715273837039298 ] } },
{ "type": "Feature", "properties": { "activities_id": 995, "atype": "bicycle lot", "trail_info_id": null, "parking_info_id": 287, "poi_info_id": 310, "aname": "Flossmoor Road Bicycle Lot", "accessible": 0 }, "geometry": { "type": "Point", "coordinates": [ -87.721137210846933, 41.542005395682395 ] } },
{ "type": "Feature", "properties": { "activities_id": 996, "atype": "bicycle lot", "trail_info_id": null, "parking_info_id": 175, "poi_info_id": 297, "aname": "John Husar I&M Canal Bicycle Trail Parking Lot", "accessible": 0 }, "geometry": { "type": "Point", "coordinates": [ -87.880020207008357, 41.73360906151575 ] } },
{ "type": "Feature", "properties": { "activities_id": 997, "atype": "boat launch", "trail_info_id": null, "parking_info_id": 219, "poi_info_id": 343, "aname": "Beck Lake Boat Launch", "accessible": 0 }, "geometry": { "type": "Point", "coordinates": [ -87.873454701535906, 42.071759616113972 ] } },
{ "type": "Feature", "properties": { "activities_id": 998, "atype": "boat launch", "trail_info_id": null, "parking_info_id": 298, "poi_info_id": 149, "aname": "Powderhorn Lake Boat Launch", "accessible": 0 }, "geometry": { "type": "Point", "coordinates": [ -87.533668365830025, 41.640928855866647 ] } },
{ "type": "Feature", "properties": { "activities_id": 999, "atype": "boat launch", "trail_info_id": null, "parking_info_id": 313, "poi_info_id": 189, "aname": "Busse Lake Boat Launch", "accessible": 1 }, "geometry": { "type": "Point", "coordinates": [ -88.016614286815866, 42.024922174226369 ] } },
{ "type": "Feature", "properties": { "activities_id": 1000, "atype": "boat launch", "trail_info_id": null, "parking_info_id": 233, "poi_info_id": 267, "aname": "Tower Road Accessible Boat Launch", "accessible": 1 }, "geometry": { "type": "Point", "coordinates": [ -87.774716476595316, 42.113514046812007 ] } },
{ "type": "Feature", "properties": { "activities_id": 1001, "atype": "boat launch", "trail_info_id": null, "parking_info_id": 272, "poi_info_id": 126, "aname": "Tampier Lake Boat Launch", "accessible": 0 }, "geometry": { "type": "Point", "coordinates": [ -87.897825263990356, 41.650601759446943 ] } },
{ "type": "Feature", "properties": { "activities_id": 1002, "atype": "boat launch", "trail_info_id": null, "parking_info_id": 313, "poi_info_id": 189, "aname": "Busse Lake South Boat Launch", "accessible": 1 }, "geometry": { "type": "Point", "coordinates": [ -88.01689469130956, 42.022830304504744 ] } },
{ "type": "Feature", "properties": { "activities_id": 1003, "atype": "canoe landing", "trail_info_id": null, "parking_info_id": 12, "poi_info_id": 341, "aname": "Dam No. 2 Woods Canoe Landing", "accessible": 0 }, "geometry": { "type": "Point", "coordinates": [ -87.890647, 42.082890000002649 ] } },
{ "type": "Feature", "properties": { "activities_id": 1004, "atype": "canoe landing", "trail_info_id": null, "parking_info_id": 293, "poi_info_id": 277, "aname": "Linne Woods Canoe Landing", "accessible": 0 }, "geometry": { "type": "Point", "coordinates": [ -87.786025755964445, 42.043810155851645 ] } },
{ "type": "Feature", "properties": { "activities_id": 1005, "atype": "canoe landing", "trail_info_id": null, "parking_info_id": 324, "poi_info_id": 205, "aname": "Northwestern Woods Canoe Landing", "accessible": 0 }, "geometry": { "type": "Point", "coordinates": [ -87.881980593507635, 42.037099478335847 ] } },
{ "type": "Feature", "properties": { "activities_id": 1006, "atype": "canoe landing", "trail_info_id": null, "parking_info_id": 161, "poi_info_id": 337, "aname": "Allison Woods Canoe Landing", "accessible": 1 }, "geometry": { "type": "Point", "coordinates": [ -87.885820504184821, 42.100955930720644 ] } },
{ "type": "Feature", "properties": { "activities_id": 1007, "atype": "canoe landing", "trail_info_id": null, "parking_info_id": 151, "poi_info_id": 390, "aname": "Bemis Woods-North Canoe Landing", "accessible": 0 }, "geometry": { "type": "Point", "coordinates": [ -87.906931166603428, 41.827663845834216 ] } },
{ "type": "Feature", "properties": { "activities_id": 1008, "atype": "canoe landing", "trail_info_id": null, "parking_info_id": 66, "poi_info_id": 376, "aname": "Columbia Woods Canoe Landing", "accessible": 0 }, "geometry": { "type": "Point", "coordinates": [ -87.889242954249212, 41.730524181381902 ] } },
{ "type": "Feature", "properties": { "activities_id": 1009, "atype": "canoe landing", "trail_info_id": null, "parking_info_id": 289, "poi_info_id": 145, "aname": "Kickapoo Woods Canoe Landing", "accessible": 0 }, "geometry": { "type": "Point", "coordinates": [ -87.644058019961861, 41.629236263901248 ] } },
{ "type": "Feature", "properties": { "activities_id": 1010, "atype": "canoe landing", "trail_info_id": null, "parking_info_id": 306, "poi_info_id": 246, "aname": "Twenty-Sixth Street Woods-West Canoe Landing", "accessible": 0 }, "geometry": { "type": "Point", "coordinates": [ -87.858342718995772, 41.842738059380537 ] } },
{ "type": "Feature", "properties": { "activities_id": 1012, "atype": "model airplane flying field", "trail_info_id": null, "parking_info_id": 254, "poi_info_id": 303, "aname": "Morrill Meadow Model Airplane Flying Field", "accessible": 0 }, "geometry": { "type": "Point", "coordinates": [ -87.858510616667658, 41.693931089718937 ] } },
{ "type": "Feature", "properties": { "activities_id": 1013, "atype": "model airplane flying field", "trail_info_id": null, "parking_info_id": 117, "poi_info_id": 181, "aname": "Deer Grove Model Airplane Flying Field", "accessible": 0 }, "geometry": { "type": "Point", "coordinates": [ -88.042061214831122, 42.144301854570784 ] } },
{ "type": "Feature", "properties": { "activities_id": 1014, "atype": "model airplane flying field", "trail_info_id": null, "parking_info_id": 143, "poi_info_id": 29, "aname": "Ned Brown Model Airplane Flying Field", "accessible": 0 }, "geometry": { "type": "Point", "coordinates": [ -88.01875790857477, 42.045661188270493 ] } },
{ "type": "Feature", "properties": { "activities_id": 1015, "atype": "model airplane flying field", "trail_info_id": null, "parking_info_id": 289, "poi_info_id": 145, "aname": "Kickapoo Woods Model Airplane Flying Field", "accessible": 0 }, "geometry": { "type": "Point", "coordinates": [ -87.645649615476557, 41.631276966098 ] } },
{ "type": "Feature", "properties": { "activities_id": 1016, "atype": "recreational waterbody", "trail_info_id": null, "parking_info_id": 213, "poi_info_id": 196, "aname": "Bode Lake", "accessible": 0 }, "geometry": { "type": "Point", "coordinates": [ -88.168094801404294, 42.041411542996435 ] } },
{ "type": "Feature", "properties": { "activities_id": 1017, "atype": "recreational waterbody", "trail_info_id": null, "parking_info_id": 329, "poi_info_id": 203, "aname": "Penny Road Pond", "accessible": 0 }, "geometry": { "type": "Point", "coordinates": [ -88.207535062161639, 42.097255533203622 ] } },
{ "type": "Feature", "properties": { "activities_id": 1018, "atype": "recreational waterbody", "trail_info_id": null, "parking_info_id": 253, "poi_info_id": 300, "aname": "Belly Deep Slough", "accessible": 0 }, "geometry": { "type": "Point", "coordinates": [ -87.849679435251758, 41.710570036004349 ] } },
{ "type": "Feature", "properties": { "activities_id": 1019, "atype": "recreational waterbody", "trail_info_id": null, "parking_info_id": 330, "poi_info_id": 27, "aname": "O'Malley Ponds", "accessible": 0 }, "geometry": { "type": "Point", "coordinates": [ -87.542859878830853, 41.496824263257302 ] } },
{ "type": "Feature", "properties": { "activities_id": 1020, "atype": "recreational waterbody", "trail_info_id": null, "parking_info_id": 0, "poi_info_id": 74, "aname": "McGinty Slough", "accessible": 0 }, "geometry": { "type": "Point", "coordinates": [ -87.922865768502845, 41.660604522280657 ] } },
{ "type": "Feature", "properties": { "activities_id": 1021, "atype": "recreational waterbody", "trail_info_id": null, "parking_info_id": 113, "poi_info_id": 22, "aname": "Wampum Lake", "accessible": 0 }, "geometry": { "type": "Point", "coordinates": [ -87.590514682454582, 41.574436278445816 ] } },
{ "type": "Feature", "properties": { "activities_id": 1022, "atype": "recreational waterbody", "trail_info_id": null, "parking_info_id": 269, "poi_info_id": 115, "aname": "Horsetail Lake", "accessible": 0 }, "geometry": { "type": "Point", "coordinates": [ -87.872025216216684, 41.669627376359095 ] } },
{ "type": "Feature", "properties": { "activities_id": 1023, "atype": "recreational waterbody", "trail_info_id": null, "parking_info_id": 234, "poi_info_id": 116, "aname": "Papoose Lake", "accessible": 0 }, "geometry": { "type": "Point", "coordinates": [ -87.858677404184093, 41.665321270590418 ] } },
{ "type": "Feature", "properties": { "activities_id": 1024, "atype": "recreational waterbody", "trail_info_id": null, "parking_info_id": 48, "poi_info_id": 128, "aname": "Arrowhead Lake", "accessible": 1 }, "geometry": { "type": "Point", "coordinates": [ -87.793028075832552, 41.651777627552647 ] } },
{ "type": "Feature", "properties": { "activities_id": 1025, "atype": "recreational waterbody", "trail_info_id": null, "parking_info_id": 262, "poi_info_id": 333, "aname": "Sag Quarry-West", "accessible": 0 }, "geometry": { "type": "Point", "coordinates": [ -87.934349829418338, 41.693157196932859 ] } },
{ "type": "Feature", "properties": { "activities_id": 1026, "atype": "recreational waterbody", "trail_info_id": null, "parking_info_id": 262, "poi_info_id": 333, "aname": "Sag Quarry-East", "accessible": 0 }, "geometry": { "type": "Point", "coordinates": [ -87.929818318270179, 41.691290027937143 ] } },
{ "type": "Feature", "properties": { "activities_id": 1027, "atype": "recreational waterbody", "trail_info_id": null, "parking_info_id": 272, "poi_info_id": 126, "aname": "Tampier Lake", "accessible": 0 }, "geometry": { "type": "Point", "coordinates": [ -87.903594116612069, 41.649497151178899 ] } },
{ "type": "Feature", "properties": { "activities_id": 1028, "atype": "recreational waterbody", "trail_info_id": null, "parking_info_id": 282, "poi_info_id": 305, "aname": "Midlothian Reservoir", "accessible": 0 }, "geometry": { "type": "Point", "coordinates": [ -87.740246479219024, 41.592281518533177 ] } },
{ "type": "Feature", "properties": { "activities_id": 1029, "atype": "recreational waterbody", "trail_info_id": null, "parking_info_id": 178, "poi_info_id": 325, "aname": "Bullfrog Lake", "accessible": 0 }, "geometry": { "type": "Point", "coordinates": [ -87.900839064338925, 41.709482447201722 ] } },
{ "type": "Feature", "properties": { "activities_id": 1030, "atype": "recreational waterbody", "trail_info_id": null, "parking_info_id": 260, "poi_info_id": 322, "aname": "Saganashkee Slough", "accessible": 0 }, "geometry": { "type": "Point", "coordinates": [ -87.891627807268151, 41.694348359735407 ] } },
{ "type": "Feature", "properties": { "activities_id": 1031, "atype": "recreational waterbody", "trail_info_id": null, "parking_info_id": 298, "poi_info_id": 149, "aname": "Powderhorn Lake", "accessible": 0 }, "geometry": { "type": "Point", "coordinates": [ -87.530001350976377, 41.642639943577301 ] } },
{ "type": "Feature", "properties": { "activities_id": 1032, "atype": "recreational waterbody", "trail_info_id": null, "parking_info_id": 220, "poi_info_id": 346, "aname": "Belleau Lake", "accessible": 0 }, "geometry": { "type": "Point", "coordinates": [ -87.868499783711911, 42.033789638764326 ] } },
{ "type": "Feature", "properties": { "activities_id": 1033, "atype": "recreational waterbody", "trail_info_id": null, "parking_info_id": 47, "poi_info_id": 175, "aname": "Turtlehead Lake", "accessible": 0 }, "geometry": { "type": "Point", "coordinates": [ -87.805992073416263, 41.641603131865686 ] } },
{ "type": "Feature", "properties": { "activities_id": 1034, "atype": "recreational waterbody", "trail_info_id": null, "parking_info_id": 206, "poi_info_id": 202, "aname": "Beverly Lake", "accessible": 0 }, "geometry": { "type": "Point", "coordinates": [ -88.228790578056106, 42.084242747679781 ] } },
{ "type": "Feature", "properties": { "activities_id": 1035, "atype": "recreational waterbody", "trail_info_id": null, "parking_info_id": 311, "poi_info_id": 60, "aname": "Joe's Pond", "accessible": 0 }, "geometry": { "type": "Point", "coordinates": [ -87.876130051620208, 41.702475291780857 ] } },
{ "type": "Feature", "properties": { "activities_id": 1036, "atype": "recreational waterbody", "trail_info_id": null, "parking_info_id": 0, "poi_info_id": 68, "aname": "Tryner's Pond", "accessible": 0 }, "geometry": { "type": "Point", "coordinates": [ -87.751403995434032, 41.566209443844542 ] } },
{ "type": "Feature", "properties": { "activities_id": 1037, "atype": "recreational waterbody", "trail_info_id": null, "parking_info_id": 0, "poi_info_id": 61, "aname": "Tuma Lake", "accessible": 0 }, "geometry": { "type": "Point", "coordinates": [ -87.871930926103417, 41.705247735508081 ] } },
{ "type": "Feature", "properties": { "activities_id": 1038, "atype": "recreational waterbody", "trail_info_id": null, "parking_info_id": 219, "poi_info_id": 343, "aname": "Beck Lake", "accessible": 0 }, "geometry": { "type": "Point", "coordinates": [ -87.871054645721642, 42.072795539268299 ] } },
{ "type": "Feature", "properties": { "activities_id": 1039, "atype": "recreational waterbody", "trail_info_id": null, "parking_info_id": 188, "poi_info_id": 81, "aname": "Rolling Knolls Pond", "accessible": 0 }, "geometry": { "type": "Point", "coordinates": [ -88.232644557110774, 42.034278663480542 ] } },
{ "type": "Feature", "properties": { "activities_id": 1040, "atype": "canoe landing", "trail_info_id": null, "parking_info_id": 25, "poi_info_id": 217, "aname": "Irving Park Road Canoe Landing", "accessible": 0 }, "geometry": { "type": "Point", "coordinates": [ -87.855950117932622, 41.954137639235448 ] } },
{ "type": "Feature", "properties": { "activities_id": 1041, "atype": "canoe landing", "trail_info_id": null, "parking_info_id": 244, "poi_info_id": 259, "aname": "Stony Ford Canoe Landing", "accessible": 0 }, "geometry": { "type": "Point", "coordinates": [ -87.809463834967772, 41.812841431170419 ] } },
{ "type": "Feature", "properties": { "activities_id": 1042, "atype": "bicycle lot", "trail_info_id": null, "parking_info_id": 209, "poi_info_id": 198, "aname": "Poplar Creek Bicycle Lot", "accessible": 0 }, "geometry": { "type": "Point", "coordinates": [ -88.1492975416744, 42.061994372616951 ] } },
{ "type": "Feature", "properties": { "activities_id": 1043, "atype": "recreational waterbody", "trail_info_id": null, "parking_info_id": 172, "poi_info_id": 233, "aname": "Thatcher Pond", "accessible": 0 }, "geometry": { "type": "Point", "coordinates": [ -87.827823, 41.892819000002532 ] } },
{ "type": "Feature", "properties": { "activities_id": 1044, "atype": "recreational waterbody", "trail_info_id": null, "parking_info_id": 64, "poi_info_id": 293, "aname": "Buffalo Woods Pond", "accessible": 0 }, "geometry": { "type": "Point", "coordinates": [ -87.849263815293455, 41.736816632860247 ] } },
{ "type": "Feature", "properties": { "activities_id": 1045, "atype": "recreational waterbody", "trail_info_id": null, "parking_info_id": 170, "poi_info_id": 383, "aname": "Axehead Lake", "accessible": 0 }, "geometry": { "type": "Point", "coordinates": [ -87.866599584745657, 42.008529883371388 ] } },
{ "type": "Feature", "properties": { "activities_id": 1046, "atype": "recreational waterbody", "trail_info_id": null, "parking_info_id": 147, "poi_info_id": 364, "aname": "Big Bend Lake", "accessible": 0 }, "geometry": { "type": "Point", "coordinates": [ -87.876076952823553, 42.051370156027069 ] } },
{ "type": "Feature", "properties": { "activities_id": 1047, "atype": "boat launch", "trail_info_id": null, "parking_info_id": 261, "poi_info_id": 324, "aname": "Saganashkee Slough Accessible Boat Launch", "accessible": 1 }, "geometry": { "type": "Point", "coordinates": [ -87.904773510615385, 41.69640202993692 ] } },
{ "type": "Feature", "properties": { "activities_id": 1048, "atype": "recreational waterbody", "trail_info_id": null, "parking_info_id": 257, "poi_info_id": 370, "aname": "Crawdad Slough", "accessible": 0 }, "geometry": { "type": "Point", "coordinates": [ -87.874577906829998, 41.716378829288665 ] } },
{ "type": "Feature", "properties": { "activities_id": 1049, "atype": "recreational waterbody", "trail_info_id": null, "parking_info_id": 252, "poi_info_id": 298, "aname": "Hidden Pond", "accessible": 0 }, "geometry": { "type": "Point", "coordinates": [ -87.8497473459133, 41.722144885390342 ] } },
{ "type": "Feature", "properties": { "activities_id": 1050, "atype": "recreational waterbody", "trail_info_id": null, "parking_info_id": 160, "poi_info_id": 197, "aname": "Barrington Road Pond", "accessible": 1 }, "geometry": { "type": "Point", "coordinates": [ -88.14558883882161, 42.056186958387514 ] } },
{ "type": "Feature", "properties": { "activities_id": 1051, "atype": "boating center", "trail_info_id": null, "parking_info_id": 313, "poi_info_id": 189, "aname": "Busse Lake Boating Center", "accessible": 1 }, "geometry": { "type": "Point", "coordinates": [ -88.015151796218817, 42.024502072496624 ] } },
{ "type": "Feature", "properties": { "activities_id": 1052, "atype": "boating center", "trail_info_id": null, "parking_info_id": 177, "poi_info_id": 378, "aname": "Maple Lake Boating Center", "accessible": 1 }, "geometry": { "type": "Point", "coordinates": [ -87.894505737948592, 41.71234027927769 ] } },
{ "type": "Feature", "properties": { "activities_id": 1053, "atype": "boating center", "trail_info_id": null, "parking_info_id": 272, "poi_info_id": 126, "aname": "Tampier Lake Boating Center", "accessible": 0 }, "geometry": { "type": "Point", "coordinates": [ -87.89774269255615, 41.650179855073283 ] } },
{ "type": "Feature", "properties": { "activities_id": 1054, "atype": "model airplane flying field", "trail_info_id": null, "parking_info_id": 264, "poi_info_id": 163, "aname": "Thorn Creek Model Airplane Flying Field", "accessible": 0 }, "geometry": { "type": "Point", "coordinates": [ -87.576759026722769, 41.552633158414423 ] } },
{ "type": "Feature", "properties": { "activities_id": 1055, "atype": "model airplane flying field", "trail_info_id": null, "parking_info_id": 286, "poi_info_id": 308, "aname": "Tinley Creek Model Airplane Flying Field", "accessible": 0 }, "geometry": { "type": "Point", "coordinates": [ -87.736916033483709, 41.537623390560015 ] } },
{ "type": "Feature", "properties": { "activities_id": 1056, "atype": "model airplane flying field", "trail_info_id": null, "parking_info_id": 223, "poi_info_id": 222, "aname": "Schiller Model Airplane Flying Field", "accessible": 0 }, "geometry": { "type": "Point", "coordinates": [ -87.842169233283911, 41.951660764767681 ] } },
{ "type": "Feature", "properties": { "activities_id": 1057, "atype": "model airplane flying field", "trail_info_id": null, "parking_info_id": 210, "poi_info_id": 199, "aname": "Poplar Creek Model Airplane Flying Field", "accessible": 0 }, "geometry": { "type": "Point", "coordinates": [ -88.160680540662469, 42.060260371625127 ] } },
{ "type": "Feature", "properties": { "activities_id": 1058, "atype": "equestrian parking", "trail_info_id": null, "parking_info_id": 214, "poi_info_id": 195, "aname": "Poplar Creek Equestrian Parking", "accessible": 0 }, "geometry": { "type": "Point", "coordinates": [ -88.214132072499922, 42.030979433628097 ] } },
{ "type": "Feature", "properties": { "activities_id": 1059, "atype": "equestrian parking", "trail_info_id": null, "parking_info_id": 192, "poi_info_id": 58, "aname": "Camp Kiwanis Equestrian Staging Area", "accessible": 0 }, "geometry": { "type": "Point", "coordinates": [ -87.873788160479279, 41.709576523562951 ] } },
{ "type": "Feature", "properties": { "activities_id": 1060, "atype": "equestrian parking", "trail_info_id": null, "parking_info_id": 197, "poi_info_id": 347, "aname": "Spring Lake Equestrian Parking", "accessible": 0 }, "geometry": { "type": "Point", "coordinates": [ -88.220180404735842, 42.136123151211294 ] } },
{ "type": "Feature", "properties": { "activities_id": 1061, "atype": "equestrian parking", "trail_info_id": null, "parking_info_id": 297, "poi_info_id": 398, "aname": "Sag Valley Equestrian Parking", "accessible": 0 }, "geometry": { "type": "Point", "coordinates": [ -87.924020885483955, 41.650278968726901 ] } },
{ "type": "Feature", "properties": { "activities_id": 1062, "atype": "boat launch", "trail_info_id": null, "parking_info_id": 301, "poi_info_id": 146, "aname": "Beaubien Woods Boat Launch", "accessible": 0 }, "geometry": { "type": "Point", "coordinates": [ -87.590383883487462, 41.650108892542072 ] } },
{ "type": "Feature", "properties": { "activities_id": 1063, "atype": "boat launch", "trail_info_id": null, "parking_info_id": 34, "poi_info_id": 253, "aname": "Plank Road Meadow Boat Launch", "accessible": 0 }, "geometry": { "type": "Point", "coordinates": [ -87.831804436468857, 41.817872443947657 ] } },
{ "type": "Feature", "properties": { "activities_id": 1064, "atype": "boat launch", "trail_info_id": null, "parking_info_id": 290, "poi_info_id": 143, "aname": "Little Calumet Boat Launch", "accessible": 0 }, "geometry": { "type": "Point", "coordinates": [ -87.659934304837819, 41.651675508100887 ] } },
{ "type": "Feature", "properties": { "activities_id": 1066, "atype": "trailhead", "trail_info_id": 411, "parking_info_id": 198, "poi_info_id": 393, "aname": "Horizon Farm", "accessible": 0 }, "geometry": { "type": "Point", "coordinates": [ -88.187073132254497, 42.12886981054347 ] } },
{ "type": "Feature", "properties": { "activities_id": 1067, "atype": "trailhead", "trail_info_id": 2149, "parking_info_id": 186, "poi_info_id": 179, "aname": "Camp Reinberg", "accessible": 1 }, "geometry": { "type": "Point", "coordinates": [ -88.061977790534826, 42.141639069543743 ] } },
{ "type": "Feature", "properties": { "activities_id": 1069, "atype": "trailhead", "trail_info_id": 2732, "parking_info_id": 128, "poi_info_id": 221, "aname": "Schiller Woods-East", "accessible": 1 }, "geometry": { "type": "Point", "coordinates": [ -87.839015453851076, 41.958583270243025 ] } },
{ "type": "Feature", "properties": { "activities_id": 1070, "atype": "trailhead", "trail_info_id": 258, "parking_info_id": 46, "poi_info_id": 250, "aname": "Bemis Woods-South", "accessible": 1 }, "geometry": { "type": "Point", "coordinates": [ -87.905232070699896, 41.822308107343588 ] } },
{ "type": "Feature", "properties": { "activities_id": 1071, "atype": "trailhead", "trail_info_id": 2299, "parking_info_id": 336, "poi_info_id": 254, "aname": "Cermak Woods", "accessible": 1 }, "geometry": { "type": "Point", "coordinates": [ -87.812510049381942, 41.818126703151691 ] } },
{ "type": "Feature", "properties": { "activities_id": 1072, "atype": "trailhead", "trail_info_id": 615, "parking_info_id": 197, "poi_info_id": 347, "aname": "Spring Lake Equestrian Parking", "accessible": 0 }, "geometry": { "type": "Point", "coordinates": [ -88.219398951803029, 42.135819444275178 ] } },
{ "type": "Feature", "properties": { "activities_id": 1073, "atype": "trailhead", "trail_info_id": 91, "parking_info_id": 162, "poi_info_id": 339, "aname": "Lake Avenue Woods-East", "accessible": 0 }, "geometry": { "type": "Point", "coordinates": [ -87.883418738950184, 42.091063939574418 ] } },
{ "type": "Feature", "properties": { "activities_id": 1075, "atype": "fitness stairs", "trail_info_id": null, "parking_info_id": 60, "poi_info_id": 123, "aname": "Swallow Cliff Stairs", "accessible": 0 }, "geometry": { "type": "Point", "coordinates": [ -87.862742465334577, 41.680652601785297 ] } },
{ "type": "Feature", "properties": { "activities_id": 1079, "atype": "trailhead", "trail_info_id": 1275, "parking_info_id": 350, "poi_info_id": 1078, "aname": "Oak Forest Heritage Preserve-West", "accessible": 1 }, "geometry": { "type": "Point", "coordinates": [ -87.72847229898764, 41.597895906858618 ] } },
{ "type": "Feature", "properties": { "activities_id": 1083, "atype": "pavilion", "trail_info_id": null, "parking_info_id": 188, "poi_info_id": 81, "aname": "Rolling Knolls Pavilion", "accessible": 0 }, "geometry": { "type": "Point", "coordinates": [ -88.230724504269119, 42.035384889173791 ] } },
{ "type": "Feature", "properties": { "activities_id": 1084, "atype": "sledding", "trail_info_id": null, "parking_info_id": 188, "poi_info_id": 81, "aname": "Rolling Knolls Sledding Hill", "accessible": 0 }, "geometry": { "type": "Point", "coordinates": [ -88.231714484456305, 42.03574785063185 ] } },
{ "type": "Feature", "properties": { "activities_id": 1085, "atype": "trailhead", "trail_info_id": 2608, "parking_info_id": 229, "poi_info_id": 263, "aname": "Chicago Botanic Garden", "accessible": 0 }, "geometry": { "type": "Point", "coordinates": [ -87.78651574313345, 42.149600305970829 ] } },
{ "type": "Feature", "properties": { "activities_id": 1097, "atype": "model airplane flying field", "trail_info_id": null, "parking_info_id": 353, "poi_info_id": 1011, "aname": "Miller Meadow Model Airplane Flying Field", "accessible": 0 }, "geometry": { "type": "Point", "coordinates": [ -87.829298470623272, 41.851644419599729 ] } },
{ "type": "Feature", "properties": { "activities_id": 1098, "atype": "canoe landing", "trail_info_id": null, "parking_info_id": 8, "poi_info_id": 234, "aname": "Maywood Grove Canoe Landing", "accessible": 1 }, "geometry": { "type": "Point", "coordinates": [ -87.832589204164307, 41.888660321374651 ] } },
{ "type": "Feature", "properties": { "activities_id": 1099, "atype": "recreational waterbody", "trail_info_id": null, "parking_info_id": 350, "poi_info_id": 1078, "aname": "Pogie Lake", "accessible": 1 }, "geometry": { "type": "Point", "coordinates": [ -87.72540348826945, 41.598532626704419 ] } },
{ "type": "Feature", "properties": { "activities_id": 1144, "atype": "fitness stairs", "trail_info_id": null, "parking_info_id": 137, "poi_info_id": 313, "aname": "Dan Ryan Stairs", "accessible": 0 }, "geometry": { "type": "Point", "coordinates": [ -87.679574051413184, 41.73626024566915 ] } },
{ "type": "Feature", "properties": { "activities_id": 1145, "atype": "trailhead", "trail_info_id": 3073, "parking_info_id": 27, "poi_info_id": 232, "aname": "Thatcher Woods", "accessible": 0 }, "geometry": { "type": "Point", "coordinates": [ -87.828580830032152, 41.897395332113668 ] } },
{ "type": "Feature", "properties": { "activities_id": 1148, "atype": "trailhead", "trail_info_id": 2690, "parking_info_id": 320, "poi_info_id": 55, "aname": "Hidden Pond Woods-East", "accessible": 0 }, "geometry": { "type": "Point", "coordinates": [ -87.849336320660584, 41.721150663521023 ] } },
{ "type": "Feature", "properties": { "activities_id": 1151, "atype": "trailhead", "trail_info_id": 3112, "parking_info_id": 91, "poi_info_id": 152, "aname": "Clayhole Woods", "accessible": 0 }, "geometry": { "type": "Point", "coordinates": [ -87.558891704125301, 41.603929251502009 ] } },
{ "type": "Feature", "properties": { "activities_id": 1152, "atype": "trailhead", "trail_info_id": 3112, "parking_info_id": 93, "poi_info_id": 153, "aname": "Green Lake Woods", "accessible": 0 }, "geometry": { "type": "Point", "coordinates": [ -87.558910523425837, 41.606296745490283 ] } },
{ "type": "Feature", "properties": { "activities_id": 1162, "atype": "trailhead", "trail_info_id": 1488, "parking_info_id": 166, "poi_info_id": 185, "aname": "Busse Forest Elk Pasture Trailhead", "accessible": 0 }, "geometry": { "type": "Point", "coordinates": [ -87.98689742498162, 42.031190658464858 ] } },
{ "type": "Feature", "properties": { "activities_id": 1163, "atype": "canoe landing", "trail_info_id": null, "parking_info_id": 313, "poi_info_id": 189, "aname": "Busse Lake Boating Center Accessible Canoe Landing", "accessible": 1 }, "geometry": { "type": "Point", "coordinates": [ -88.015902, 42.024431 ] } },
{ "type": "Feature", "properties": { "activities_id": 1164, "atype": "canoe landing", "trail_info_id": null, "parking_info_id": 334, "poi_info_id": 100, "aname": "Camp Bullfrog Lake Accessible Canoe Landing", "accessible": 1 }, "geometry": { "type": "Point", "coordinates": [ -87.901663, 41.709986 ] } },
{ "type": "Feature", "properties": { "activities_id": 1165, "atype": "accessible fishing", "trail_info_id": null, "parking_info_id": 334, "poi_info_id": 100, "aname": "Camp Bullfrog Lake Accessible Fishing Area", "accessible": 1 }, "geometry": { "type": "Point", "coordinates": [ -87.902, 41.708551 ] } },
{ "type": "Feature", "properties": { "activities_id": 1166, "atype": "accessible fishing", "trail_info_id": null, "parking_info_id": 321, "poi_info_id": 147, "aname": "Beaubien Woods Accessible Fishing Area", "accessible": 1 }, "geometry": { "type": "Point", "coordinates": [ -87.584098, 41.649638 ] } },
{ "type": "Feature", "properties": { "activities_id": 1167, "atype": "accessible fishing", "trail_info_id": null, "parking_info_id": 144, "poi_info_id": 187, "aname": "Busse Lake Beisner Road Access Accessible Fishing Area", "accessible": 1 }, "geometry": { "type": "Point", "coordinates": [ -88.012273, 42.01888 ] } },
{ "type": "Feature", "properties": { "activities_id": 1168, "atype": "accessible fishing", "trail_info_id": null, "parking_info_id": 314, "poi_info_id": 190, "aname": "Busse Forest-West Accessible Fishing Area", "accessible": 1 }, "geometry": { "type": "Point", "coordinates": [ -88.014456, 42.034313 ] } },
{ "type": "Feature", "properties": { "activities_id": 1169, "atype": "accessible fishing", "trail_info_id": null, "parking_info_id": 145, "poi_info_id": 186, "aname": "Busse Forest Main Dam Accessible Fishing Area", "accessible": 1 }, "geometry": { "type": "Point", "coordinates": [ -87.999933, 42.019003 ] } },
{ "type": "Feature", "properties": { "activities_id": 1170, "atype": "accessible fishing", "trail_info_id": null, "parking_info_id": 177, "poi_info_id": 378, "aname": "Maple Lake Boating Center Accessible Fishing Area", "accessible": 1 }, "geometry": { "type": "Point", "coordinates": [ -87.89438, 41.712821 ] } },
{ "type": "Feature", "properties": { "activities_id": 1171, "atype": "accessible fishing", "trail_info_id": null, "parking_info_id": 350, "poi_info_id": 1078, "aname": "Oak Forest Heritage Preserve-West Accessible Fishing Area", "accessible": 1 }, "geometry": { "type": "Point", "coordinates": [ -87.727391, 41.598666 ] } },
{ "type": "Feature", "properties": { "activities_id": 1172, "atype": "accessible fishing", "trail_info_id": null, "parking_info_id": 256, "poi_info_id": 323, "aname": "Saganashkee Slough-East Accessible Fishing Area", "accessible": 1 }, "geometry": { "type": "Point", "coordinates": [ -87.875184, 41.689513 ] } },
{ "type": "Feature", "properties": { "activities_id": 1173, "atype": "accessible fishing", "trail_info_id": null, "parking_info_id": 233, "poi_info_id": 267, "aname": "Tower Road Boat Launch Accessible Fishing Area", "accessible": 1 }, "geometry": { "type": "Point", "coordinates": [ -87.77488, 42.113807 ] } }
]
}
