{
"type": "FeatureCollection",
"name": "sql_statement",
"crs": { "type": "name", "properties": { "name": "urn:ogc:def:crs:OGC:1.3:CRS84" } },
"features": [
{ "type": "Feature", "properties": { "activities_id": 1, "atype": "recreational waterbody", "trail_info_id": null, "parking_info_id": 106, "poi_info_id": 169, "aname": "Sauk Lake" }, "geometry": { "type": "Point", "coordinates": [ -87.655504222432455, 41.487616864327798 ] } },
{ "type": "Feature", "properties": { "activities_id": 4, "atype": "bicycle rental", "trail_info_id": null, "parking_info_id": 229, "poi_info_id": 263, "aname": "Chicago Botanic Garden Bike Rental" }, "geometry": { "type": "Point", "coordinates": [ -87.788647173106142, 42.148953622613845 ] } },
{ "type": "Feature", "properties": { "activities_id": 5, "atype": "bicycle rental", "trail_info_id": null, "parking_info_id": 233, "poi_info_id": 267, "aname": "Tower Road Bike Rental" }, "geometry": { "type": "Point", "coordinates": [ -87.775742329774957, 42.115452052521881 ] } },
{ "type": "Feature", "properties": { "activities_id": 7, "atype": "bicycle rental", "trail_info_id": null, "parking_info_id": 14, "poi_info_id": 269, "aname": "Blue Star Memorial Woods Bike Rental" }, "geometry": { "type": "Point", "coordinates": [ -87.776054941052976, 42.079070471431365 ] } },
{ "type": "Feature", "properties": { "activities_id": 8, "atype": "bicycle rental", "trail_info_id": null, "parking_info_id": 295, "poi_info_id": 280, "aname": "Miami Woods Bike Rental" }, "geometry": { "type": "Point", "coordinates": [ -87.795319201840883, 42.029990454401791 ] } },
{ "type": "Feature", "properties": { "activities_id": 12, "atype": "golf course", "trail_info_id": null, "parking_info_id": 280, "poi_info_id": 12, "aname": "George W. Dunne National Golf Course" }, "geometry": { "type": "Point", "coordinates": [ -87.763858206922208, 41.60014906395206 ] } },
{ "type": "Feature", "properties": { "activities_id": 14, "atype": "recreational waterbody", "trail_info_id": null, "parking_info_id": 321, "poi_info_id": 147, "aname": "Flatfoot Lake" }, "geometry": { "type": "Point", "coordinates": [ -87.585007379810463, 41.650506246359718 ] } },
{ "type": "Feature", "properties": { "activities_id": 15, "atype": "aquatic center", "trail_info_id": null, "parking_info_id": 90, "poi_info_id": 15, "aname": "Green Lake Family Aquatic Center" }, "geometry": { "type": "Point", "coordinates": [ -87.553421074799999, 41.602640437124194 ] } },
{ "type": "Feature", "properties": { "activities_id": 24, "atype": "recreational waterbody", "trail_info_id": null, "parking_info_id": 157, "poi_info_id": 180, "aname": "Deer Grove Lake" }, "geometry": { "type": "Point", "coordinates": [ -88.070405147331357, 42.145606271839362 ] } },
{ "type": "Feature", "properties": { "activities_id": 32, "atype": "recreational waterbody", "trail_info_id": null, "parking_info_id": 158, "poi_info_id": 206, "aname": "Potawatomi Pond" }, "geometry": { "type": "Point", "coordinates": [ -87.902217407701045, 42.144263698026236 ] } },
{ "type": "Feature", "properties": { "activities_id": 33, "atype": "recreational waterbody", "trail_info_id": null, "parking_info_id": 233, "poi_info_id": 267, "aname": "Skokie Lagoons" }, "geometry": { "type": "Point", "coordinates": [ -87.769216190825432, 42.118737148619473 ] } },
{ "type": "Feature", "properties": { "activities_id": 36, "atype": "recreational waterbody", "trail_info_id": null, "parking_info_id": 128, "poi_info_id": 221, "aname": "Schiller Pond" }, "geometry": { "type": "Point", "coordinates": [ -87.839455806769593, 41.957044553984531 ] } },
{ "type": "Feature", "properties": { "activities_id": 41, "atype": "special activity", "trail_info_id": null, "parking_info_id": 337, "poi_info_id": 41, "aname": "Brookfield Zoo" }, "geometry": { "type": "Point", "coordinates": [ -87.835996480003729, 41.832852058401791 ] } },
{ "type": "Feature", "properties": { "activities_id": 44, "atype": "aquatic center", "trail_info_id": null, "parking_info_id": 336, "poi_info_id": 44, "aname": "Cermak Family Aquatic Center" }, "geometry": { "type": "Point", "coordinates": [ -87.811777138153261, 41.818976694110297 ] } },
{ "type": "Feature", "properties": { "activities_id": 45, "atype": "recreational waterbody", "trail_info_id": null, "parking_info_id": 336, "poi_info_id": 254, "aname": "Cermak Quarry" }, "geometry": { "type": "Point", "coordinates": [ -87.813514084513159, 41.818941263430524 ] } },
{ "type": "Feature", "properties": { "activities_id": 51, "atype": "golf course", "trail_info_id": null, "parking_info_id": 242, "poi_info_id": 51, "aname": "Edgebrook Golf Course" }, "geometry": { "type": "Point", "coordinates": [ -87.770513013041537, 41.992960158820026 ] } },
{ "type": "Feature", "properties": { "activities_id": 54, "atype": "recreational waterbody", "trail_info_id": null, "parking_info_id": 81, "poi_info_id": 290, "aname": "Ida Lake" }, "geometry": { "type": "Point", "coordinates": [ -87.870962290178554, 41.770720883501241 ] } },
{ "type": "Feature", "properties": { "activities_id": 66, "atype": "recreational waterbody", "trail_info_id": null, "parking_info_id": 313, "poi_info_id": 189, "aname": "Busse Lake North Pool" }, "geometry": { "type": "Point", "coordinates": [ -88.023885275043639, 42.031647621252873 ] } },
{ "type": "Feature", "properties": { "activities_id": 69, "atype": "recreational waterbody", "trail_info_id": null, "parking_info_id": 313, "poi_info_id": 189, "aname": "Busse Lake South Pool" }, "geometry": { "type": "Point", "coordinates": [ -88.021308952903254, 42.023241045745941 ] } },
{ "type": "Feature", "properties": { "activities_id": 72, "atype": "recreational waterbody", "trail_info_id": null, "parking_info_id": 313, "poi_info_id": 189, "aname": "Busse Lake Main Pool" }, "geometry": { "type": "Point", "coordinates": [ -88.012255745475343, 42.027363261446077 ] } },
{ "type": "Feature", "properties": { "activities_id": 73, "atype": "recreational waterbody", "trail_info_id": null, "parking_info_id": 90, "poi_info_id": 153, "aname": "Green Lake" }, "geometry": { "type": "Point", "coordinates": [ -87.554911120642316, 41.601555031344859 ] } },
{ "type": "Feature", "properties": { "activities_id": 94, "atype": "recreational waterbody", "trail_info_id": null, "parking_info_id": 177, "poi_info_id": 378, "aname": "Maple Lake" }, "geometry": { "type": "Point", "coordinates": [ -87.890791740599155, 41.714527695396022 ] } },
{ "type": "Feature", "properties": { "activities_id": 98, "atype": "boat launch", "trail_info_id": null, "parking_info_id": 147, "poi_info_id": 364, "aname": "Big Bend Lake Boat Launch" }, "geometry": { "type": "Point", "coordinates": [ -87.874992051402643, 42.052928555583463 ] } },
{ "type": "Feature", "properties": { "activities_id": 100, "atype": "camp", "trail_info_id": null, "parking_info_id": 334, "poi_info_id": 100, "aname": "Camp Bullfrog Lake" }, "geometry": { "type": "Point", "coordinates": [ -87.903191507066396, 41.709121919371434 ] } },
{ "type": "Feature", "properties": { "activities_id": 104, "atype": "bicycle rental", "trail_info_id": null, "parking_info_id": 119, "poi_info_id": 283, "aname": "Caldwell Woods Bike Rental" }, "geometry": { "type": "Point", "coordinates": [ -87.787106368794753, 41.998253997061639 ] } },
{ "type": "Feature", "properties": { "activities_id": 113, "atype": "camp", "trail_info_id": null, "parking_info_id": 92, "poi_info_id": 113, "aname": "Camp Shabbona Woods" }, "geometry": { "type": "Point", "coordinates": [ -87.563037210153055, 41.605377793893012 ] } },
{ "type": "Feature", "properties": { "activities_id": 136, "atype": "camp", "trail_info_id": null, "parking_info_id": 181, "poi_info_id": 136, "aname": "Camp Sullivan" }, "geometry": { "type": "Point", "coordinates": [ -87.787539904059798, 41.625471123881709 ] } },
{ "type": "Feature", "properties": { "activities_id": 142, "atype": "golf course", "trail_info_id": null, "parking_info_id": 266, "poi_info_id": 142, "aname": "Joe Louis \"The Champ\" Golf Course" }, "geometry": { "type": "Point", "coordinates": [ -87.644094114080531, 41.65371291286246 ] } },
{ "type": "Feature", "properties": { "activities_id": 148, "atype": "golf course", "trail_info_id": null, "parking_info_id": 299, "poi_info_id": 148, "aname": "Burnham Woods Golf Course" }, "geometry": { "type": "Point", "coordinates": [ -87.534933324842513, 41.635699412455843 ] } },
{ "type": "Feature", "properties": { "activities_id": 150, "atype": "nature center", "trail_info_id": 3093, "parking_info_id": 303, "poi_info_id": 150, "aname": "Sand Ridge Nature Center" }, "geometry": { "type": "Point", "coordinates": [ -87.565749456206674, 41.605933010545918 ] } },
{ "type": "Feature", "properties": { "activities_id": 156, "atype": "golf course", "trail_info_id": null, "parking_info_id": 304, "poi_info_id": 156, "aname": "River Oaks Golf Course" }, "geometry": { "type": "Point", "coordinates": [ -87.575727638690438, 41.599191687736692 ] } },
{ "type": "Feature", "properties": { "activities_id": 179, "atype": "camp", "trail_info_id": null, "parking_info_id": 186, "poi_info_id": 179, "aname": "Camp Reinberg" }, "geometry": { "type": "Point", "coordinates": [ -88.06152827608507, 42.142533141866856 ] } },
{ "type": "Feature", "properties": { "activities_id": 182, "atype": "golf course", "trail_info_id": null, "parking_info_id": 208, "poi_info_id": 182, "aname": "Highland Woods Golf Course" }, "geometry": { "type": "Point", "coordinates": [ -88.082943159619688, 42.074728525977029 ] } },
{ "type": "Feature", "properties": { "activities_id": 192, "atype": "camp", "trail_info_id": null, "parking_info_id": 171, "poi_info_id": 192, "aname": "Camp Dan Beard" }, "geometry": { "type": "Point", "coordinates": [ -87.897778764152093, 42.150276702837296 ] } },
{ "type": "Feature", "properties": { "activities_id": 225, "atype": "golf course", "trail_info_id": null, "parking_info_id": 225, "poi_info_id": 225, "aname": "Indian Boundary Golf Course" }, "geometry": { "type": "Point", "coordinates": [ -87.843936152409583, 41.941693169462283 ] } },
{ "type": "Feature", "properties": { "activities_id": 233, "atype": "nature center", "trail_info_id": 2860, "parking_info_id": 172, "poi_info_id": 233, "aname": "Trailside Museum of Natural History" }, "geometry": { "type": "Point", "coordinates": [ -87.826305459421278, 41.893245350073919 ] } },
{ "type": "Feature", "properties": { "activities_id": 252, "atype": "golf course", "trail_info_id": null, "parking_info_id": 249, "poi_info_id": 252, "aname": "Meadowlark Golf Course" }, "geometry": { "type": "Point", "coordinates": [ -87.911161031963331, 41.832482847608098 ] } },
{ "type": "Feature", "properties": { "activities_id": 263, "atype": "special activity", "trail_info_id": null, "parking_info_id": 229, "poi_info_id": 263, "aname": "Chicago Botanic Garden" }, "geometry": { "type": "Point", "coordinates": [ -87.78844286452275, 42.15033338314938 ] } },
{ "type": "Feature", "properties": { "activities_id": 276, "atype": "golf course", "trail_info_id": null, "parking_info_id": 239, "poi_info_id": 276, "aname": "Chick Evans Golf Course" }, "geometry": { "type": "Point", "coordinates": [ -87.779076493441409, 42.054023715868709 ] } },
{ "type": "Feature", "properties": { "activities_id": 284, "atype": "aquatic center", "trail_info_id": null, "parking_info_id": 241, "poi_info_id": 284, "aname": "Whealan Pool Aquatic Center" }, "geometry": { "type": "Point", "coordinates": [ -87.782868064520088, 41.997888266725838 ] } },
{ "type": "Feature", "properties": { "activities_id": 286, "atype": "golf course", "trail_info_id": null, "parking_info_id": 243, "poi_info_id": 286, "aname": "Billy Caldwell Golf Course" }, "geometry": { "type": "Point", "coordinates": [ -87.759677322401146, 41.990176184025195 ] } },
{ "type": "Feature", "properties": { "activities_id": 319, "atype": "nature center", "trail_info_id": 3042, "parking_info_id": 190, "poi_info_id": 319, "aname": "Little Red Schoolhouse Nature Center" }, "geometry": { "type": "Point", "coordinates": [ -87.877152722581641, 41.708967426473876 ] } },
{ "type": "Feature", "properties": { "activities_id": 334, "atype": "nature center", "trail_info_id": 2951, "parking_info_id": 267, "poi_info_id": 334, "aname": "Sagawau Environmental Learning Center" }, "geometry": { "type": "Point", "coordinates": [ -87.925714269680029, 41.689266770203091 ] } },
{ "type": "Feature", "properties": { "activities_id": 338, "atype": "nature center", "trail_info_id": 2979, "parking_info_id": 195, "poi_info_id": 338, "aname": "River Trail Nature Center" }, "geometry": { "type": "Point", "coordinates": [ -87.884845280394316, 42.095011049216204 ] } },
{ "type": "Feature", "properties": { "activities_id": 344, "atype": "golf driving range", "trail_info_id": null, "parking_info_id": 194, "poi_info_id": 344, "aname": "Harry H. Semrow Driving Range" }, "geometry": { "type": "Point", "coordinates": [ -87.896735961653732, 42.055475106574448 ] } },
{ "type": "Feature", "properties": { "activities_id": 348, "atype": "nature center", "trail_info_id": 2905, "parking_info_id": 199, "poi_info_id": 348, "aname": "Crabtree Nature Center" }, "geometry": { "type": "Point", "coordinates": [ -88.163575110288818, 42.115633693685147 ] } },
{ "type": "Feature", "properties": { "activities_id": 395, "atype": "headquarters", "trail_info_id": null, "parking_info_id": 26, "poi_info_id": 395, "aname": "General Headquarters & Permit Office" }, "geometry": { "type": "Point", "coordinates": [ -87.805678313721998, 41.889506531223866 ] } },
{ "type": "Feature", "properties": { "activities_id": 397, "atype": "volunteer center", "trail_info_id": null, "parking_info_id": 242, "poi_info_id": 397, "aname": "Mathew Bieszczat Volunteer Resource Center" }, "geometry": { "type": "Point", "coordinates": [ -87.768625980876763, 41.992010958612617 ] } },
{ "type": "Feature", "properties": { "activities_id": 802, "atype": "trailhead", "trail_info_id": 1175, "parking_info_id": 61, "poi_info_id": 112, "aname": "Teason's Woods" }, "geometry": { "type": "Point", "coordinates": [ -87.874416348893803, 41.684201053770018 ] } },
{ "type": "Feature", "properties": { "activities_id": 803, "atype": "trailhead", "trail_info_id": 305, "parking_info_id": 14, "poi_info_id": 269, "aname": "Blue Star Memorial Woods" }, "geometry": { "type": "Point", "coordinates": [ -87.776034902537091, 42.079236761519276 ] } },
{ "type": "Feature", "properties": { "activities_id": 804, "atype": "trailhead", "trail_info_id": 760, "parking_info_id": 67, "poi_info_id": 299, "aname": "Country Lane Woods" }, "geometry": { "type": "Point", "coordinates": [ -87.866161608526767, 41.71650897613673 ] } },
{ "type": "Feature", "properties": { "activities_id": 805, "atype": "trailhead", "trail_info_id": 2200, "parking_info_id": 94, "poi_info_id": 265, "aname": "Forest Way Grove" }, "geometry": { "type": "Point", "coordinates": [ -87.774438651267573, 42.128732514087289 ] } },
{ "type": "Feature", "properties": { "activities_id": 806, "atype": "trailhead", "trail_info_id": 2068, "parking_info_id": 313, "poi_info_id": 189, "aname": "Busse Lake Boating Center" }, "geometry": { "type": "Point", "coordinates": [ -88.018294827585137, 42.024770347733181 ] } },
{ "type": "Feature", "properties": { "activities_id": 808, "atype": "warming shelter", "trail_info_id": null, "parking_info_id": 119, "poi_info_id": 283, "aname": "Caldwell Woods Warming Shelter" }, "geometry": { "type": "Point", "coordinates": [ -87.786349428576244, 41.997838180837498 ] } },
{ "type": "Feature", "properties": { "activities_id": 809, "atype": "sledding", "trail_info_id": null, "parking_info_id": 119, "poi_info_id": 283, "aname": "Caldwell Woods Sledding Hill" }, "geometry": { "type": "Point", "coordinates": [ -87.785671670092682, 41.997925171930746 ] } },
{ "type": "Feature", "properties": { "activities_id": 810, "atype": "trailhead", "trail_info_id": 178, "parking_info_id": 96, "poi_info_id": 272, "aname": "Harms Woods-Central" }, "geometry": { "type": "Point", "coordinates": [ -87.770933869341718, 42.060126897924448 ] } },
{ "type": "Feature", "properties": { "activities_id": 811, "atype": "trailhead", "trail_info_id": 1212, "parking_info_id": 99, "poi_info_id": 268, "aname": "Erickson Woods" }, "geometry": { "type": "Point", "coordinates": [ -87.764886313118168, 42.102121891249148 ] } },
{ "type": "Feature", "properties": { "activities_id": 812, "atype": "trailhead", "trail_info_id": 2114, "parking_info_id": 211, "poi_info_id": 200, "aname": "Great Egret Family Picnic Area" }, "geometry": { "type": "Point", "coordinates": [ -88.191511370578255, 42.061529757293989 ] } },
{ "type": "Feature", "properties": { "activities_id": 813, "atype": "trailhead", "trail_info_id": 2696, "parking_info_id": 312, "poi_info_id": 31, "aname": "Busse Forest-South" }, "geometry": { "type": "Point", "coordinates": [ -87.992443712280789, 42.02609997702347 ] } },
{ "type": "Feature", "properties": { "activities_id": 814, "atype": "trailhead", "trail_info_id": 2085, "parking_info_id": 315, "poi_info_id": 191, "aname": "Busse Forest-Central" }, "geometry": { "type": "Point", "coordinates": [ -88.007475603494854, 42.031477528645553 ] } },
{ "type": "Feature", "properties": { "activities_id": 815, "atype": "trailhead", "trail_info_id": 2090, "parking_info_id": 314, "poi_info_id": 190, "aname": "Busse Forest-West" }, "geometry": { "type": "Point", "coordinates": [ -88.014406590458918, 42.032760089790536 ] } },
{ "type": "Feature", "properties": { "activities_id": 816, "atype": "trailhead", "trail_info_id": 2670, "parking_info_id": 98, "poi_info_id": 273, "aname": "Harms Woods-South" }, "geometry": { "type": "Point", "coordinates": [ -87.768368457668743, 42.058634491334651 ] } },
{ "type": "Feature", "properties": { "activities_id": 817, "atype": "trailhead", "trail_info_id": 2605, "parking_info_id": 59, "poi_info_id": 122, "aname": "Palos Park Woods-North" }, "geometry": { "type": "Point", "coordinates": [ -87.843275275373983, 41.681018464984156 ] } },
{ "type": "Feature", "properties": { "activities_id": 818, "atype": "dog park", "trail_info_id": null, "parking_info_id": 219, "poi_info_id": 343, "aname": "Beck Lake Dog Park" }, "geometry": { "type": "Point", "coordinates": [ -87.868113241027274, 42.069276811027457 ] } },
{ "type": "Feature", "properties": { "activities_id": 819, "atype": "trailhead", "trail_info_id": 576, "parking_info_id": 122, "poi_info_id": 288, "aname": "Forest Glen Woods" }, "geometry": { "type": "Point", "coordinates": [ -87.755739468245849, 41.98136613547041 ] } },
{ "type": "Feature", "properties": { "activities_id": 820, "atype": "snowmobiling", "trail_info_id": null, "parking_info_id": 143, "poi_info_id": 29, "aname": "Ned Brown Snowmobiling" }, "geometry": { "type": "Point", "coordinates": [ -88.024509, 42.046054 ] } },
{ "type": "Feature", "properties": { "activities_id": 821, "atype": "boat rental", "trail_info_id": null, "parking_info_id": 178, "poi_info_id": 100, "aname": "Camp Bullfrog Lake Boat Rental" }, "geometry": { "type": "Point", "coordinates": [ -87.901755, 41.71031 ] } },
{ "type": "Feature", "properties": { "activities_id": 822, "atype": "trailhead", "trail_info_id": 127, "parking_info_id": 123, "poi_info_id": 375, "aname": "Irene C. Hernandez" }, "geometry": { "type": "Point", "coordinates": [ -87.737987, 41.975591 ] } },
{ "type": "Feature", "properties": { "activities_id": 823, "atype": "trailhead", "trail_info_id": 226, "parking_info_id": null, "poi_info_id": 56, "aname": "Future LaBagh Woods" }, "geometry": null },
{ "type": "Feature", "properties": { "activities_id": 824, "atype": "pavilion", "trail_info_id": null, "parking_info_id": 27, "poi_info_id": 232, "aname": "Thatcher Woods Pavilion" }, "geometry": { "type": "Point", "coordinates": [ -87.829553147433614, 41.897315821306798 ] } },
{ "type": "Feature", "properties": { "activities_id": 825, "atype": "trailhead", "trail_info_id": 1069, "parking_info_id": 213, "poi_info_id": 196, "aname": "Bode Lake" }, "geometry": { "type": "Point", "coordinates": [ -88.168891406453767, 42.039791634562938 ] } },
{ "type": "Feature", "properties": { "activities_id": 826, "atype": "dog park", "trail_info_id": null, "parking_info_id": 7, "poi_info_id": 237, "aname": "Miller Meadow Dog Park" }, "geometry": { "type": "Point", "coordinates": [ -87.830498863811385, 41.854809718627479 ] } },
{ "type": "Feature", "properties": { "activities_id": 828, "atype": "trailhead", "trail_info_id": 1355, "parking_info_id": 104, "poi_info_id": 170, "aname": "Sauk Trail Woods-South" }, "geometry": { "type": "Point", "coordinates": [ -87.651418022361156, 41.484615328488871 ] } },
{ "type": "Feature", "properties": { "activities_id": 829, "atype": "trailhead", "trail_info_id": 1264, "parking_info_id": 107, "poi_info_id": 168, "aname": "Sauk Trail Woods-Central" }, "geometry": { "type": "Point", "coordinates": [ -87.65128968771613, 41.485977253690677 ] } },
{ "type": "Feature", "properties": { "activities_id": 830, "atype": "trailhead", "trail_info_id": 410, "parking_info_id": 105, "poi_info_id": 167, "aname": "Sauk Trail Woods-East" }, "geometry": { "type": "Point", "coordinates": [ -87.647567679215797, 41.48802297406862 ] } },
{ "type": "Feature", "properties": { "activities_id": 832, "atype": "trailhead", "trail_info_id": 27, "parking_info_id": 159, "poi_info_id": 317, "aname": "Dam No. 1 Woods-East" }, "geometry": { "type": "Point", "coordinates": [ -87.893812918293548, 42.121636555072811 ] } },
{ "type": "Feature", "properties": { "activities_id": 834, "atype": "boat rental", "trail_info_id": null, "parking_info_id": 232, "poi_info_id": 266, "aname": "Tower Road Kayak\/Canoe Rental" }, "geometry": { "type": "Point", "coordinates": [ -87.771346975765411, 42.115707699188079 ] } },
{ "type": "Feature", "properties": { "activities_id": 835, "atype": "trailhead", "trail_info_id": 117, "parking_info_id": 161, "poi_info_id": 337, "aname": "Allison Woods" }, "geometry": { "type": "Point", "coordinates": [ -87.885398689662793, 42.100756291718731 ] } },
{ "type": "Feature", "properties": { "activities_id": 836, "atype": "dog park", "trail_info_id": null, "parking_info_id": 164, "poi_info_id": 138, "aname": "Bremen Grove Dog Park" }, "geometry": { "type": "Point", "coordinates": [ -87.78279461655616, 41.598017001294032 ] } },
{ "type": "Feature", "properties": { "activities_id": 837, "atype": "trailhead", "trail_info_id": 555, "parking_info_id": 163, "poi_info_id": 261, "aname": "Somme Woods" }, "geometry": { "type": "Point", "coordinates": [ -87.822088979387047, 42.138369810802466 ] } },
{ "type": "Feature", "properties": { "activities_id": 838, "atype": "trailhead", "trail_info_id": 2183, "parking_info_id": 108, "poi_info_id": 160, "aname": "Glenwood Woods-North" }, "geometry": { "type": "Point", "coordinates": [ -87.621825982816702, 41.548126274343105 ] } },
{ "type": "Feature", "properties": { "activities_id": 839, "atype": "trailhead", "trail_info_id": 31, "parking_info_id": 158, "poi_info_id": 206, "aname": "Potawatomi Woods" }, "geometry": { "type": "Point", "coordinates": [ -87.903235842600722, 42.141204652179944 ] } },
{ "type": "Feature", "properties": { "activities_id": 840, "atype": "trailhead", "trail_info_id": 1388, "parking_info_id": 333, "poi_info_id": 35, "aname": "Bode East" }, "geometry": { "type": "Point", "coordinates": [ -88.150436897669067, 42.039514323824335 ] } },
{ "type": "Feature", "properties": { "activities_id": 841, "atype": "trailhead", "trail_info_id": 2635, "parking_info_id": 176, "poi_info_id": 328, "aname": "Pulaski Woods-South" }, "geometry": { "type": "Point", "coordinates": [ -87.893623768258436, 41.707570028249904 ] } },
{ "type": "Feature", "properties": { "activities_id": 842, "atype": "trailhead", "trail_info_id": 1752, "parking_info_id": 182, "poi_info_id": 133, "aname": "Goeselville Grove Family Picnic Area" }, "geometry": { "type": "Point", "coordinates": [ -87.777705194430553, 41.629428070441669 ] } },
{ "type": "Feature", "properties": { "activities_id": 843, "atype": "trailhead", "trail_info_id": 1919, "parking_info_id": 177, "poi_info_id": 378, "aname": "Maple Lake Boating Center" }, "geometry": { "type": "Point", "coordinates": [ -87.891023209874035, 41.711824688631665 ] } },
{ "type": "Feature", "properties": { "activities_id": 845, "atype": "trailhead", "trail_info_id": 1914, "parking_info_id": 142, "poi_info_id": 282, "aname": "Bunker Hill" }, "geometry": { "type": "Point", "coordinates": [ -87.784198649533295, 42.001552045334506 ] } },
{ "type": "Feature", "properties": { "activities_id": 846, "atype": "trailhead", "trail_info_id": 541, "parking_info_id": 7, "poi_info_id": 237, "aname": "Miller Meadow-South" }, "geometry": { "type": "Point", "coordinates": [ -87.831567571295551, 41.853450220887886 ] } },
{ "type": "Feature", "properties": { "activities_id": 847, "atype": "trailhead", "trail_info_id": 1107, "parking_info_id": 196, "poi_info_id": 161, "aname": "Glenwood Woods-South" }, "geometry": { "type": "Point", "coordinates": [ -87.619566632727654, 41.547539201622676 ] } },
{ "type": "Feature", "properties": { "activities_id": 848, "atype": "pavilion", "trail_info_id": null, "parking_info_id": 137, "poi_info_id": 313, "aname": "Dan Ryan Woods Pavilion" }, "geometry": { "type": "Point", "coordinates": [ -87.679502221845794, 41.737142246722982 ] } },
{ "type": "Feature", "properties": { "activities_id": 849, "atype": "trailhead", "trail_info_id": 1733, "parking_info_id": 87, "poi_info_id": 129, "aname": "Cooper's Hawk Family Picnic Area" }, "geometry": { "type": "Point", "coordinates": [ -87.770586956204099, 41.645349203049186 ] } },
{ "type": "Feature", "properties": { "activities_id": 850, "atype": "equestrian center", "trail_info_id": null, "parking_info_id": 238, "poi_info_id": 274, "aname": "Glen Grove Equestrian Center" }, "geometry": { "type": "Point", "coordinates": [ -87.765215444942896, 42.054597908180511 ] } },
{ "type": "Feature", "properties": { "activities_id": 851, "atype": "trailhead", "trail_info_id": 178, "parking_info_id": 97, "poi_info_id": 271, "aname": "Harms Woods-North" }, "geometry": { "type": "Point", "coordinates": [ -87.770732773178878, 42.061895703965206 ] } },
{ "type": "Feature", "properties": { "activities_id": 852, "atype": "trailhead", "trail_info_id": 76, "parking_info_id": 130, "poi_info_id": 219, "aname": "Schiller Woods-South" }, "geometry": { "type": "Point", "coordinates": [ -87.853731900740655, 41.951131932225863 ] } },
{ "type": "Feature", "properties": { "activities_id": 853, "atype": "trailhead", "trail_info_id": 2367, "parking_info_id": 64, "poi_info_id": 293, "aname": "Buffalo Woods-Central" }, "geometry": { "type": "Point", "coordinates": [ -87.850562331179532, 41.735437735400438 ] } },
{ "type": "Feature", "properties": { "activities_id": 854, "atype": "trailhead", "trail_info_id": 2367, "parking_info_id": 65, "poi_info_id": 294, "aname": "Buffalo Woods-South" }, "geometry": { "type": "Point", "coordinates": [ -87.848179223780576, 41.7342985231585 ] } },
{ "type": "Feature", "properties": { "activities_id": 855, "atype": "trailhead", "trail_info_id": 1799, "parking_info_id": 255, "poi_info_id": 304, "aname": "Dan McMahon Woods" }, "geometry": { "type": "Point", "coordinates": [ -87.86544431261477, 41.695800624610968 ] } },
{ "type": "Feature", "properties": { "activities_id": 857, "atype": "trailhead", "trail_info_id": 2354, "parking_info_id": 192, "poi_info_id": 58, "aname": "Camp Kiwanis Equestrian Staging Area" }, "geometry": { "type": "Point", "coordinates": [ -87.873848236434412, 41.708283208824049 ] } },
{ "type": "Feature", "properties": { "activities_id": 858, "atype": "trailhead", "trail_info_id": 1738, "parking_info_id": 259, "poi_info_id": 327, "aname": "Henry De Tonty Woods" }, "geometry": { "type": "Point", "coordinates": [ -87.913606664034916, 41.713887038876997 ] } },
{ "type": "Feature", "properties": { "activities_id": 859, "atype": "trailhead", "trail_info_id": 726, "parking_info_id": 289, "poi_info_id": 145, "aname": "Kickapoo Woods" }, "geometry": { "type": "Point", "coordinates": [ -87.645723197352837, 41.630181913005337 ] } },
{ "type": "Feature", "properties": { "activities_id": 860, "atype": "trailhead", "trail_info_id": 369, "parking_info_id": 293, "poi_info_id": 277, "aname": "Linne Woods" }, "geometry": { "type": "Point", "coordinates": [ -87.78581069337001, 42.041794460792921 ] } },
{ "type": "Feature", "properties": { "activities_id": 861, "atype": "trailhead", "trail_info_id": 1928, "parking_info_id": 295, "poi_info_id": 280, "aname": "Miami Woods" }, "geometry": { "type": "Point", "coordinates": [ -87.79329181494812, 42.027017863544245 ] } },
{ "type": "Feature", "properties": { "activities_id": 862, "atype": "trailhead", "trail_info_id": 635, "parking_info_id": 305, "poi_info_id": 228, "aname": "Jerome Huppert Woods" }, "geometry": { "type": "Point", "coordinates": [ -87.832785197615422, 41.920364618306209 ] } },
{ "type": "Feature", "properties": { "activities_id": 863, "atype": "trailhead", "trail_info_id": 1172, "parking_info_id": 72, "poi_info_id": 316, "aname": "Pioneer Woods" }, "geometry": { "type": "Point", "coordinates": [ -87.869157905047217, 41.701218435182213 ] } },
{ "type": "Feature", "properties": { "activities_id": 864, "atype": "trailhead", "trail_info_id": 1540, "parking_info_id": 74, "poi_info_id": 295, "aname": "Spears Woods" }, "geometry": { "type": "Point", "coordinates": [ -87.853345108858917, 41.72568293970636 ] } },
{ "type": "Feature", "properties": { "activities_id": 865, "atype": "trailhead", "trail_info_id": 2390, "parking_info_id": 84, "poi_info_id": 132, "aname": "Rubio Woods" }, "geometry": { "type": "Point", "coordinates": [ -87.766769320162865, 41.636306940333476 ] } },
{ "type": "Feature", "properties": { "activities_id": 866, "atype": "trailhead", "trail_info_id": 304, "parking_info_id": 99, "poi_info_id": 218, "aname": "Schiller Woods-West" }, "geometry": { "type": "Point", "coordinates": [ -87.846610955437285, 41.96090289828738 ] } },
{ "type": "Feature", "properties": { "activities_id": 867, "atype": "trailhead", "trail_info_id": 1105, "parking_info_id": 101, "poi_info_id": 166, "aname": "Joe Orr Woods" }, "geometry": { "type": "Point", "coordinates": [ -87.630435447670948, 41.520248521442632 ] } },
{ "type": "Feature", "properties": { "activities_id": 868, "atype": "trailhead", "trail_info_id": 1361, "parking_info_id": 141, "poi_info_id": 216, "aname": "Robinson Woods-South" }, "geometry": { "type": "Point", "coordinates": [ -87.854098038393374, 41.965576957272532 ] } },
{ "type": "Feature", "properties": { "activities_id": 869, "atype": "trailhead", "trail_info_id": 1371, "parking_info_id": 102, "poi_info_id": 164, "aname": "North Creek Meadow" }, "geometry": { "type": "Point", "coordinates": [ -87.562159220749805, 41.546391465460772 ] } },
{ "type": "Feature", "properties": { "activities_id": 870, "atype": "trailhead", "trail_info_id": 2130, "parking_info_id": 103, "poi_info_id": 28, "aname": "Plum Creek Meadow" }, "geometry": { "type": "Point", "coordinates": [ -87.537555330593008, 41.48555601633889 ] } },
{ "type": "Feature", "properties": { "activities_id": 871, "atype": "trailhead", "trail_info_id": 1286, "parking_info_id": 106, "poi_info_id": 169, "aname": "Sauk Trail Woods-North" }, "geometry": { "type": "Point", "coordinates": [ -87.650853543602722, 41.490733498427922 ] } },
{ "type": "Feature", "properties": { "activities_id": 872, "atype": "trailhead", "trail_info_id": 2150, "parking_info_id": 117, "poi_info_id": 181, "aname": "Deer Grove-East" }, "geometry": { "type": "Point", "coordinates": [ -88.042171302550372, 42.141292467642771 ] } },
{ "type": "Feature", "properties": { "activities_id": 873, "atype": "trailhead", "trail_info_id": 1620, "parking_info_id": 119, "poi_info_id": 283, "aname": "Caldwell Woods" }, "geometry": { "type": "Point", "coordinates": [ -87.787404922173536, 41.998361255780637 ] } },
{ "type": "Feature", "properties": { "activities_id": 874, "atype": "trailhead", "trail_info_id": 20, "parking_info_id": 4, "poi_info_id": 212, "aname": "Dam No. 4 Woods-East" }, "geometry": { "type": "Point", "coordinates": [ -87.857487946093087, 42.000675556083195 ] } },
{ "type": "Feature", "properties": { "activities_id": 875, "atype": "trailhead", "trail_info_id": 2280, "parking_info_id": 322, "poi_info_id": 165, "aname": "Lansing Woods" }, "geometry": { "type": "Point", "coordinates": [ -87.553310682368462, 41.557036974879765 ] } },
{ "type": "Feature", "properties": { "activities_id": 876, "atype": "trailhead", "trail_info_id": 1283, "parking_info_id": 17, "poi_info_id": 171, "aname": "Schubert's Woods" }, "geometry": { "type": "Point", "coordinates": [ -87.659290974846343, 41.480377196535088 ] } },
{ "type": "Feature", "properties": { "activities_id": 877, "atype": "trailhead", "trail_info_id": 861, "parking_info_id": 19, "poi_info_id": 229, "aname": "Evans Field" }, "geometry": { "type": "Point", "coordinates": [ -87.82830309764114, 41.913201514399425 ] } },
{ "type": "Feature", "properties": { "activities_id": 878, "atype": "trailhead", "trail_info_id": 1180, "parking_info_id": 20, "poi_info_id": 227, "aname": "Fullerton Woods" }, "geometry": { "type": "Point", "coordinates": [ -87.836299571458909, 41.922657399683878 ] } },
{ "type": "Feature", "properties": { "activities_id": 880, "atype": "trailhead", "trail_info_id": 1270, "parking_info_id": 155, "poi_info_id": 326, "aname": "Red Gate Woods" }, "geometry": { "type": "Point", "coordinates": [ -87.913996380951147, 41.710034063818298 ] } },
{ "type": "Feature", "properties": { "activities_id": 881, "atype": "trailhead", "trail_info_id": 1795, "parking_info_id": 58, "poi_info_id": 120, "aname": "Palos Park Woods-South" }, "geometry": { "type": "Point", "coordinates": [ -87.838540776553643, 41.676304801210428 ] } },
{ "type": "Feature", "properties": { "activities_id": 882, "atype": "trailhead", "trail_info_id": 226, "parking_info_id": 124, "poi_info_id": 56, "aname": "LaBagh Woods" }, "geometry": { "type": "Point", "coordinates": [ -87.745791758105142, 41.978538372581113 ] } },
{ "type": "Feature", "properties": { "activities_id": 883, "atype": "trailhead", "trail_info_id": 601, "parking_info_id": 131, "poi_info_id": 193, "aname": "Dan Ryan Woods-Central" }, "geometry": { "type": "Point", "coordinates": [ -87.680306089442198, 41.74248381376718 ] } },
{ "type": "Feature", "properties": { "activities_id": 884, "atype": "trailhead", "trail_info_id": 970, "parking_info_id": 134, "poi_info_id": 311, "aname": "Dan Ryan Woods-North" }, "geometry": { "type": "Point", "coordinates": [ -87.67909572417237, 41.743378915126783 ] } },
{ "type": "Feature", "properties": { "activities_id": 886, "atype": "snowmobiling", "trail_info_id": null, "parking_info_id": 7, "poi_info_id": 237, "aname": "Miller Meadow Snowmobiling" }, "geometry": { "type": "Point", "coordinates": [ -87.828129917105869, 41.855261596474982 ] } },
{ "type": "Feature", "properties": { "activities_id": 888, "atype": "trailhead", "trail_info_id": 2402, "parking_info_id": 164, "poi_info_id": 138, "aname": "Bremen Grove" }, "geometry": { "type": "Point", "coordinates": [ -87.783258061594438, 41.59958859006052 ] } },
{ "type": "Feature", "properties": { "activities_id": 891, "atype": "welcome center", "trail_info_id": null, "parking_info_id": 137, "poi_info_id": 313, "aname": "Dan Ryan Woods Visitor Center" }, "geometry": { "type": "Point", "coordinates": [ -87.680107023720126, 41.735936524164053 ] } },
{ "type": "Feature", "properties": { "activities_id": 892, "atype": "trailhead", "trail_info_id": 551, "parking_info_id": 160, "poi_info_id": 197, "aname": "Barrington Road Pond" }, "geometry": { "type": "Point", "coordinates": [ -88.145052335342825, 42.057171804283257 ] } },
{ "type": "Feature", "properties": { "activities_id": 893, "atype": "trailhead", "trail_info_id": 2706, "parking_info_id": 165, "poi_info_id": 140, "aname": "Yankee Woods" }, "geometry": { "type": "Point", "coordinates": [ -87.758757058159119, 41.592444235844383 ] } },
{ "type": "Feature", "properties": { "activities_id": 894, "atype": "trailhead", "trail_info_id": 586, "parking_info_id": 55, "poi_info_id": 117, "aname": "Swallow Cliff Woods-South" }, "geometry": { "type": "Point", "coordinates": [ -87.860132639979227, 41.674048870183022 ] } },
{ "type": "Feature", "properties": { "activities_id": 895, "atype": "trailhead", "trail_info_id": 2379, "parking_info_id": 54, "poi_info_id": 118, "aname": "Forty Acre Woods" }, "geometry": { "type": "Point", "coordinates": [ -87.853006821496422, 41.673894327390336 ] } },
{ "type": "Feature", "properties": { "activities_id": 896, "atype": "trailhead", "trail_info_id": 1013, "parking_info_id": 56, "poi_info_id": 119, "aname": "McClaughrey Springs Woods" }, "geometry": { "type": "Point", "coordinates": [ -87.844043888845576, 41.677442062633112 ] } },
{ "type": "Feature", "properties": { "activities_id": 897, "atype": "trailhead", "trail_info_id": 2634, "parking_info_id": 57, "poi_info_id": 121, "aname": "Paddock Woods" }, "geometry": { "type": "Point", "coordinates": [ -87.831620224116165, 41.678294602106433 ] } },
{ "type": "Feature", "properties": { "activities_id": 898, "atype": "trailhead", "trail_info_id": 2704, "parking_info_id": 297, "poi_info_id": 398, "aname": "Sag Valley Equestrian Parking" }, "geometry": { "type": "Point", "coordinates": [ -87.923722918414072, 41.649786790872639 ] } },
{ "type": "Feature", "properties": { "activities_id": 899, "atype": "trailhead", "trail_info_id": 1609, "parking_info_id": 219, "poi_info_id": 343, "aname": "Beck Lake" }, "geometry": { "type": "Point", "coordinates": [ -87.874267214523968, 42.071035742341095 ] } },
{ "type": "Feature", "properties": { "activities_id": 900, "atype": "trailhead", "trail_info_id": 1263, "parking_info_id": 256, "poi_info_id": 323, "aname": "Saganashkee Slough-East" }, "geometry": { "type": "Point", "coordinates": [ -87.875065735607876, 41.68899067069151 ] } },
{ "type": "Feature", "properties": { "activities_id": 901, "atype": "trailhead", "trail_info_id": 621, "parking_info_id": 262, "poi_info_id": 333, "aname": "Sag Quarries" }, "geometry": { "type": "Point", "coordinates": [ -87.93268608806936, 41.690512001368823 ] } },
{ "type": "Feature", "properties": { "activities_id": 902, "atype": "trailhead", "trail_info_id": 236, "parking_info_id": 269, "poi_info_id": 115, "aname": "Horsetail Lake" }, "geometry": { "type": "Point", "coordinates": [ -87.871942393098976, 41.66818738397658 ] } },
{ "type": "Feature", "properties": { "activities_id": 903, "atype": "trailhead", "trail_info_id": 2314, "parking_info_id": 282, "poi_info_id": 305, "aname": "Midlothian Reservoir" }, "geometry": { "type": "Point", "coordinates": [ -87.738296815221531, 41.58903092619822 ] } },
{ "type": "Feature", "properties": { "activities_id": 904, "atype": "trailhead", "trail_info_id": 1160, "parking_info_id": 142, "poi_info_id": 282, "aname": "Bunker Hill" }, "geometry": { "type": "Point", "coordinates": [ -87.791216521132938, 42.008821702699166 ] } },
{ "type": "Feature", "properties": { "activities_id": 905, "atype": "trailhead", "trail_info_id": 2360, "parking_info_id": 63, "poi_info_id": 292, "aname": "Buffalo Woods-North" }, "geometry": { "type": "Point", "coordinates": [ -87.85108853273006, 41.737915653420714 ] } },
{ "type": "Feature", "properties": { "activities_id": 906, "atype": "trailhead", "trail_info_id": 739, "parking_info_id": 306, "poi_info_id": 246, "aname": "Twenty-Sixth Street Woods-West" }, "geometry": { "type": "Point", "coordinates": [ -87.857755561651871, 41.842350880135371 ] } },
{ "type": "Feature", "properties": { "activities_id": 907, "atype": "trailhead", "trail_info_id": 2689, "parking_info_id": 309, "poi_info_id": 188, "aname": "Woodland Meadow" }, "geometry": { "type": "Point", "coordinates": [ -88.031013150251994, 42.007147727060833 ] } },
{ "type": "Feature", "properties": { "activities_id": 908, "atype": "trailhead", "trail_info_id": 206, "parking_info_id": 175, "poi_info_id": 297, "aname": "John Husar I&M Canal Bicycle Trail Parking Lot" }, "geometry": { "type": "Point", "coordinates": [ -87.879427384917307, 41.733593049256037 ] } },
{ "type": "Feature", "properties": { "activities_id": 909, "atype": "trailhead", "trail_info_id": 1184, "parking_info_id": 140, "poi_info_id": 214, "aname": "Catherine Chevalier Woods" }, "geometry": { "type": "Point", "coordinates": [ -87.851579979957592, 41.977485037157145 ] } },
{ "type": "Feature", "properties": { "activities_id": 910, "atype": "trailhead", "trail_info_id": 267, "parking_info_id": 144, "poi_info_id": 187, "aname": "Busse Lake Beisner Road Access" }, "geometry": { "type": "Point", "coordinates": [ -88.017815854679696, 42.016203499610647 ] } },
{ "type": "Feature", "properties": { "activities_id": 911, "atype": "trailhead", "trail_info_id": 2066, "parking_info_id": 145, "poi_info_id": 186, "aname": "Busse Forest Main Dam" }, "geometry": { "type": "Point", "coordinates": [ -87.996265649444794, 42.016164317454781 ] } },
{ "type": "Feature", "properties": { "activities_id": 912, "atype": "trailhead", "trail_info_id": 2484, "parking_info_id": 156, "poi_info_id": 194, "aname": "Carl R. Hansen Woods" }, "geometry": { "type": "Point", "coordinates": [ -88.194436199763132, 42.053499265078891 ] } },
{ "type": "Feature", "properties": { "activities_id": 913, "atype": "trailhead", "trail_info_id": 2229, "parking_info_id": 121, "poi_info_id": 52, "aname": "Thaddeus S. \"Ted\" Lechowicz Woods" }, "geometry": { "type": "Point", "coordinates": [ -87.765744155042697, 41.988926678648141 ] } },
{ "type": "Feature", "properties": { "activities_id": 914, "atype": "trailhead", "trail_info_id": 1285, "parking_info_id": 71, "poi_info_id": 331, "aname": "Maple Lake-East - Mountain Bike Staging Area" }, "geometry": { "type": "Point", "coordinates": [ -87.881959804206915, 41.716825860251902 ] } },
{ "type": "Feature", "properties": { "activities_id": 915, "atype": "trailhead", "trail_info_id": 2611, "parking_info_id": 79, "poi_info_id": 391, "aname": "Arie Crown Forest" }, "geometry": { "type": "Point", "coordinates": [ -87.873478809052969, 41.762924868043541 ] } },
{ "type": "Feature", "properties": { "activities_id": 916, "atype": "trailhead", "trail_info_id": 1786, "parking_info_id": 203, "poi_info_id": 351, "aname": "Deer Grove-West" }, "geometry": { "type": "Point", "coordinates": [ -88.092432600760446, 42.136080135544539 ] } },
{ "type": "Feature", "properties": { "activities_id": 917, "atype": "trailhead", "trail_info_id": 636, "parking_info_id": 90, "poi_info_id": 153, "aname": "Green Lake Woods" }, "geometry": { "type": "Point", "coordinates": [ -87.551829291473993, 41.601262481046049 ] } },
{ "type": "Feature", "properties": { "activities_id": 918, "atype": "trailhead", "trail_info_id": 341, "parking_info_id": 28, "poi_info_id": 243, "aname": "Brookfield Woods" }, "geometry": { "type": "Point", "coordinates": [ -87.839510730654368, 41.836710970162756 ] } },
{ "type": "Feature", "properties": { "activities_id": 919, "atype": "trailhead", "trail_info_id": 2230, "parking_info_id": 29, "poi_info_id": 247, "aname": "Brezina Woods" }, "geometry": { "type": "Point", "coordinates": [ -87.876930438796307, 41.844691543437669 ] } },
{ "type": "Feature", "properties": { "activities_id": 920, "atype": "trailhead", "trail_info_id": 1340, "parking_info_id": 47, "poi_info_id": 175, "aname": "Turtlehead Lake" }, "geometry": { "type": "Point", "coordinates": [ -87.800308993233401, 41.642751400675536 ] } },
{ "type": "Feature", "properties": { "activities_id": 921, "atype": "trailhead", "trail_info_id": 1378, "parking_info_id": 48, "poi_info_id": 128, "aname": "Arrowhead Lake" }, "geometry": { "type": "Point", "coordinates": [ -87.791517802388753, 41.650289528854934 ] } },
{ "type": "Feature", "properties": { "activities_id": 922, "atype": "trailhead", "trail_info_id": 2613, "parking_info_id": 138, "poi_info_id": 314, "aname": "Dan Ryan Woods-91st Street" }, "geometry": { "type": "Point", "coordinates": [ -87.667314480691672, 41.728847604233387 ] } },
{ "type": "Feature", "properties": { "activities_id": 923, "atype": "snowmobiling", "trail_info_id": null, "parking_info_id": 47, "poi_info_id": 175, "aname": "Turtlehead Lake Snowmobiling" }, "geometry": { "type": "Point", "coordinates": [ -87.801560768042634, 41.641234005709798 ] } },
{ "type": "Feature", "properties": { "activities_id": 924, "atype": "trailhead", "trail_info_id": 858, "parking_info_id": 204, "poi_info_id": 178, "aname": "Camp Alphonse" }, "geometry": { "type": "Point", "coordinates": [ -88.077776912555237, 42.137577533859094 ] } },
{ "type": "Feature", "properties": { "activities_id": 925, "atype": "trailhead", "trail_info_id": 982, "parking_info_id": 245, "poi_info_id": 260, "aname": "Chicago Portage National Historic Site" }, "geometry": { "type": "Point", "coordinates": [ -87.802595187037696, 41.805571965149745 ] } },
{ "type": "Feature", "properties": { "activities_id": 927, "atype": "snowmobiling", "trail_info_id": null, "parking_info_id": 254, "poi_info_id": 303, "aname": "Morrill Meadow Snowmobiling" }, "geometry": { "type": "Point", "coordinates": [ -87.857165008365229, 41.692464663541237 ] } },
{ "type": "Feature", "properties": { "activities_id": 928, "atype": "sledding", "trail_info_id": null, "parking_info_id": 72, "poi_info_id": 316, "aname": "Pioneer Woods Sledding Hill" }, "geometry": { "type": "Point", "coordinates": [ -87.868566846546244, 41.697020510722986 ] } },
{ "type": "Feature", "properties": { "activities_id": 929, "atype": "sledding", "trail_info_id": null, "parking_info_id": 60, "poi_info_id": 123, "aname": "Swallow Cliff Woods-North Sledding Hill" }, "geometry": { "type": "Point", "coordinates": [ -87.863270213043506, 41.679949809536261 ] } },
{ "type": "Feature", "properties": { "activities_id": 930, "atype": "pavilion", "trail_info_id": null, "parking_info_id": 60, "poi_info_id": 123, "aname": "Swallow Cliff Woods Pavilion & Cafe" }, "geometry": { "type": "Point", "coordinates": [ -87.862592835845092, 41.680347857411931 ] } },
{ "type": "Feature", "properties": { "activities_id": 931, "atype": "trailhead", "trail_info_id": 2640, "parking_info_id": 148, "poi_info_id": 207, "aname": "Camp Ground Road Woods" }, "geometry": { "type": "Point", "coordinates": [ -87.872856343737524, 42.029236546829061 ] } },
{ "type": "Feature", "properties": { "activities_id": 932, "atype": "trailhead", "trail_info_id": 1579, "parking_info_id": 151, "poi_info_id": 390, "aname": "Bemis Woods-North" }, "geometry": { "type": "Point", "coordinates": [ -87.907109452858791, 41.828069653886843 ] } },
{ "type": "Feature", "properties": { "activities_id": 933, "atype": "trailhead", "trail_info_id": 844, "parking_info_id": 157, "poi_info_id": 180, "aname": "Deer Grove" }, "geometry": { "type": "Point", "coordinates": [ -88.066694969216002, 42.140419232053439 ] } },
{ "type": "Feature", "properties": { "activities_id": 934, "atype": "trailhead", "trail_info_id": 1798, "parking_info_id": 157, "poi_info_id": 180, "aname": "Deer Grove" }, "geometry": { "type": "Point", "coordinates": [ -88.074160633574238, 42.147535933808285 ] } },
{ "type": "Feature", "properties": { "activities_id": 935, "atype": "trailhead", "trail_info_id": 1311, "parking_info_id": 66, "poi_info_id": 376, "aname": "Columbia Woods" }, "geometry": { "type": "Point", "coordinates": [ -87.882381477778139, 41.735985246694689 ] } },
{ "type": "Feature", "properties": { "activities_id": 936, "atype": "trailhead", "trail_info_id": 1152, "parking_info_id": 46, "poi_info_id": 250, "aname": "Bemis Woods-South" }, "geometry": { "type": "Point", "coordinates": [ -87.909397371858674, 41.8252816859764 ] } },
{ "type": "Feature", "properties": { "activities_id": 938, "atype": "trailhead", "trail_info_id": 764, "parking_info_id": 200, "poi_info_id": 173, "aname": "Old Stover Trailhead" }, "geometry": { "type": "Point", "coordinates": [ -88.160696731424721, 42.110098872275294 ] } },
{ "type": "Feature", "properties": { "activities_id": 940, "atype": "sledding", "trail_info_id": null, "parking_info_id": 157, "poi_info_id": 180, "aname": "Deer Grove Sledding Hill" }, "geometry": { "type": "Point", "coordinates": [ -88.074031491568078, 42.146532893459629 ] } },
{ "type": "Feature", "properties": { "activities_id": 942, "atype": "trailhead", "trail_info_id": 2351, "parking_info_id": 139, "poi_info_id": 315, "aname": "Eggers Grove" }, "geometry": { "type": "Point", "coordinates": [ -87.528976087984489, 41.688036687952682 ] } },
{ "type": "Feature", "properties": { "activities_id": 943, "atype": "trailhead", "trail_info_id": 2268, "parking_info_id": 111, "poi_info_id": 162, "aname": "Jurgensen Woods" }, "geometry": { "type": "Point", "coordinates": [ -87.592306450592488, 41.55425178091842 ] } },
{ "type": "Feature", "properties": { "activities_id": 945, "atype": "zip line", "trail_info_id": null, "parking_info_id": 46, "poi_info_id": 250, "aname": "Go Ape Treetop Adventure" }, "geometry": { "type": "Point", "coordinates": [ -87.905862773133279, 41.822767836975721 ] } },
{ "type": "Feature", "properties": { "activities_id": 946, "atype": "trailhead", "trail_info_id": 1558, "parking_info_id": 147, "poi_info_id": 364, "aname": "Big Bend Lake" }, "geometry": { "type": "Point", "coordinates": [ -87.870058163464492, 42.052114014395912 ] } },
{ "type": "Feature", "properties": { "activities_id": 947, "atype": "trailhead", "trail_info_id": 2233, "parking_info_id": 281, "poi_info_id": 377, "aname": "St. Mihiel Woods-East" }, "geometry": { "type": "Point", "coordinates": [ -87.754442936858297, 41.586040184545269 ] } },
{ "type": "Feature", "properties": { "activities_id": 949, "atype": "trailhead", "trail_info_id": 929, "parking_info_id": 236, "poi_info_id": 270, "aname": "Glenview Woods" }, "geometry": { "type": "Point", "coordinates": [ -87.771826940253845, 42.067576661084495 ] } },
{ "type": "Feature", "properties": { "activities_id": 951, "atype": "trailhead", "trail_info_id": 2362, "parking_info_id": 252, "poi_info_id": 298, "aname": "Hidden Pond Woods-West" }, "geometry": { "type": "Point", "coordinates": [ -87.851549329719177, 41.723262311268201 ] } },
{ "type": "Feature", "properties": { "activities_id": 952, "atype": "trailhead", "trail_info_id": 309, "parking_info_id": 276, "poi_info_id": 379, "aname": "Orland Grassland Land and Water Reserve" }, "geometry": { "type": "Point", "coordinates": [ -87.854271825980632, 41.586360862765467 ] } },
{ "type": "Feature", "properties": { "activities_id": 953, "atype": "trailhead", "trail_info_id": 993, "parking_info_id": 277, "poi_info_id": 372, "aname": "Orland Grassland South" }, "geometry": { "type": "Point", "coordinates": [ -87.869744914500927, 41.562542689428959 ] } },
{ "type": "Feature", "properties": { "activities_id": 954, "atype": "frisbee golf", "trail_info_id": null, "parking_info_id": 188, "poi_info_id": 81, "aname": "Rolling Knolls Disc Golf" }, "geometry": { "type": "Point", "coordinates": [ -88.231050256675445, 42.037037740224896 ] } },
{ "type": "Feature", "properties": { "activities_id": 955, "atype": "sledding", "trail_info_id": null, "parking_info_id": 128, "poi_info_id": 221, "aname": "Schiller Woods-East Sledding Hill" }, "geometry": { "type": "Point", "coordinates": [ -87.841468525056044, 41.955837825683517 ] } },
{ "type": "Feature", "properties": { "activities_id": 956, "atype": "trailhead", "trail_info_id": 1077, "parking_info_id": 209, "poi_info_id": 198, "aname": "Poplar Creek Bicycle Lot" }, "geometry": { "type": "Point", "coordinates": [ -88.149444955207969, 42.061748998808618 ] } },
{ "type": "Feature", "properties": { "activities_id": 957, "atype": "trailhead", "trail_info_id": 2124, "parking_info_id": 214, "poi_info_id": 195, "aname": "Poplar Creek Equestrian Parking" }, "geometry": { "type": "Point", "coordinates": [ -88.213758979788608, 42.030423164676925 ] } },
{ "type": "Feature", "properties": { "activities_id": 958, "atype": "trailhead", "trail_info_id": 1718, "parking_info_id": 283, "poi_info_id": 365, "aname": "Oak Forest Heritage Preserve-East" }, "geometry": { "type": "Point", "coordinates": [ -87.716856016571725, 41.597757179702526 ] } },
{ "type": "Feature", "properties": { "activities_id": 959, "atype": "trailhead", "trail_info_id": 2111, "parking_info_id": 146, "poi_info_id": 183, "aname": "Grassy Ridge Meadow" }, "geometry": { "type": "Point", "coordinates": [ -88.113844582495716, 42.067845919876994 ] } },
{ "type": "Feature", "properties": { "activities_id": 960, "atype": "trailhead", "trail_info_id": 2094, "parking_info_id": 143, "poi_info_id": 29, "aname": "Busse Forest And Ned Brown Meadow" }, "geometry": { "type": "Point", "coordinates": [ -88.023439260947015, 42.05037890413373 ] } },
{ "type": "Feature", "properties": { "activities_id": 961, "atype": "sledding", "trail_info_id": null, "parking_info_id": 137, "poi_info_id": 313, "aname": "Dan Ryan Sledding Hill" }, "geometry": { "type": "Point", "coordinates": [ -87.679058333130897, 41.736532759085605 ] } },
{ "type": "Feature", "properties": { "activities_id": 962, "atype": "snowmobiling", "trail_info_id": null, "parking_info_id": 102, "poi_info_id": 164, "aname": "North Creek Meadow Snowmobiling" }, "geometry": { "type": "Point", "coordinates": [ -87.564868585043286, 41.545279293081919 ] } },
{ "type": "Feature", "properties": { "activities_id": 963, "atype": "sledding", "trail_info_id": null, "parking_info_id": 11, "poi_info_id": 42, "aname": "Westchester Woods Sledding Hill" }, "geometry": { "type": "Point", "coordinates": [ -87.866382766816628, 41.847217388673002 ] } },
{ "type": "Feature", "properties": { "activities_id": 965, "atype": "trailhead", "trail_info_id": 117, "parking_info_id": 195, "poi_info_id": 338, "aname": "River Trail Nature Center" }, "geometry": { "type": "Point", "coordinates": [ -87.882591300708128, 42.095707405277849 ] } },
{ "type": "Feature", "properties": { "activities_id": 966, "atype": "trailhead", "trail_info_id": 2337, "parking_info_id": 83, "poi_info_id": 306, "aname": "Midlothian Meadows" }, "geometry": { "type": "Point", "coordinates": [ -87.718022958466051, 41.614006369676304 ] } },
{ "type": "Feature", "properties": { "activities_id": 967, "atype": "trailhead", "trail_info_id": 791, "parking_info_id": 89, "poi_info_id": 141, "aname": "Whistler Woods" }, "geometry": { "type": "Point", "coordinates": [ -87.636432332776096, 41.655567879933955 ] } },
{ "type": "Feature", "properties": { "activities_id": 968, "atype": "trailhead", "trail_info_id": 599, "parking_info_id": 206, "poi_info_id": 202, "aname": "Beverly Lake" }, "geometry": { "type": "Point", "coordinates": [ -88.230811224664478, 42.083770009849374 ] } },
{ "type": "Feature", "properties": { "activities_id": 969, "atype": "trailhead", "trail_info_id": 2654, "parking_info_id": 76, "poi_info_id": 296, "aname": "Willow Springs Woods" }, "geometry": { "type": "Point", "coordinates": [ -87.873723149423043, 41.727406233310091 ] } },
{ "type": "Feature", "properties": { "activities_id": 970, "atype": "trailhead", "trail_info_id": 1041, "parking_info_id": 77, "poi_info_id": 320, "aname": "Wolf Road Woods" }, "geometry": { "type": "Point", "coordinates": [ -87.897772428741618, 41.704352711197124 ] } },
{ "type": "Feature", "properties": { "activities_id": 971, "atype": "trailhead", "trail_info_id": 276, "parking_info_id": 81, "poi_info_id": 290, "aname": "Sundown Meadow" }, "geometry": { "type": "Point", "coordinates": [ -87.872267898931483, 41.769460354920795 ] } },
{ "type": "Feature", "properties": { "activities_id": 972, "atype": "trailhead", "trail_info_id": 1843, "parking_info_id": 100, "poi_info_id": 367, "aname": "Woodrow Wilson Woods" }, "geometry": { "type": "Point", "coordinates": [ -87.644935736725031, 41.506724139619863 ] } },
{ "type": "Feature", "properties": { "activities_id": 973, "atype": "trailhead", "trail_info_id": 956, "parking_info_id": 112, "poi_info_id": 159, "aname": "Sweet Woods" }, "geometry": { "type": "Point", "coordinates": [ -87.597574923470361, 41.556095805839554 ] } },
{ "type": "Feature", "properties": { "activities_id": 974, "atype": "trailhead", "trail_info_id": 303, "parking_info_id": 114, "poi_info_id": 309, "aname": "Vollmer Road Grove" }, "geometry": { "type": "Point", "coordinates": [ -87.718770863007407, 41.529202495666432 ] } },
{ "type": "Feature", "properties": { "activities_id": 975, "atype": "trailhead", "trail_info_id": 21, "parking_info_id": 15, "poi_info_id": 342, "aname": "Camp Pine Woods" }, "geometry": { "type": "Point", "coordinates": [ -87.886874965590053, 42.086855675282649 ] } },
{ "type": "Feature", "properties": { "activities_id": 976, "atype": "trailhead", "trail_info_id": 1255, "parking_info_id": 60, "poi_info_id": 123, "aname": "Swallow Cliff Woods-North" }, "geometry": { "type": "Point", "coordinates": [ -87.86137744935094, 41.683418802353664 ] } },
{ "type": "Feature", "properties": { "activities_id": 977, "atype": "trailhead", "trail_info_id": 2171, "parking_info_id": 233, "poi_info_id": 267, "aname": "Tower Road Boat Launch" }, "geometry": { "type": "Point", "coordinates": [ -87.775081980951796, 42.113274412395874 ] } },
{ "type": "Feature", "properties": { "activities_id": 978, "atype": "trailhead", "trail_info_id": 1862, "parking_info_id": 237, "poi_info_id": 275, "aname": "Calvin R. Sutker Grove" }, "geometry": { "type": "Point", "coordinates": [ -87.762186662483984, 42.056542810197918 ] } },
{ "type": "Feature", "properties": { "activities_id": 979, "atype": "trailhead", "trail_info_id": 2304, "parking_info_id": 244, "poi_info_id": 259, "aname": "Stony Ford Canoe Landing" }, "geometry": { "type": "Point", "coordinates": [ -87.81102949205615, 41.813461210040593 ] } },
{ "type": "Feature", "properties": { "activities_id": 980, "atype": "trailhead", "trail_info_id": 1639, "parking_info_id": 279, "poi_info_id": 137, "aname": "Catalina Grove Family Picnic Area" }, "geometry": { "type": "Point", "coordinates": [ -87.801632448440216, 41.617130799653943 ] } },
{ "type": "Feature", "properties": { "activities_id": 981, "atype": "trailhead", "trail_info_id": 1426, "parking_info_id": 287, "poi_info_id": 310, "aname": "Flossmoor Road Bicycle Lot" }, "geometry": { "type": "Point", "coordinates": [ -87.721214782664546, 41.541729483108362 ] } },
{ "type": "Feature", "properties": { "activities_id": 982, "atype": "trailhead", "trail_info_id": 2085, "parking_info_id": 316, "poi_info_id": 184, "aname": "Busse Forest-North" }, "geometry": { "type": "Point", "coordinates": [ -87.999515832077762, 42.036837577963873 ] } },
{ "type": "Feature", "properties": { "activities_id": 985, "atype": "trailhead", "trail_info_id": 232, "parking_info_id": 334, "poi_info_id": 100, "aname": "Camp Bullfrog Lake" }, "geometry": { "type": "Point", "coordinates": [ -87.904744655217726, 41.708979299751697 ] } },
{ "type": "Feature", "properties": { "activities_id": 986, "atype": "trailhead", "trail_info_id": 1137, "parking_info_id": 178, "poi_info_id": 325, "aname": "Bullfrog Lake" }, "geometry": { "type": "Point", "coordinates": [ -87.89857195904294, 41.711348825357092 ] } },
{ "type": "Feature", "properties": { "activities_id": 988, "atype": "sledding", "trail_info_id": null, "parking_info_id": 121, "poi_info_id": 52, "aname": "Thaddeus S. \"Ted\" Lechowicz Woods Sledding Hill" }, "geometry": { "type": "Point", "coordinates": [ -87.763638255742819, 41.988580272339732 ] } },
{ "type": "Feature", "properties": { "activities_id": 989, "atype": "trailhead", "trail_info_id": 2174, "parking_info_id": 232, "poi_info_id": 266, "aname": "Tower Road Kayak\/Canoe Rental" }, "geometry": { "type": "Point", "coordinates": [ -87.770749615199165, 42.115934937493634 ] } },
{ "type": "Feature", "properties": { "activities_id": 990, "atype": "trailhead", "trail_info_id": 48, "parking_info_id": 23, "poi_info_id": 230, "aname": "Sunset Bridge Meadow" }, "geometry": { "type": "Point", "coordinates": [ -87.832257489688345, 41.909681796989304 ] } },
{ "type": "Feature", "properties": { "activities_id": 991, "atype": "bicycle rental", "trail_info_id": null, "parking_info_id": 118, "poi_info_id": 282, "aname": "Bunker Hill Bike Rental" }, "geometry": { "type": "Point", "coordinates": [ -87.791763923490436, 42.010598442575699 ] } },
{ "type": "Feature", "properties": { "activities_id": 992, "atype": "bicycle rental", "trail_info_id": null, "parking_info_id": 97, "poi_info_id": 271, "aname": "Harms Woods North Bike Rental" }, "geometry": { "type": "Point", "coordinates": [ -87.77052748700963, 42.061743324643956 ] } },
{ "type": "Feature", "properties": { "activities_id": 993, "atype": "bicycle rental", "trail_info_id": null, "parking_info_id": 131, "poi_info_id": 193, "aname": "Dan Ryan Woods Bike Rental" }, "geometry": { "type": "Point", "coordinates": [ -87.68206933335226, 41.740771272318753 ] } },
{ "type": "Feature", "properties": { "activities_id": 994, "atype": "bicycle lot", "trail_info_id": null, "parking_info_id": 71, "poi_info_id": 331, "aname": "Maple Lake Mountain Bike Staging Area" }, "geometry": { "type": "Point", "coordinates": [ -87.882110425314679, 41.715273837036882 ] } },
{ "type": "Feature", "properties": { "activities_id": 995, "atype": "bicycle lot", "trail_info_id": null, "parking_info_id": 287, "poi_info_id": 310, "aname": "Flossmoor Road Bicycle Lot" }, "geometry": { "type": "Point", "coordinates": [ -87.721137210846948, 41.542005395680079 ] } },
{ "type": "Feature", "properties": { "activities_id": 996, "atype": "bicycle lot", "trail_info_id": null, "parking_info_id": 175, "poi_info_id": 297, "aname": "John Husar I&M Canal Bicycle Trail Parking Lot" }, "geometry": { "type": "Point", "coordinates": [ -87.880020207008371, 41.733609061513306 ] } },
{ "type": "Feature", "properties": { "activities_id": 997, "atype": "boat launch", "trail_info_id": null, "parking_info_id": 219, "poi_info_id": 343, "aname": "Beck Lake Boat Launch" }, "geometry": { "type": "Point", "coordinates": [ -87.873454701535934, 42.071759616111315 ] } },
{ "type": "Feature", "properties": { "activities_id": 998, "atype": "boat launch", "trail_info_id": null, "parking_info_id": 298, "poi_info_id": 149, "aname": "Powderhorn Lake Boat Launch" }, "geometry": { "type": "Point", "coordinates": [ -87.533668365830053, 41.640928855864246 ] } },
{ "type": "Feature", "properties": { "activities_id": 999, "atype": "boat launch", "trail_info_id": null, "parking_info_id": 313, "poi_info_id": 189, "aname": "Busse Lake Boat Launch" }, "geometry": { "type": "Point", "coordinates": [ -88.01661428681588, 42.02492217422374 ] } },
{ "type": "Feature", "properties": { "activities_id": 1000, "atype": "boat launch", "trail_info_id": null, "parking_info_id": 233, "poi_info_id": 267, "aname": "Tower Road Boat Launch" }, "geometry": { "type": "Point", "coordinates": [ -87.774849228094453, 42.113667864062748 ] } },
{ "type": "Feature", "properties": { "activities_id": 1001, "atype": "boat launch", "trail_info_id": null, "parking_info_id": 272, "poi_info_id": 126, "aname": "Tampier Lake Boat Launch" }, "geometry": { "type": "Point", "coordinates": [ -87.89782526399037, 41.650601759444562 ] } },
{ "type": "Feature", "properties": { "activities_id": 1002, "atype": "boat launch", "trail_info_id": null, "parking_info_id": 313, "poi_info_id": 189, "aname": "Busse Lake South Boat Launch" }, "geometry": { "type": "Point", "coordinates": [ -88.016894691309574, 42.022830304502115 ] } },
{ "type": "Feature", "properties": { "activities_id": 1003, "atype": "canoe landing", "trail_info_id": null, "parking_info_id": 12, "poi_info_id": 341, "aname": "Dam No. 2 Woods Canoe Landing" }, "geometry": { "type": "Point", "coordinates": [ -87.890647, 42.08289 ] } },
{ "type": "Feature", "properties": { "activities_id": 1004, "atype": "canoe landing", "trail_info_id": null, "parking_info_id": 293, "poi_info_id": 277, "aname": "Linne Woods Canoe Landing" }, "geometry": { "type": "Point", "coordinates": [ -87.786025755964474, 42.043810155849002 ] } },
{ "type": "Feature", "properties": { "activities_id": 1005, "atype": "canoe landing", "trail_info_id": null, "parking_info_id": 324, "poi_info_id": 205, "aname": "Northwestern Woods Canoe Landing" }, "geometry": { "type": "Point", "coordinates": [ -87.881980593507663, 42.037099478333204 ] } },
{ "type": "Feature", "properties": { "activities_id": 1006, "atype": "canoe landing", "trail_info_id": null, "parking_info_id": 161, "poi_info_id": 337, "aname": "Allison Woods Canoe Landing" }, "geometry": { "type": "Point", "coordinates": [ -87.885820504184849, 42.100955930717966 ] } },
{ "type": "Feature", "properties": { "activities_id": 1007, "atype": "canoe landing", "trail_info_id": null, "parking_info_id": 151, "poi_info_id": 390, "aname": "Bemis Woods-North Canoe Landing" }, "geometry": { "type": "Point", "coordinates": [ -87.906931166603442, 41.827663845831708 ] } },
{ "type": "Feature", "properties": { "activities_id": 1008, "atype": "canoe landing", "trail_info_id": null, "parking_info_id": 66, "poi_info_id": 376, "aname": "Columbia Woods Canoe Landing" }, "geometry": { "type": "Point", "coordinates": [ -87.889242954249241, 41.730524181379465 ] } },
{ "type": "Feature", "properties": { "activities_id": 1009, "atype": "canoe landing", "trail_info_id": null, "parking_info_id": 289, "poi_info_id": 145, "aname": "Kickapoo Woods Canoe Landing" }, "geometry": { "type": "Point", "coordinates": [ -87.644058019961889, 41.629236263898875 ] } },
{ "type": "Feature", "properties": { "activities_id": 1010, "atype": "canoe landing", "trail_info_id": null, "parking_info_id": 306, "poi_info_id": 246, "aname": "Twenty-Sixth Street Woods-West Canoe Landing" }, "geometry": { "type": "Point", "coordinates": [ -87.858342718995786, 41.842738059378036 ] } },
{ "type": "Feature", "properties": { "activities_id": 1012, "atype": "model airplane flying field", "trail_info_id": null, "parking_info_id": 254, "poi_info_id": 303, "aname": "Morrill Meadow Model Airplane Flying Field" }, "geometry": { "type": "Point", "coordinates": [ -87.858510616667687, 41.693931089716521 ] } },
{ "type": "Feature", "properties": { "activities_id": 1013, "atype": "model airplane flying field", "trail_info_id": null, "parking_info_id": 117, "poi_info_id": 181, "aname": "Deer Grove Model Airplane Flying Field" }, "geometry": { "type": "Point", "coordinates": [ -88.042061214831136, 42.144301854568077 ] } },
{ "type": "Feature", "properties": { "activities_id": 1014, "atype": "model airplane flying field", "trail_info_id": null, "parking_info_id": 143, "poi_info_id": 29, "aname": "Ned Brown Model Airplane Flying Field" }, "geometry": { "type": "Point", "coordinates": [ -88.018757908574784, 42.04566118826785 ] } },
{ "type": "Feature", "properties": { "activities_id": 1015, "atype": "model airplane flying field", "trail_info_id": null, "parking_info_id": 289, "poi_info_id": 145, "aname": "Kickapoo Woods Model Airplane Flying Field" }, "geometry": { "type": "Point", "coordinates": [ -87.645649615476586, 41.631276966095619 ] } },
{ "type": "Feature", "properties": { "activities_id": 1016, "atype": "recreational waterbody", "trail_info_id": null, "parking_info_id": 213, "poi_info_id": 196, "aname": "Bode Lake" }, "geometry": { "type": "Point", "coordinates": [ -88.168094801404294, 42.041411542993806 ] } },
{ "type": "Feature", "properties": { "activities_id": 1017, "atype": "recreational waterbody", "trail_info_id": null, "parking_info_id": 329, "poi_info_id": 203, "aname": "Penny Road Pond" }, "geometry": { "type": "Point", "coordinates": [ -88.207535062161654, 42.097255533200943 ] } },
{ "type": "Feature", "properties": { "activities_id": 1018, "atype": "recreational waterbody", "trail_info_id": null, "parking_info_id": 253, "poi_info_id": 300, "aname": "Belly Deep Slough" }, "geometry": { "type": "Point", "coordinates": [ -87.849679435251787, 41.710570036001926 ] } },
{ "type": "Feature", "properties": { "activities_id": 1019, "atype": "recreational waterbody", "trail_info_id": null, "parking_info_id": 330, "poi_info_id": 27, "aname": "O'Malley Ponds" }, "geometry": { "type": "Point", "coordinates": [ -87.542859878830882, 41.496824263255 ] } },
{ "type": "Feature", "properties": { "activities_id": 1020, "atype": "recreational waterbody", "trail_info_id": null, "parking_info_id": 0, "poi_info_id": 74, "aname": "McGinty Slough" }, "geometry": { "type": "Point", "coordinates": [ -87.922865768502874, 41.66060452227827 ] } },
{ "type": "Feature", "properties": { "activities_id": 1021, "atype": "recreational waterbody", "trail_info_id": null, "parking_info_id": 113, "poi_info_id": 22, "aname": "Wampum Lake" }, "geometry": { "type": "Point", "coordinates": [ -87.590514682454611, 41.574436278443464 ] } },
{ "type": "Feature", "properties": { "activities_id": 1022, "atype": "recreational waterbody", "trail_info_id": null, "parking_info_id": 269, "poi_info_id": 115, "aname": "Horsetail Lake" }, "geometry": { "type": "Point", "coordinates": [ -87.872025216216699, 41.669627376356701 ] } },
{ "type": "Feature", "properties": { "activities_id": 1023, "atype": "recreational waterbody", "trail_info_id": null, "parking_info_id": 234, "poi_info_id": 116, "aname": "Papoose Lake" }, "geometry": { "type": "Point", "coordinates": [ -87.858677404184121, 41.665321270588024 ] } },
{ "type": "Feature", "properties": { "activities_id": 1024, "atype": "recreational waterbody", "trail_info_id": null, "parking_info_id": 48, "poi_info_id": 128, "aname": "Arrowhead Lake" }, "geometry": { "type": "Point", "coordinates": [ -87.793028075832581, 41.65177762755026 ] } },
{ "type": "Feature", "properties": { "activities_id": 1025, "atype": "recreational waterbody", "trail_info_id": null, "parking_info_id": 262, "poi_info_id": 333, "aname": "Sag Quarry-West" }, "geometry": { "type": "Point", "coordinates": [ -87.934349829418366, 41.69315719693045 ] } },
{ "type": "Feature", "properties": { "activities_id": 1026, "atype": "recreational waterbody", "trail_info_id": null, "parking_info_id": 262, "poi_info_id": 333, "aname": "Sag Quarry-East" }, "geometry": { "type": "Point", "coordinates": [ -87.929818318270193, 41.691290027934734 ] } },
{ "type": "Feature", "properties": { "activities_id": 1027, "atype": "recreational waterbody", "trail_info_id": null, "parking_info_id": 272, "poi_info_id": 126, "aname": "Tampier Lake" }, "geometry": { "type": "Point", "coordinates": [ -87.903594116612098, 41.649497151176519 ] } },
{ "type": "Feature", "properties": { "activities_id": 1028, "atype": "recreational waterbody", "trail_info_id": null, "parking_info_id": 282, "poi_info_id": 305, "aname": "Midlothian Reservoir" }, "geometry": { "type": "Point", "coordinates": [ -87.740246479219053, 41.592281518530839 ] } },
{ "type": "Feature", "properties": { "activities_id": 1029, "atype": "recreational waterbody", "trail_info_id": null, "parking_info_id": 178, "poi_info_id": 325, "aname": "Bullfrog Lake" }, "geometry": { "type": "Point", "coordinates": [ -87.900839064338925, 41.709482447199306 ] } },
{ "type": "Feature", "properties": { "activities_id": 1030, "atype": "recreational waterbody", "trail_info_id": null, "parking_info_id": 260, "poi_info_id": 322, "aname": "Saganashkee Slough" }, "geometry": { "type": "Point", "coordinates": [ -87.891627807268179, 41.694348359733006 ] } },
{ "type": "Feature", "properties": { "activities_id": 1031, "atype": "recreational waterbody", "trail_info_id": null, "parking_info_id": 298, "poi_info_id": 149, "aname": "Powderhorn Lake" }, "geometry": { "type": "Point", "coordinates": [ -87.530001350976406, 41.642639943574906 ] } },
{ "type": "Feature", "properties": { "activities_id": 1032, "atype": "recreational waterbody", "trail_info_id": null, "parking_info_id": 220, "poi_info_id": 346, "aname": "Belleau Lake" }, "geometry": { "type": "Point", "coordinates": [ -87.86849978371194, 42.033789638761689 ] } },
{ "type": "Feature", "properties": { "activities_id": 1033, "atype": "recreational waterbody", "trail_info_id": null, "parking_info_id": 47, "poi_info_id": 175, "aname": "Turtlehead Lake" }, "geometry": { "type": "Point", "coordinates": [ -87.805992073416292, 41.641603131863313 ] } },
{ "type": "Feature", "properties": { "activities_id": 1034, "atype": "recreational waterbody", "trail_info_id": null, "parking_info_id": 206, "poi_info_id": 202, "aname": "Beverly Lake" }, "geometry": { "type": "Point", "coordinates": [ -88.228790578056106, 42.084242747677109 ] } },
{ "type": "Feature", "properties": { "activities_id": 1035, "atype": "recreational waterbody", "trail_info_id": null, "parking_info_id": 311, "poi_info_id": 60, "aname": "Joe's Pond" }, "geometry": { "type": "Point", "coordinates": [ -87.876130051620223, 41.702475291778448 ] } },
{ "type": "Feature", "properties": { "activities_id": 1036, "atype": "recreational waterbody", "trail_info_id": null, "parking_info_id": 0, "poi_info_id": 68, "aname": "Tryner's Pond" }, "geometry": { "type": "Point", "coordinates": [ -87.751403995434046, 41.566209443842219 ] } },
{ "type": "Feature", "properties": { "activities_id": 1037, "atype": "recreational waterbody", "trail_info_id": null, "parking_info_id": 0, "poi_info_id": 61, "aname": "Tuma Lake" }, "geometry": { "type": "Point", "coordinates": [ -87.871930926103431, 41.705247735505672 ] } },
{ "type": "Feature", "properties": { "activities_id": 1038, "atype": "recreational waterbody", "trail_info_id": null, "parking_info_id": 219, "poi_info_id": 343, "aname": "Beck Lake" }, "geometry": { "type": "Point", "coordinates": [ -87.871054645721671, 42.072795539265641 ] } },
{ "type": "Feature", "properties": { "activities_id": 1039, "atype": "recreational waterbody", "trail_info_id": null, "parking_info_id": 188, "poi_info_id": 81, "aname": "Rolling Knolls Pond" }, "geometry": { "type": "Point", "coordinates": [ -88.232644557110774, 42.034278663477906 ] } },
{ "type": "Feature", "properties": { "activities_id": 1040, "atype": "canoe landing", "trail_info_id": null, "parking_info_id": 25, "poi_info_id": 217, "aname": "Irving Park Road Canoe Landing" }, "geometry": { "type": "Point", "coordinates": [ -87.855950117932636, 41.954137639232854 ] } },
{ "type": "Feature", "properties": { "activities_id": 1041, "atype": "canoe landing", "trail_info_id": null, "parking_info_id": 244, "poi_info_id": 259, "aname": "Stony Ford Canoe Landing" }, "geometry": { "type": "Point", "coordinates": [ -87.809463834967787, 41.812841431167939 ] } },
{ "type": "Feature", "properties": { "activities_id": 1042, "atype": "bicycle lot", "trail_info_id": null, "parking_info_id": 209, "poi_info_id": 198, "aname": "Poplar Creek Bicycle Lot" }, "geometry": { "type": "Point", "coordinates": [ -88.149297541674414, 42.061994372614301 ] } },
{ "type": "Feature", "properties": { "activities_id": 1043, "atype": "recreational waterbody", "trail_info_id": null, "parking_info_id": 172, "poi_info_id": 233, "aname": "Thatcher Pond" }, "geometry": { "type": "Point", "coordinates": [ -87.827823, 41.892819 ] } },
{ "type": "Feature", "properties": { "activities_id": 1044, "atype": "recreational waterbody", "trail_info_id": null, "parking_info_id": 64, "poi_info_id": 293, "aname": "Buffalo Woods Pond" }, "geometry": { "type": "Point", "coordinates": [ -87.849263815293483, 41.736816632857817 ] } },
{ "type": "Feature", "properties": { "activities_id": 1045, "atype": "recreational waterbody", "trail_info_id": null, "parking_info_id": 170, "poi_info_id": 383, "aname": "Axehead Lake" }, "geometry": { "type": "Point", "coordinates": [ -87.866599584745671, 42.008529883368766 ] } },
{ "type": "Feature", "properties": { "activities_id": 1046, "atype": "recreational waterbody", "trail_info_id": null, "parking_info_id": 147, "poi_info_id": 364, "aname": "Big Bend Lake" }, "geometry": { "type": "Point", "coordinates": [ -87.876076952823553, 42.051370156024419 ] } },
{ "type": "Feature", "properties": { "activities_id": 1047, "atype": "boat launch", "trail_info_id": null, "parking_info_id": 261, "poi_info_id": 324, "aname": "Saganashkee Slough Boat Launch" }, "geometry": { "type": "Point", "coordinates": [ -87.904773510615399, 41.696402029934504 ] } },
{ "type": "Feature", "properties": { "activities_id": 1048, "atype": "recreational waterbody", "trail_info_id": null, "parking_info_id": 257, "poi_info_id": 370, "aname": "Crawdad Slough" }, "geometry": { "type": "Point", "coordinates": [ -87.874577906830027, 41.716378829286228 ] } },
{ "type": "Feature", "properties": { "activities_id": 1049, "atype": "recreational waterbody", "trail_info_id": null, "parking_info_id": 252, "poi_info_id": 298, "aname": "Hidden Pond" }, "geometry": { "type": "Point", "coordinates": [ -87.849747345913315, 41.722144885387927 ] } },
{ "type": "Feature", "properties": { "activities_id": 1050, "atype": "recreational waterbody", "trail_info_id": null, "parking_info_id": 160, "poi_info_id": 197, "aname": "Barrington Road Pond" }, "geometry": { "type": "Point", "coordinates": [ -88.145588838821624, 42.05618695838487 ] } },
{ "type": "Feature", "properties": { "activities_id": 1051, "atype": "boating center", "trail_info_id": null, "parking_info_id": 313, "poi_info_id": 189, "aname": "Busse Lake Boating Center" }, "geometry": { "type": "Point", "coordinates": [ -88.015151796218831, 42.024502072493995 ] } },
{ "type": "Feature", "properties": { "activities_id": 1052, "atype": "boating center", "trail_info_id": null, "parking_info_id": 177, "poi_info_id": 378, "aname": "Maple Lake Boating Center" }, "geometry": { "type": "Point", "coordinates": [ -87.89450573794862, 41.712340279275281 ] } },
{ "type": "Feature", "properties": { "activities_id": 1053, "atype": "boating center", "trail_info_id": null, "parking_info_id": 272, "poi_info_id": 126, "aname": "Tampier Lake Boating Center" }, "geometry": { "type": "Point", "coordinates": [ -87.897742692556164, 41.650179855070903 ] } },
{ "type": "Feature", "properties": { "activities_id": 1054, "atype": "model airplane flying field", "trail_info_id": null, "parking_info_id": 264, "poi_info_id": 163, "aname": "Thorn Creek Model Airplane Flying Field" }, "geometry": { "type": "Point", "coordinates": [ -87.576759026722812, 41.552633158412092 ] } },
{ "type": "Feature", "properties": { "activities_id": 1055, "atype": "model airplane flying field", "trail_info_id": null, "parking_info_id": 286, "poi_info_id": 308, "aname": "Tinley Creek Model Airplane Flying Field" }, "geometry": { "type": "Point", "coordinates": [ -87.736916033483737, 41.537623390557705 ] } },
{ "type": "Feature", "properties": { "activities_id": 1056, "atype": "model airplane flying field", "trail_info_id": null, "parking_info_id": 223, "poi_info_id": 222, "aname": "Schiller Model Airplane Flying Field" }, "geometry": { "type": "Point", "coordinates": [ -87.84216923328394, 41.951660764765101 ] } },
{ "type": "Feature", "properties": { "activities_id": 1057, "atype": "model airplane flying field", "trail_info_id": null, "parking_info_id": 210, "poi_info_id": 199, "aname": "Poplar Creek Model Airplane Flying Field" }, "geometry": { "type": "Point", "coordinates": [ -88.160680540662469, 42.060260371622476 ] } },
{ "type": "Feature", "properties": { "activities_id": 1058, "atype": "equestrian parking", "trail_info_id": null, "parking_info_id": 214, "poi_info_id": 195, "aname": "Poplar Creek Equestrian Parking" }, "geometry": { "type": "Point", "coordinates": [ -88.214132072499936, 42.030979433625461 ] } },
{ "type": "Feature", "properties": { "activities_id": 1059, "atype": "equestrian parking", "trail_info_id": null, "parking_info_id": 192, "poi_info_id": 58, "aname": "Camp Kiwanis Equestrian Staging Area" }, "geometry": { "type": "Point", "coordinates": [ -87.873788160479307, 41.709576523560521 ] } },
{ "type": "Feature", "properties": { "activities_id": 1060, "atype": "equestrian parking", "trail_info_id": null, "parking_info_id": 197, "poi_info_id": 347, "aname": "Spring Lake Equestrian Parking" }, "geometry": { "type": "Point", "coordinates": [ -88.220180404735842, 42.136123151208601 ] } },
{ "type": "Feature", "properties": { "activities_id": 1061, "atype": "equestrian parking", "trail_info_id": null, "parking_info_id": 297, "poi_info_id": 398, "aname": "Sag Valley Equestrian Parking" }, "geometry": { "type": "Point", "coordinates": [ -87.924020885483969, 41.650278968724514 ] } },
{ "type": "Feature", "properties": { "activities_id": 1062, "atype": "boat launch", "trail_info_id": null, "parking_info_id": 301, "poi_info_id": 146, "aname": "Beaubien Woods Boat Launch" }, "geometry": { "type": "Point", "coordinates": [ -87.59038388348749, 41.650108892539663 ] } },
{ "type": "Feature", "properties": { "activities_id": 1063, "atype": "boat launch", "trail_info_id": null, "parking_info_id": 34, "poi_info_id": 253, "aname": "Plank Road Meadow Boat Launch" }, "geometry": { "type": "Point", "coordinates": [ -87.831804436468872, 41.81787244394517 ] } },
{ "type": "Feature", "properties": { "activities_id": 1064, "atype": "boat launch", "trail_info_id": null, "parking_info_id": 290, "poi_info_id": 143, "aname": "Little Calumet Boat Launch" }, "geometry": { "type": "Point", "coordinates": [ -87.659934304837847, 41.651675508098492 ] } },
{ "type": "Feature", "properties": { "activities_id": 1066, "atype": "trailhead", "trail_info_id": 411, "parking_info_id": 198, "poi_info_id": 393, "aname": "Horizon Farm" }, "geometry": { "type": "Point", "coordinates": [ -88.187073132254511, 42.12886981054077 ] } },
{ "type": "Feature", "properties": { "activities_id": 1067, "atype": "trailhead", "trail_info_id": 2149, "parking_info_id": 186, "poi_info_id": 179, "aname": "Camp Reinberg" }, "geometry": { "type": "Point", "coordinates": [ -88.06197779053484, 42.141639069541036 ] } },
{ "type": "Feature", "properties": { "activities_id": 1069, "atype": "trailhead", "trail_info_id": 2732, "parking_info_id": 128, "poi_info_id": 221, "aname": "Schiller Woods-East" }, "geometry": { "type": "Point", "coordinates": [ -87.83901545385109, 41.958583270240439 ] } },
{ "type": "Feature", "properties": { "activities_id": 1070, "atype": "trailhead", "trail_info_id": 258, "parking_info_id": 46, "poi_info_id": 250, "aname": "Bemis Woods-South" }, "geometry": { "type": "Point", "coordinates": [ -87.90523207069991, 41.822308107341094 ] } },
{ "type": "Feature", "properties": { "activities_id": 1071, "atype": "trailhead", "trail_info_id": 2299, "parking_info_id": 336, "poi_info_id": 254, "aname": "Cermak Woods" }, "geometry": { "type": "Point", "coordinates": [ -87.81251004938197, 41.818126703149211 ] } },
{ "type": "Feature", "properties": { "activities_id": 1072, "atype": "trailhead", "trail_info_id": 615, "parking_info_id": 197, "poi_info_id": 347, "aname": "Spring Lake Equestrian Parking" }, "geometry": { "type": "Point", "coordinates": [ -88.219398951803029, 42.135819444272464 ] } },
{ "type": "Feature", "properties": { "activities_id": 1073, "atype": "trailhead", "trail_info_id": 91, "parking_info_id": 162, "poi_info_id": 339, "aname": "Lake Avenue Woods-East" }, "geometry": { "type": "Point", "coordinates": [ -87.883418738950198, 42.091063939571747 ] } },
{ "type": "Feature", "properties": { "activities_id": 1075, "atype": "fitness stairs", "trail_info_id": null, "parking_info_id": 60, "poi_info_id": 123, "aname": "Swallow Cliff Stairs" }, "geometry": { "type": "Point", "coordinates": [ -87.862742465334591, 41.680652601782903 ] } },
{ "type": "Feature", "properties": { "activities_id": 1079, "atype": "trailhead", "trail_info_id": 1275, "parking_info_id": 350, "poi_info_id": 1078, "aname": "Oak Forest Heritage Preserve-West" }, "geometry": { "type": "Point", "coordinates": [ -87.728472298987668, 41.597895906856266 ] } },
{ "type": "Feature", "properties": { "activities_id": 1083, "atype": "pavilion", "trail_info_id": null, "parking_info_id": 188, "poi_info_id": 81, "aname": "Rolling Knolls Pavilion" }, "geometry": { "type": "Point", "coordinates": [ -88.230724504269133, 42.035384889171162 ] } },
{ "type": "Feature", "properties": { "activities_id": 1084, "atype": "sledding", "trail_info_id": null, "parking_info_id": 188, "poi_info_id": 81, "aname": "Rolling Knolls Sledding Hill" }, "geometry": { "type": "Point", "coordinates": [ -88.231714484456305, 42.035747850629214 ] } },
{ "type": "Feature", "properties": { "activities_id": 1085, "atype": "trailhead", "trail_info_id": 2608, "parking_info_id": 229, "poi_info_id": 263, "aname": "Chicago Botanic Garden" }, "geometry": { "type": "Point", "coordinates": [ -87.786515743133478, 42.149600305968114 ] } },
{ "type": "Feature", "properties": { "activities_id": 1097, "atype": "model airplane flying field", "trail_info_id": null, "parking_info_id": 353, "poi_info_id": 1011, "aname": "Miller Meadow Model Airplane Flying Field" }, "geometry": { "type": "Point", "coordinates": [ -87.8292984706233, 41.851644419597214 ] } },
{ "type": "Feature", "properties": { "activities_id": 1098, "atype": "canoe landing", "trail_info_id": null, "parking_info_id": 8, "poi_info_id": 234, "aname": "Maywood Grove Canoe Landing" }, "geometry": { "type": "Point", "coordinates": [ -87.832589204164336, 41.888660321372107 ] } },
{ "type": "Feature", "properties": { "activities_id": 1099, "atype": "recreational waterbody", "trail_info_id": null, "parking_info_id": 350, "poi_info_id": 1078, "aname": "Pogie Lake" }, "geometry": { "type": "Point", "coordinates": [ -87.725403488269464, 41.59853262670206 ] } },
{ "type": "Feature", "properties": { "activities_id": 1101, "atype": "bicycle rental", "trail_info_id": null, "parking_info_id": 160, "poi_info_id": 197, "aname": "Barrington Road Pond Bike Rental" }, "geometry": { "type": "Point", "coordinates": [ -88.144919, 42.056813 ] } },
{ "type": "Feature", "properties": { "activities_id": 1102, "atype": "bicycle rental", "trail_info_id": null, "parking_info_id": 151, "poi_info_id": 390, "aname": "Bemis Woods North Bike Rental" }, "geometry": { "type": "Point", "coordinates": [ -87.906951, 41.828061 ] } },
{ "type": "Feature", "properties": { "activities_id": 1103, "atype": "bicycle rental", "trail_info_id": null, "parking_info_id": 46, "poi_info_id": 250, "aname": "Bemis Woods South Bike Rental" }, "geometry": { "type": "Point", "coordinates": [ -87.904888, 41.82208 ] } },
{ "type": "Feature", "properties": { "activities_id": 1104, "atype": "bicycle rental", "trail_info_id": null, "parking_info_id": 213, "poi_info_id": 196, "aname": "Bode Lake Bike Rental" }, "geometry": { "type": "Point", "coordinates": [ -88.168901, 42.03965 ] } },
{ "type": "Feature", "properties": { "activities_id": 1105, "atype": "bicycle rental", "trail_info_id": null, "parking_info_id": 164, "poi_info_id": 138, "aname": "Bremen Grove Bike Rental" }, "geometry": { "type": "Point", "coordinates": [ -87.783483, 41.599564 ] } },
{ "type": "Feature", "properties": { "activities_id": 1106, "atype": "bicycle rental", "trail_info_id": null, "parking_info_id": 29, "poi_info_id": 247, "aname": "Brezina Woods Bike Rental" }, "geometry": { "type": "Point", "coordinates": [ -87.876762, 41.84479 ] } },
{ "type": "Feature", "properties": { "activities_id": 1107, "atype": "bicycle rental", "trail_info_id": null, "parking_info_id": 28, "poi_info_id": 243, "aname": "Brookfield Woods Bike Rental" }, "geometry": { "type": "Point", "coordinates": [ -87.839585, 41.836534 ] } },
{ "type": "Feature", "properties": { "activities_id": 1108, "atype": "bicycle rental", "trail_info_id": null, "parking_info_id": 118, "poi_info_id": 282, "aname": "Bunker Hill Bike Rental" }, "geometry": { "type": "Point", "coordinates": [ -87.784761, 42.002833 ] } },
{ "type": "Feature", "properties": { "activities_id": 1109, "atype": "bicycle rental", "trail_info_id": null, "parking_info_id": 166, "poi_info_id": 185, "aname": "Busse Forest Elk Pasture Bike Rental" }, "geometry": { "type": "Point", "coordinates": [ -87.986538, 42.031233 ] } },
{ "type": "Feature", "properties": { "activities_id": 1110, "atype": "bicycle rental", "trail_info_id": null, "parking_info_id": 313, "poi_info_id": 189, "aname": "Busse Lake Boating Center Bike Rental" }, "geometry": { "type": "Point", "coordinates": [ -88.0186797, 42.024849299999985 ] } },
{ "type": "Feature", "properties": { "activities_id": 1111, "atype": "bicycle rental", "trail_info_id": null, "parking_info_id": 334, "poi_info_id": 100, "aname": "Camp Bullfrog Lake Bike Rental" }, "geometry": { "type": "Point", "coordinates": [ -87.901729799999984, 41.710432 ] } },
{ "type": "Feature", "properties": { "activities_id": 1112, "atype": "bicycle rental", "trail_info_id": null, "parking_info_id": 171, "poi_info_id": 192, "aname": "Camp Dan Beard Bike Rental" }, "geometry": { "type": "Point", "coordinates": [ -87.898372699999982, 42.1498985 ] } },
{ "type": "Feature", "properties": { "activities_id": 1113, "atype": "bicycle rental", "trail_info_id": null, "parking_info_id": 186, "poi_info_id": 179, "aname": "Camp Reinberg Bike Rental" }, "geometry": { "type": "Point", "coordinates": [ -88.061435199999977, 42.1427542 ] } },
{ "type": "Feature", "properties": { "activities_id": 1114, "atype": "bicycle rental", "trail_info_id": null, "parking_info_id": 92, "poi_info_id": 113, "aname": "Camp Shabbona Woods Bike Rental" }, "geometry": { "type": "Point", "coordinates": [ -87.563502699999944, 41.605329 ] } },
{ "type": "Feature", "properties": { "activities_id": 1115, "atype": "bicycle rental", "trail_info_id": null, "parking_info_id": 181, "poi_info_id": 136, "aname": "Camp Sullivan Bike Rental" }, "geometry": { "type": "Point", "coordinates": [ -87.785887, 41.624546 ] } },
{ "type": "Feature", "properties": { "activities_id": 1116, "atype": "bicycle rental", "trail_info_id": null, "parking_info_id": 156, "poi_info_id": 194, "aname": "Carl R. Hansen Woods Bike Rental" }, "geometry": { "type": "Point", "coordinates": [ -88.195529, 42.052517 ] } },
{ "type": "Feature", "properties": { "activities_id": 1117, "atype": "bicycle rental", "trail_info_id": null, "parking_info_id": 279, "poi_info_id": 137, "aname": "Catalina Grove Bike Rental" }, "geometry": { "type": "Point", "coordinates": [ -87.801646, 41.617293 ] } },
{ "type": "Feature", "properties": { "activities_id": 1118, "atype": "bicycle rental", "trail_info_id": null, "parking_info_id": 336, "poi_info_id": 254, "aname": "Cermak Woods Bike Rental" }, "geometry": { "type": "Point", "coordinates": [ -87.812683, 41.817713 ] } },
{ "type": "Feature", "properties": { "activities_id": 1119, "atype": "bicycle rental", "trail_info_id": null, "parking_info_id": 26, "poi_info_id": 374, "aname": "Cummings Square Bike Rental" }, "geometry": { "type": "Point", "coordinates": [ -87.805427, 41.888824 ] } },
{ "type": "Feature", "properties": { "activities_id": 1120, "atype": "bicycle rental", "trail_info_id": null, "parking_info_id": 117, "poi_info_id": 181, "aname": "Deer Grove East Bike Rental" }, "geometry": { "type": "Point", "coordinates": [ -88.042406, 42.140953 ] } },
{ "type": "Feature", "properties": { "activities_id": 1121, "atype": "bicycle rental", "trail_info_id": null, "parking_info_id": 139, "poi_info_id": 315, "aname": "Eggers Grove Bike Rental" }, "geometry": { "type": "Point", "coordinates": [ -87.528158, 41.68814 ] } },
{ "type": "Feature", "properties": { "activities_id": 1122, "atype": "bicycle rental", "trail_info_id": null, "parking_info_id": 99, "poi_info_id": 268, "aname": "Erickson Woods Bike Rental" }, "geometry": { "type": "Point", "coordinates": [ -87.765523, 42.101884 ] } },
{ "type": "Feature", "properties": { "activities_id": 1123, "atype": "bicycle rental", "trail_info_id": null, "parking_info_id": 122, "poi_info_id": 288, "aname": "Forest Glen Woods Bike Rental" }, "geometry": { "type": "Point", "coordinates": [ -87.754973, 41.980766 ] } },
{ "type": "Feature", "properties": { "activities_id": 1124, "atype": "bicycle rental", "trail_info_id": null, "parking_info_id": 108, "poi_info_id": 160, "aname": "Glenwood Woods North Bike Rental" }, "geometry": { "type": "Point", "coordinates": [ -87.62094, 41.548038 ] } },
{ "type": "Feature", "properties": { "activities_id": 1125, "atype": "bicycle rental", "trail_info_id": null, "parking_info_id": 93, "poi_info_id": 153, "aname": "Green Lake Woods Bike Rental" }, "geometry": { "type": "Point", "coordinates": [ -87.55266, 41.602799 ] } },
{ "type": "Feature", "properties": { "activities_id": 1126, "atype": "bicycle rental", "trail_info_id": null, "parking_info_id": 101, "poi_info_id": 166, "aname": "Joe Orr Woods Bike Rental" }, "geometry": { "type": "Point", "coordinates": [ -87.630516, 41.520096 ] } },
{ "type": "Feature", "properties": { "activities_id": 1127, "atype": "bicycle rental", "trail_info_id": null, "parking_info_id": 175, "poi_info_id": 297, "aname": "John Husar I&M Canal Bike Rental" }, "geometry": { "type": "Point", "coordinates": [ -87.879783, 41.733076 ] } },
{ "type": "Feature", "properties": { "activities_id": 1128, "atype": "bicycle rental", "trail_info_id": null, "parking_info_id": 124, "poi_info_id": 56, "aname": "LaBagh Woods Bike Rental" }, "geometry": { "type": "Point", "coordinates": [ -87.745373, 41.978179 ] } },
{ "type": "Feature", "properties": { "activities_id": 1129, "atype": "bicycle rental", "trail_info_id": null, "parking_info_id": 322, "poi_info_id": 165, "aname": "Lansing Woods Bike Rental" }, "geometry": { "type": "Point", "coordinates": [ -87.553408, 41.557167 ] } },
{ "type": "Feature", "properties": { "activities_id": 1130, "atype": "bicycle rental", "trail_info_id": null, "parking_info_id": 293, "poi_info_id": 277, "aname": "Linne Woods Bike Rental" }, "geometry": { "type": "Point", "coordinates": [ -87.784655, 42.044218 ] } },
{ "type": "Feature", "properties": { "activities_id": 1131, "atype": "bicycle rental", "trail_info_id": null, "parking_info_id": 282, "poi_info_id": 305, "aname": "Midlothian Reservoir Bike Rental" }, "geometry": { "type": "Point", "coordinates": [ -87.738522, 41.58928 ] } },
{ "type": "Feature", "properties": { "activities_id": 1132, "atype": "bicycle rental", "trail_info_id": null, "parking_info_id": 7, "poi_info_id": 237, "aname": "Miller Meadow South Bike Rental" }, "geometry": { "type": "Point", "coordinates": [ -87.830182, 41.85838 ] } },
{ "type": "Feature", "properties": { "activities_id": 1133, "atype": "bicycle rental", "trail_info_id": null, "parking_info_id": 276, "poi_info_id": 379, "aname": "Orland Grassland Bike Rental" }, "geometry": { "type": "Point", "coordinates": [ -87.854197, 41.586416 ] } },
{ "type": "Feature", "properties": { "activities_id": 1134, "atype": "bicycle rental", "trail_info_id": null, "parking_info_id": 84, "poi_info_id": 132, "aname": "Rubio Woods Bike Rental" }, "geometry": { "type": "Point", "coordinates": [ -87.766172, 41.632679 ] } },
{ "type": "Feature", "properties": { "activities_id": 1135, "atype": "bicycle rental", "trail_info_id": null, "parking_info_id": 262, "poi_info_id": 333, "aname": "Sag Quarries Bike Rental" }, "geometry": { "type": "Point", "coordinates": [ -87.932734, 41.690564 ] } },
{ "type": "Feature", "properties": { "activities_id": 1136, "atype": "bicycle rental", "trail_info_id": null, "parking_info_id": 107, "poi_info_id": 168, "aname": "Sauk Trail Woods-Central Bike Rental" }, "geometry": { "type": "Point", "coordinates": [ -87.651221, 41.485898 ] } },
{ "type": "Feature", "properties": { "activities_id": 1137, "atype": "bicycle rental", "trail_info_id": null, "parking_info_id": 61, "poi_info_id": 112, "aname": "Teason's Woods Bike Rental" }, "geometry": { "type": "Point", "coordinates": [ -87.874359, 41.684302 ] } },
{ "type": "Feature", "properties": { "activities_id": 1138, "atype": "bicycle rental", "trail_info_id": null, "parking_info_id": 121, "poi_info_id": 52, "aname": "Thaddeus S. \"Ted\" Lechowicz Woods Bike Rental" }, "geometry": { "type": "Point", "coordinates": [ -87.765377, 41.988876 ] } },
{ "type": "Feature", "properties": { "activities_id": 1139, "atype": "bicycle rental", "trail_info_id": null, "parking_info_id": 95, "poi_info_id": 262, "aname": "Turnbull Woods Bike Rental" }, "geometry": { "type": "Point", "coordinates": [ -87.772556, 42.152254 ] } },
{ "type": "Feature", "properties": { "activities_id": 1140, "atype": "bicycle rental", "trail_info_id": null, "parking_info_id": 306, "poi_info_id": 246, "aname": "Twenty-Sixth Street Woods West Bike Rental" }, "geometry": { "type": "Point", "coordinates": [ -87.857782, 41.842267 ] } },
{ "type": "Feature", "properties": { "activities_id": 1141, "atype": "bicycle rental", "trail_info_id": null, "parking_info_id": 114, "poi_info_id": 309, "aname": "Vollmer Road Grove Bike Rental" }, "geometry": { "type": "Point", "coordinates": [ -87.718677, 41.529107 ] } },
{ "type": "Feature", "properties": { "activities_id": 1142, "atype": "bicycle rental", "trail_info_id": null, "parking_info_id": 89, "poi_info_id": 141, "aname": "Whistler Woods Bike Rental" }, "geometry": { "type": "Point", "coordinates": [ -87.639475, 41.65255 ] } },
{ "type": "Feature", "properties": { "activities_id": 1143, "atype": "boat rental", "trail_info_id": null, "parking_info_id": 261, "poi_info_id": 324, "aname": "Saganashkee Slough Kayak\/Canoe Rental" }, "geometry": { "type": "Point", "coordinates": [ -87.905254, 41.696309 ] } },
{ "type": "Feature", "properties": { "activities_id": 1144, "atype": "fitness stairs", "trail_info_id": null, "parking_info_id": 137, "poi_info_id": 313, "aname": "Dan Ryan Stairs" }, "geometry": { "type": "Point", "coordinates": [ -87.679574051413212, 41.736260245666713 ] } },
{ "type": "Feature", "properties": { "activities_id": 1145, "atype": "trailhead", "trail_info_id": 3073, "parking_info_id": 27, "poi_info_id": 232, "aname": "Thatcher Woods" }, "geometry": { "type": "Point", "coordinates": [ -87.828580830032166, 41.897395332111131 ] } },
{ "type": "Feature", "properties": { "activities_id": 1148, "atype": "trailhead", "trail_info_id": 2690, "parking_info_id": 320, "poi_info_id": 55, "aname": "Hidden Pond Woods-East" }, "geometry": { "type": "Point", "coordinates": [ -87.849336320660612, 41.721150663518593 ] } }
]
}
